Timestamp,Roll,Pitch,Yaw,Gyro_X,Gyro_Y,Gyro_Z,Accel_X,Accel_Y,Accel_Z,Throttle
20:16:15.881,-10.99,6.8,-67.85,-0.18,0.12,-0.67,-0.12,-0.19,1.01,1000
20:16:15.881,-10.99,6.8,-67.85,-0.12,0.12,-0.61,-0.12,-0.19,1.0,1000
20:16:15.881,-10.99,6.8,-67.86,-0.24,0.06,-0.67,-0.12,-0.19,1.01,1000
20:16:15.881,-10.99,6.8,-67.87,-0.18,0.0,-0.55,-0.12,-0.19,1.0,1000
20:16:15.881,-10.99,6.8,-67.87,-0.12,0.0,-0.49,-0.12,-0.19,1.0,1000
20:16:15.881,-10.99,6.8,-67.88,-0.37,0.06,-0.49,-0.12,-0.19,1.0,1000
20:16:15.881,-10.99,6.8,-67.88,-0.18,-0.06,-0.49,-0.12,-0.19,1.0,1000
20:16:15.881,-10.99,6.8,-67.89,-0.24,-0.06,-0.55,-0.12,-0.19,1.0,1000
20:16:15.881,-10.99,6.8,-67.89,-0.3,0.0,-0.37,-0.12,-0.19,1.0,1000
20:16:15.881,-10.99,6.8,-67.9,-0.18,0.12,-0.43,-0.12,-0.19,1.01,1000
20:16:15.881,-10.99,6.8,-67.91,-0.24,0.06,-0.61,-0.12,-0.19,1.0,1000
20:16:15.881,-10.99,6.8,-67.91,-0.06,0.06,-0.55,-0.12,-0.19,1.0,1000
20:16:15.881,-10.99,6.8,-67.92,-0.12,0.0,-0.49,-0.12,-0.19,1.0,1000
20:16:15.881,-10.99,6.8,-67.92,-0.24,-0.06,-0.61,-0.12,-0.19,1.01,1000
20:16:15.881,-11.0,6.8,-67.93,-0.24,-0.06,-0.55,-0.12,-0.19,1.01,1000
20:16:15.881,-11.0,6.8,-67.94,-0.37,0.06,-0.61,-0.12,-0.19,1.0,1000
20:16:15.881,-11.0,6.8,-67.94,-0.18,0.06,-0.43,-0.12,-0.19,1.0,1000
20:16:15.881,-11.0,6.8,-67.95,-0.24,0.06,-0.55,-0.12,-0.19,1.01,1000
20:16:15.881,-11.0,6.8,-67.95,-0.18,-0.12,-0.43,-0.12,-0.19,1.0,1000
20:16:15.881,-11.0,6.8,-67.96,-0.3,0.06,-0.61,-0.12,-0.19,1.0,1000
20:16:15.881,-11.0,6.8,-67.97,-0.24,0.06,-0.43,-0.12,-0.19,1.01,1000
20:16:15.881,-11.0,6.8,-67.97,-0.12,0.06,-0.55,-0.12,-0.19,1.0,1000
20:16:15.881,-11.0,6.8,-67.98,-0.06,0.0,-0.61,-0.12,-0.19,1.01,1000
20:16:15.881,-11.0,6.8,-67.98,-0.12,0.0,-0.37,-0.12,-0.19,1.01,1000
20:16:15.881,-11.0,6.8,-67.99,-0.18,0.0,-0.55,-0.12,-0.19,1.0,1000
20:16:15.881,-11.0,6.8,-67.99,-0.24,-0.12,-0.37,-0.12,-0.19,1.01,1000
20:16:15.881,-11.0,6.8,-68.0,-0.24,0.12,-0.61,-0.12,-0.19,1.0,1000
20:16:15.881,-11.0,6.8,-68.01,-0.3,0.12,-0.43,-0.12,-0.19,1.0,1000
20:16:15.881,-11.0,6.8,-68.01,-0.24,0.0,-0.61,-0.12,-0.19,1.01,1000
20:16:15.882,-11.0,6.8,-68.02,-0.24,0.12,-0.55,-0.12,-0.19,1.01,1000
20:16:15.882,-11.0,6.8,-68.02,-0.12,-0.06,-0.55,-0.12,-0.19,1.0,1000
20:16:15.882,-11.0,6.8,-68.03,-0.37,-0.06,-0.73,-0.12,-0.19,1.01,1000
20:16:15.882,-11.0,6.8,-68.03,-0.37,0.0,-0.55,-0.12,-0.19,1.01,1000
20:16:15.882,-11.0,6.8,-68.04,-0.18,0.06,-0.61,-0.12,-0.19,1.0,1000
20:16:15.882,-11.0,6.8,-68.04,-0.18,-0.06,-0.43,-0.12,-0.19,1.0,1000
20:16:15.882,-11.0,6.8,-68.05,-0.24,0.0,-0.43,-0.12,-0.19,1.0,1000
20:16:15.882,-11.0,6.8,-68.06,-0.24,0.0,-0.67,-0.12,-0.19,1.0,1000
20:16:15.902,-11.0,6.8,-68.06,-0.3,0.12,-0.61,-0.12,-0.19,1.01,1000
20:16:15.905,-11.0,6.8,-68.07,-0.18,0.12,-0.61,-0.12,-0.19,1.01,1000
20:16:15.915,-11.0,6.8,-68.08,-0.18,0.12,-0.55,-0.12,-0.19,1.01,1000
20:16:15.926,-11.0,6.8,-68.08,-0.3,0.06,-0.61,-0.12,-0.19,1.01,1000
20:16:15.939,-11.0,6.8,-68.09,-0.12,0.12,-0.61,-0.12,-0.19,1.01,1000
20:16:15.948,-11.0,6.8,-68.09,-0.18,0.0,-0.55,-0.12,-0.19,1.0,1000
20:16:15.961,-11.0,6.8,-68.1,-0.3,0.12,-0.61,-0.12,-0.19,1.0,1000
20:16:15.970,-11.0,6.8,-68.1,-0.24,0.06,-0.73,-0.12,-0.19,1.0,1000
20:16:15.981,-11.0,6.8,-68.11,-0.18,0.12,-0.61,-0.12,-0.19,1.0,1000
20:16:15.993,-11.0,6.8,-68.12,-0.3,0.06,-0.61,-0.12,-0.19,1.0,1000
20:16:16.004,-11.0,6.8,-68.12,-0.3,0.12,-0.61,-0.12,-0.19,1.01,1000
20:16:16.016,-11.0,6.8,-68.13,-0.18,-0.06,-0.61,-0.12,-0.19,1.01,1000
20:16:16.025,-11.0,6.8,-68.13,-0.24,0.0,-0.67,-0.12,-0.19,1.01,1000
20:16:16.037,-11.0,6.8,-68.14,-0.24,0.12,-0.37,-0.12,-0.19,1.01,1000
20:16:16.049,-11.0,6.8,-68.15,-0.24,-0.18,-0.61,-0.12,-0.19,1.01,1000
20:16:16.058,-11.0,6.8,-68.15,-0.24,0.0,-0.61,-0.12,-0.19,1.01,1000
20:16:16.072,-11.0,6.8,-68.16,-0.24,-0.06,-0.55,-0.12,-0.19,1.01,1000
20:16:16.081,-11.0,6.8,-68.17,-0.3,0.0,-0.61,-0.12,-0.19,1.0,1000
20:16:16.095,-11.0,6.8,-68.17,-0.24,-0.06,-0.61,-0.12,-0.19,1.0,1000
20:16:16.469,-11.0,6.8,-68.18,-0.3,-0.06,-0.43,-0.12,-0.19,1.01,1000
20:16:16.469,-11.0,6.8,-68.18,-0.24,0.06,-0.55,-0.12,-0.19,1.0,1000
20:16:16.469,-11.0,6.8,-68.19,-0.12,0.06,-0.43,-0.12,-0.19,1.0,1000
20:16:16.469,-11.0,6.8,-68.19,-0.12,0.06,-0.43,-0.12,-0.19,1.01,1000
20:16:16.469,-11.0,6.8,-68.2,-0.18,-0.06,-0.49,-0.12,-0.19,1.0,1000
20:16:16.469,-11.0,6.8,-68.2,-0.37,0.06,-0.61,-0.12,-0.19,1.0,1000
20:16:16.469,-11.0,6.8,-68.21,-0.12,0.12,-0.49,-0.12,-0.19,1.0,1000
20:16:16.469,-11.0,6.8,-68.22,-0.3,-0.06,-0.49,-0.12,-0.19,1.01,1000
20:16:16.469,-11.0,6.8,-68.22,-0.12,0.06,-0.37,-0.12,-0.19,1.0,1000
20:16:16.469,-11.0,6.8,-68.23,-0.18,0.06,-0.61,-0.12,-0.19,1.01,1000
20:16:16.469,-11.0,6.8,-68.23,-0.24,0.06,-0.43,-0.12,-0.19,1.01,1000
20:16:16.469,-11.0,6.8,-68.24,-0.18,0.06,-0.61,-0.12,-0.19,1.01,1000
20:16:16.469,-11.0,6.8,-68.25,-0.3,0.06,-0.61,-0.12,-0.19,1.0,1000
20:16:16.469,-11.0,6.8,-68.25,-0.24,0.0,-0.61,-0.12,-0.19,1.0,1000
20:16:16.469,-11.0,6.8,-68.26,-0.18,-0.06,-0.43,-0.12,-0.19,1.0,1000
20:16:16.469,-11.0,6.8,-68.26,-0.43,0.0,-0.61,-0.12,-0.19,1.0,1000
20:16:16.469,-11.0,6.8,-68.27,-0.24,0.0,-0.61,-0.12,-0.19,1.01,1000
20:16:16.469,-11.0,6.8,-68.27,-0.18,0.0,-0.67,-0.12,-0.19,1.0,1000
20:16:16.470,-11.0,6.8,-68.28,-0.24,0.06,-0.73,-0.12,-0.19,1.01,1000
20:16:16.470,-11.0,6.8,-68.29,-0.37,0.0,-0.61,-0.12,-0.19,1.01,1000
20:16:16.470,-11.0,6.8,-68.29,-0.37,0.0,-0.49,-0.12,-0.19,1.0,1000
20:16:16.470,-11.0,6.8,-68.3,-0.24,0.0,-0.61,-0.12,-0.19,1.0,1000
20:16:16.470,-11.0,6.8,-68.3,-0.18,0.06,-0.43,-0.12,-0.19,1.0,1000
20:16:16.470,-11.0,6.8,-68.31,-0.18,0.0,-0.49,-0.12,-0.19,1.01,1000
20:16:16.470,-11.0,6.8,-68.31,-0.3,0.0,-0.61,-0.12,-0.19,1.01,1000
20:16:16.470,-11.0,6.8,-68.32,-0.12,0.0,-0.49,-0.12,-0.19,1.01,1000
20:16:16.470,-11.0,6.8,-68.33,-0.37,-0.06,-0.61,-0.12,-0.19,1.01,1000
20:16:16.470,-11.0,6.8,-68.33,-0.18,-0.06,-0.49,-0.12,-0.19,1.0,1000
20:16:16.470,-11.0,6.8,-68.34,-0.18,0.06,-0.49,-0.12,-0.19,1.01,1000
20:16:16.470,-11.0,6.8,-68.34,-0.24,-0.06,-0.55,-0.12,-0.19,1.0,1000
20:16:16.470,-11.0,6.8,-68.35,-0.3,-0.06,-0.67,-0.12,-0.19,1.0,1000
20:16:16.470,-11.0,6.8,-68.35,-0.18,0.12,-0.61,-0.12,-0.19,1.0,1000
20:16:16.470,-11.0,6.8,-68.36,-0.24,0.12,-0.55,-0.12,-0.19,1.0,1000
20:16:16.470,-11.0,6.8,-68.37,-0.24,0.0,-0.55,-0.12,-0.19,1.01,1000
20:16:16.476,-11.0,6.8,-68.37,-0.24,0.0,-0.49,-0.12,-0.19,1.01,1000
20:16:16.487,-11.0,6.8,-68.38,-0.37,0.0,-0.55,-0.12,-0.19,1.0,1000
20:16:16.498,-11.0,6.8,-68.38,-0.18,0.12,-0.3,-0.12,-0.19,1.0,1000
20:16:16.510,-11.0,6.8,-68.39,-0.3,0.06,-0.55,-0.12,-0.19,1.0,1000
20:16:16.520,-11.0,6.8,-68.4,-0.18,0.12,-0.55,-0.12,-0.19,1.0,1000
20:16:16.531,-11.0,6.8,-68.4,-0.3,0.06,-0.61,-0.12,-0.19,1.0,1000
20:16:16.542,-11.0,6.8,-68.41,-0.24,0.0,-0.67,-0.12,-0.19,1.01,1000
20:16:16.555,-11.0,6.8,-68.41,-0.24,-0.12,-0.67,-0.12,-0.19,1.01,1000
20:16:16.564,-11.01,6.8,-68.42,-0.37,0.12,-0.55,-0.12,-0.19,1.0,1000
20:16:16.576,-11.01,6.8,-68.43,-0.43,0.0,-0.61,-0.12,-0.2,1.01,1000
20:16:16.586,-11.01,6.8,-68.43,-0.18,0.0,-0.49,-0.12,-0.19,1.0,1000
20:16:16.597,-11.01,6.8,-68.44,-0.18,0.18,-0.55,-0.12,-0.19,1.0,1000
20:16:16.617,-11.01,6.8,-68.44,-0.18,-0.06,-0.49,-0.12,-0.19,1.0,1000
20:16:16.620,-11.01,6.8,-68.45,-0.3,0.06,-0.61,-0.12,-0.19,1.01,1000
20:16:16.630,-11.01,6.8,-68.46,-0.24,0.12,-0.43,-0.12,-0.19,1.0,1000
20:16:16.641,-11.01,6.8,-68.46,-0.3,0.06,-0.49,-0.12,-0.19,1.0,1000
20:16:16.655,-11.01,6.8,-68.47,-0.06,0.12,-0.37,-0.12,-0.19,1.01,1000
20:16:16.665,-11.01,6.8,-68.47,-0.12,-0.06,-0.73,-0.12,-0.19,1.0,1000
20:16:16.674,-11.01,6.8,-68.48,-0.24,0.06,-0.61,-0.12,-0.19,1.0,1000
20:16:16.685,-11.01,6.8,-68.48,-0.3,0.0,-0.49,-0.12,-0.19,1.0,1000
20:16:16.702,-11.01,6.8,-68.49,-0.12,0.06,-0.49,-0.12,-0.19,1.01,1000
20:16:16.721,-11.01,6.8,-68.5,-0.12,0.18,-0.43,-0.12,-0.19,1.0,1000
20:16:16.721,-11.0,6.8,-68.5,-0.18,0.0,-0.67,-0.12,-0.19,1.0,1000
20:16:16.729,-11.0,6.8,-68.51,-0.43,0.06,-0.37,-0.12,-0.19,1.01,1000
20:16:16.741,-11.0,6.8,-68.51,-0.18,0.12,-0.3,-0.12,-0.19,1.01,1000
20:16:16.755,-11.0,6.8,-68.52,-0.24,-0.06,-0.43,-0.12,-0.19,1.01,1000
20:16:16.762,-11.0,6.8,-68.52,-0.24,0.0,-0.55,-0.12,-0.19,1.01,1000
20:16:16.773,-11.0,6.8,-68.53,-0.18,0.0,-0.49,-0.12,-0.19,1.01,1000
20:16:16.786,-11.0,6.8,-68.54,-0.3,0.06,-0.55,-0.12,-0.19,1.01,1000
20:16:16.799,-11.0,6.8,-68.54,-0.24,0.06,-0.49,-0.12,-0.19,1.01,1000
20:16:16.806,-11.0,6.8,-68.55,-0.12,0.12,-0.61,-0.12,-0.19,1.0,1000
20:16:16.822,-11.0,6.8,-68.55,-0.24,0.0,-0.37,-0.12,-0.19,1.0,1000
20:16:16.828,-11.0,6.8,-68.56,-0.37,0.0,-0.61,-0.12,-0.19,1.01,1000
20:16:16.839,-11.01,6.8,-68.56,-0.3,0.12,-0.73,-0.12,-0.19,1.01,1000
20:16:16.857,-11.01,6.8,-68.57,-0.24,0.12,-0.43,-0.12,-0.19,1.01,1000
20:16:16.861,-11.01,6.8,-68.58,-0.12,0.0,-0.43,-0.12,-0.19,1.0,1000
20:16:16.873,-11.01,6.8,-68.58,-0.24,-0.06,-0.49,-0.12,-0.19,1.01,1000
20:16:16.884,-11.01,6.8,-68.59,-0.12,0.0,-0.49,-0.12,-0.19,1.01,1000
20:16:16.894,-11.01,6.8,-68.59,-0.3,0.0,-0.49,-0.12,-0.19,1.0,1000
20:16:16.907,-11.01,6.8,-68.6,-0.18,0.0,-0.49,-0.12,-0.19,1.0,1000
20:16:16.926,-11.01,6.8,-68.6,-0.12,0.12,-0.61,-0.12,-0.19,1.01,1000
20:16:16.928,-11.01,6.8,-68.61,-0.3,0.0,-0.37,-0.12,-0.19,1.0,1000
20:16:16.938,-11.01,6.8,-68.62,-0.24,0.0,-0.61,-0.12,-0.19,1.01,1000
20:16:16.949,-11.01,6.8,-68.62,-0.3,0.12,-0.73,-0.12,-0.19,1.01,1000
20:16:16.962,-11.01,6.8,-68.63,-0.3,-0.06,-0.67,-0.12,-0.19,1.01,1000
20:16:16.973,-11.01,6.8,-68.63,-0.18,0.18,-0.43,-0.12,-0.19,1.0,1000
20:16:16.982,-11.01,6.8,-68.64,-0.18,-0.06,-0.61,-0.12,-0.19,1.01,1000
20:16:16.993,-11.01,6.8,-68.65,-0.3,0.18,-0.61,-0.12,-0.19,1.01,1000
20:16:17.004,-11.01,6.8,-68.65,-0.18,0.12,-0.61,-0.12,-0.19,1.01,1000
20:16:17.017,-11.01,6.8,-68.66,-0.24,0.06,-0.49,-0.12,-0.19,1.0,1000
20:16:17.028,-11.01,6.8,-68.66,-0.24,0.06,-0.43,-0.12,-0.19,1.0,1000
20:16:17.038,-11.0,6.8,-68.67,-0.3,-0.06,-0.61,-0.12,-0.19,1.01,1000
20:16:17.048,-11.0,6.8,-68.68,-0.24,0.12,-0.61,-0.12,-0.19,1.0,1000
20:16:17.059,-11.0,6.8,-68.68,-0.3,0.0,-0.61,-0.12,-0.19,1.0,1000
20:16:17.071,-11.0,6.8,-68.69,-0.18,0.06,-0.37,-0.12,-0.19,1.0,1000
20:16:17.081,-11.0,6.8,-68.69,-0.12,0.06,-0.61,-0.12,-0.19,1.0,1000
20:16:17.093,-11.0,6.8,-68.7,-0.24,0.18,-0.49,-0.12,-0.19,1.01,1000
20:16:17.103,-11.0,6.8,-68.7,-0.18,0.0,-0.43,-0.12,-0.19,1.01,1000
20:16:17.319,-11.0,6.8,-68.71,-0.18,0.06,-0.55,-0.12,-0.2,1.0,1000
20:16:17.319,-11.0,6.8,-68.71,-0.12,-0.12,-0.37,-0.12,-0.19,1.0,1000
20:16:17.319,-11.0,6.8,-68.72,-0.3,0.06,-0.61,-0.12,-0.19,1.01,1000
20:16:17.319,-11.01,6.8,-68.73,-0.24,0.0,-0.67,-0.12,-0.2,1.01,1000
20:16:17.319,-11.01,6.8,-68.73,-0.24,0.0,-0.55,-0.12,-0.19,1.01,1000
20:16:17.319,-11.01,6.8,-68.74,-0.3,0.12,-0.55,-0.12,-0.19,1.01,1000
20:16:17.319,-11.01,6.8,-68.74,-0.3,-0.12,-0.55,-0.12,-0.19,1.0,1000
20:16:17.319,-11.01,6.8,-68.75,-0.3,0.06,-0.37,-0.12,-0.19,1.01,1000
20:16:17.319,-11.01,6.8,-68.75,-0.12,0.0,-0.49,-0.12,-0.19,1.01,1000
20:16:17.319,-11.01,6.8,-68.76,0.0,0.18,-0.67,-0.12,-0.19,1.01,1000
20:16:17.319,-11.01,6.8,-68.77,-0.43,0.12,-0.49,-0.12,-0.19,1.01,1000
20:16:17.319,-11.01,6.8,-68.77,-0.18,0.06,-0.79,-0.12,-0.19,1.01,1000
20:16:17.319,-11.01,6.8,-68.78,-0.18,0.18,-0.61,-0.12,-0.19,1.01,1000
20:16:17.319,-11.01,6.8,-68.78,-0.18,0.0,-0.55,-0.12,-0.19,1.0,1000
20:16:17.319,-11.01,6.8,-68.79,-0.3,0.06,-0.43,-0.12,-0.19,1.01,1000
20:16:17.319,-11.01,6.8,-68.8,-0.24,0.06,-0.61,-0.12,-0.19,1.0,1000
20:16:17.319,-11.01,6.8,-68.8,-0.18,-0.06,-0.67,-0.12,-0.19,1.0,1000
20:16:17.319,-11.01,6.8,-68.81,-0.12,0.0,-0.43,-0.12,-0.19,1.01,1000
20:16:17.319,-11.01,6.8,-68.81,-0.18,0.06,-0.61,-0.12,-0.19,1.01,1000
20:16:17.330,-11.01,6.8,-68.82,-0.24,0.0,-0.55,-0.12,-0.19,1.01,1000
20:16:17.334,-11.01,6.8,-68.82,-0.12,0.12,-0.43,-0.12,-0.19,1.01,1000
20:16:17.346,-11.01,6.8,-68.83,-0.18,0.06,-0.67,-0.12,-0.19,1.01,1000
20:16:17.358,-11.0,6.8,-68.84,-0.24,0.12,-0.55,-0.12,-0.19,1.0,1000
20:16:17.368,-11.0,6.8,-68.84,-0.3,0.12,-0.49,-0.12,-0.19,1.0,1000
20:16:17.381,-11.0,6.8,-68.85,-0.12,0.0,-0.37,-0.12,-0.19,1.0,1000
20:16:17.389,-11.0,6.8,-68.85,-0.12,0.12,-0.49,-0.12,-0.19,1.01,1000
20:16:17.401,-11.0,6.8,-68.86,-0.12,-0.12,-0.67,-0.12,-0.19,1.01,1000
20:16:17.412,-11.0,6.8,-68.86,-0.24,0.0,-0.49,-0.12,-0.19,1.01,1000
20:16:17.600,-11.0,6.8,-68.87,-0.3,-0.12,-0.55,-0.12,-0.19,1.01,1000
20:16:17.600,-11.0,6.8,-68.88,-0.24,-0.06,-0.55,-0.12,-0.19,1.0,1000
20:16:17.600,-11.0,6.8,-68.88,-0.3,0.12,-0.49,-0.12,-0.19,1.01,1000
20:16:17.600,-11.0,6.8,-68.89,-0.12,0.12,-0.49,-0.12,-0.19,1.01,1000
20:16:17.600,-11.0,6.8,-68.89,-0.3,0.12,-0.61,-0.12,-0.19,1.0,1000
20:16:17.600,-11.0,6.8,-68.9,-0.3,0.06,-0.67,-0.12,-0.19,1.01,1000
20:16:17.600,-11.0,6.8,-68.9,-0.12,0.0,-0.3,-0.12,-0.19,1.0,1000
20:16:17.600,-11.0,6.8,-68.91,-0.37,-0.06,-0.43,-0.12,-0.19,1.0,1000
20:16:17.600,-11.0,6.8,-68.91,-0.12,-0.12,-0.49,-0.12,-0.19,1.0,1000
20:16:17.600,-11.0,6.8,-68.92,-0.24,0.06,-0.61,-0.12,-0.19,1.01,1000
20:16:17.600,-11.01,6.8,-68.92,-0.18,0.12,-0.61,-0.12,-0.19,1.01,1000
20:16:17.600,-11.0,6.8,-68.93,-0.18,0.06,-0.67,-0.12,-0.19,1.01,1000
20:16:17.600,-11.0,6.8,-68.94,-0.12,0.06,-0.55,-0.12,-0.19,1.0,1000
20:16:17.600,-11.0,6.8,-68.94,-0.3,0.12,-0.49,-0.12,-0.19,1.01,1000
20:16:17.600,-11.0,6.8,-68.95,-0.37,0.0,-0.55,-0.12,-0.19,1.01,1000
20:16:17.600,-11.0,6.8,-68.95,-0.24,0.0,-0.37,-0.12,-0.19,1.01,1000
20:16:17.610,-11.0,6.8,-68.96,-0.12,0.06,-0.37,-0.12,-0.19,1.0,1000
20:16:17.622,-11.01,6.8,-68.97,-0.3,0.12,-0.73,-0.12,-0.19,1.0,1000
20:16:17.622,-11.01,6.8,-68.97,-0.24,0.06,-0.49,-0.12,-0.19,1.01,1000
20:16:17.638,-11.01,6.8,-68.98,-0.18,0.06,-0.49,-0.12,-0.19,1.0,1000
20:16:17.642,-11.01,6.8,-68.98,-0.24,0.06,-0.43,-0.12,-0.19,1.01,1000
20:16:17.653,-11.01,6.8,-68.99,-0.18,0.06,-0.61,-0.12,-0.19,1.01,1000
20:16:17.667,-11.01,6.8,-68.99,-0.24,0.06,-0.73,-0.12,-0.19,1.01,1000
20:16:17.675,-11.01,6.8,-69.0,-0.24,0.06,-0.49,-0.12,-0.19,1.01,1000
20:16:17.690,-11.0,6.8,-69.01,-0.12,-0.06,-0.37,-0.12,-0.19,1.01,1000
20:16:17.697,-11.0,6.8,-69.01,-0.12,0.12,-0.61,-0.12,-0.19,1.0,1000
20:16:17.708,-11.0,6.8,-69.02,-0.24,0.06,-0.43,-0.12,-0.19,1.01,1000
20:16:17.720,-11.0,6.8,-69.02,-0.24,0.0,-0.43,-0.12,-0.19,1.01,1000
20:16:17.941,-11.0,6.8,-69.03,-0.18,0.0,-0.49,-0.12,-0.19,1.01,1000
20:16:17.941,-11.0,6.8,-69.03,-0.06,0.06,-0.61,-0.12,-0.19,1.01,1000
20:16:17.941,-11.0,6.8,-69.04,-0.12,0.12,-0.43,-0.12,-0.19,1.01,1000
20:16:17.941,-11.0,6.8,-69.05,-0.3,0.12,-0.61,-0.12,-0.19,1.01,1000
20:16:17.941,-11.0,6.8,-69.05,-0.3,0.12,-0.55,-0.12,-0.19,1.0,1000
20:16:17.941,-11.01,6.8,-69.06,-0.18,-0.12,-0.37,-0.12,-0.19,1.01,1000
20:16:17.941,-11.01,6.8,-69.06,-0.24,0.12,-0.61,-0.12,-0.19,1.0,1000
20:16:17.941,-11.01,6.8,-69.07,-0.24,0.06,-0.49,-0.12,-0.19,1.0,1000
20:16:17.941,-11.01,6.8,-69.07,-0.3,0.12,-0.55,-0.12,-0.19,1.01,1000
20:16:17.941,-11.01,6.8,-69.08,-0.24,0.06,-0.37,-0.12,-0.19,1.01,1000
20:16:17.941,-11.01,6.8,-69.09,-0.24,0.06,-0.55,-0.12,-0.19,1.01,1000
20:16:17.941,-11.01,6.8,-69.09,-0.3,0.12,-0.55,-0.12,-0.19,1.01,1000
20:16:17.941,-11.01,6.8,-69.1,-0.3,-0.06,-0.67,-0.12,-0.19,1.0,1000
20:16:17.941,-11.01,6.8,-69.1,-0.06,0.06,-0.61,-0.12,-0.19,1.0,1000
20:16:17.941,-11.01,6.81,-69.11,-0.24,0.06,-0.55,-0.12,-0.2,1.01,1000
20:16:17.941,-11.01,6.81,-69.11,-0.24,0.06,-0.49,-0.12,-0.19,1.01,1000
20:16:17.941,-11.01,6.81,-69.12,-0.3,0.0,-0.49,-0.12,-0.19,1.01,1000
20:16:17.941,-11.01,6.81,-69.12,-0.12,0.0,-0.37,-0.12,-0.19,1.0,1000
20:16:17.941,-11.01,6.81,-69.13,-0.18,0.0,-0.55,-0.12,-0.19,1.01,1000
20:16:17.941,-11.01,6.81,-69.14,-0.3,0.0,-0.55,-0.12,-0.19,1.01,1000
20:16:17.950,-11.01,6.81,-69.14,-0.24,0.0,-0.61,-0.12,-0.19,1.0,1000
20:16:17.962,-11.01,6.81,-69.15,-0.18,0.06,-0.61,-0.12,-0.2,1.01,1000
20:16:17.972,-11.01,6.81,-69.15,0.06,0.06,-0.43,-0.12,-0.19,1.0,1000
20:16:17.984,-11.01,6.81,-69.16,-0.18,-0.12,-0.61,-0.12,-0.19,1.01,1000
20:16:17.995,-11.01,6.8,-69.17,-0.37,0.12,-0.61,-0.12,-0.19,1.01,1000
20:16:18.007,-11.01,6.8,-69.17,-0.18,0.06,-0.43,-0.12,-0.2,1.0,1000
20:16:18.019,-11.01,6.8,-69.18,-0.18,0.0,-0.24,-0.12,-0.19,1.01,1000
20:16:18.027,-11.01,6.8,-69.18,-0.18,0.18,-0.67,-0.12,-0.19,1.01,1000
20:16:18.043,-11.01,6.81,-69.19,-0.43,0.0,-0.61,-0.12,-0.19,1.01,1000
20:16:18.050,-11.01,6.8,-69.19,-0.12,0.12,-0.55,-0.12,-0.19,1.0,1000
20:16:18.060,-11.01,6.8,-69.2,-0.12,0.12,-0.37,-0.12,-0.19,1.01,1000
20:16:18.073,-11.01,6.81,-69.2,-0.12,0.06,-0.55,-0.12,-0.19,1.01,1000
20:16:18.083,-11.01,6.8,-69.21,-0.24,-0.12,-0.55,-0.12,-0.19,1.0,1000
20:16:18.093,-11.01,6.8,-69.22,-0.43,-0.12,-0.73,-0.12,-0.19,1.01,1000
20:16:18.104,-11.01,6.8,-69.22,-0.18,0.06,-0.49,-0.12,-0.2,1.0,1000
20:16:18.115,-11.01,6.8,-69.23,-0.24,0.12,-0.3,-0.12,-0.19,1.0,1000
20:16:18.126,-11.01,6.8,-69.23,-0.18,0.12,-0.55,-0.12,-0.19,1.0,1000
20:16:18.137,-11.01,6.8,-69.24,-0.43,-0.12,-0.67,-0.12,-0.19,1.01,1000
20:16:18.153,-11.01,6.8,-69.25,-0.18,-0.06,-0.49,-0.12,-0.19,1.0,1000
20:16:18.159,-11.01,6.8,-69.25,-0.24,0.12,-0.55,-0.12,-0.19,1.0,1000
20:16:18.170,-11.01,6.8,-69.26,-0.12,0.12,-0.55,-0.12,-0.19,1.0,1000
20:16:18.181,-11.01,6.8,-69.26,-0.18,-0.12,-0.61,-0.12,-0.19,1.01,1000
20:16:18.192,-11.01,6.8,-69.27,-0.18,0.06,-0.55,-0.12,-0.19,1.01,1000
20:16:18.204,-11.01,6.8,-69.27,-0.12,0.18,-0.61,-0.12,-0.19,1.01,1000
20:16:18.215,-11.01,6.8,-69.28,-0.12,0.0,-0.61,-0.12,-0.19,1.01,1000
20:16:18.225,-11.01,6.8,-69.29,-0.37,0.12,-0.49,-0.12,-0.19,1.0,1000
20:16:18.236,-11.01,6.8,-69.29,-0.24,0.0,-0.67,-0.12,-0.19,1.01,1000
20:16:18.254,-11.01,6.81,-69.3,-0.3,0.06,-0.43,-0.12,-0.19,1.01,1000
20:16:18.258,-11.01,6.81,-69.3,-0.18,0.06,-0.49,-0.12,-0.19,1.0,1000
20:16:18.269,-11.01,6.81,-69.31,-0.24,0.12,-0.61,-0.12,-0.19,1.0,1000
20:16:18.280,-11.01,6.81,-69.32,-0.24,0.12,-0.43,-0.12,-0.19,1.0,1000
20:16:18.291,-11.01,6.81,-69.32,-0.24,0.12,-0.49,-0.12,-0.19,1.0,1000
20:16:18.302,-11.01,6.81,-69.33,-0.24,0.12,-0.55,-0.12,-0.19,1.01,1000
20:16:18.315,-11.01,6.81,-69.33,-0.24,0.12,-0.61,-0.12,-0.19,1.0,1000
20:16:18.324,-11.01,6.81,-69.34,-0.12,0.18,-0.49,-0.12,-0.19,1.0,1000
20:16:18.335,-11.01,6.81,-69.34,-0.12,0.0,-0.43,-0.12,-0.19,1.0,1000
20:16:18.348,-11.01,6.81,-69.35,-0.3,0.12,-0.61,-0.12,-0.19,1.0,1000
20:16:18.358,-11.01,6.81,-69.36,-0.37,0.0,-0.55,-0.12,-0.19,1.0,1000
20:16:18.368,-11.01,6.81,-69.36,-0.3,0.0,-0.61,-0.12,-0.19,1.0,1000
20:16:18.380,-11.01,6.81,-69.37,-0.18,0.12,-0.18,-0.12,-0.19,1.01,1000
20:16:18.390,-11.01,6.81,-69.37,-0.12,0.12,-0.49,-0.12,-0.19,1.0,1000
20:16:18.401,-11.01,6.81,-69.38,-0.37,0.0,-0.55,-0.12,-0.19,1.0,1000
20:16:18.587,-11.01,6.81,-69.38,-0.3,0.06,-0.3,-0.12,-0.19,1.01,1000
20:16:18.587,-11.01,6.81,-69.39,-0.12,0.18,-0.49,-0.12,-0.19,1.0,1000
20:16:18.587,-11.01,6.81,-69.39,-0.24,0.0,-0.61,-0.12,-0.19,1.01,1000
20:16:18.587,-11.01,6.81,-69.4,-0.3,0.12,-0.55,-0.12,-0.19,1.0,1000
20:16:18.587,-11.01,6.81,-69.41,-0.3,-0.12,-0.43,-0.12,-0.19,1.0,1000
20:16:18.587,-11.01,6.81,-69.41,-0.18,-0.06,-0.67,-0.12,-0.19,1.01,1000
20:16:18.587,-11.01,6.81,-69.42,-0.18,-0.12,-0.61,-0.12,-0.19,1.0,1000
20:16:18.587,-11.01,6.81,-69.42,-0.18,-0.06,-0.43,-0.12,-0.19,1.01,1000
20:16:18.588,-11.01,6.81,-69.43,-0.3,-0.12,-0.55,-0.12,-0.19,1.0,1000
20:16:18.588,-11.01,6.81,-69.43,-0.37,0.0,-0.61,-0.12,-0.19,1.01,1000
20:16:18.588,-11.01,6.81,-69.44,-0.24,0.06,-0.55,-0.12,-0.19,1.0,1000
20:16:18.588,-11.01,6.81,-69.45,-0.18,0.0,-0.43,-0.12,-0.19,1.0,1000
20:16:18.588,-11.01,6.81,-69.45,-0.37,0.06,-0.61,-0.12,-0.19,1.0,1000
20:16:18.588,-11.01,6.81,-69.46,-0.24,-0.12,-0.55,-0.12,-0.19,1.01,1000
20:16:18.588,-11.01,6.81,-69.46,-0.3,0.18,-0.49,-0.12,-0.19,1.01,1000
20:16:18.588,-11.01,6.81,-69.47,-0.18,0.0,-0.49,-0.12,-0.19,1.01,1000
20:16:18.588,-11.01,6.81,-69.48,-0.12,0.0,-0.55,-0.12,-0.19,1.0,1000
20:16:18.599,-11.01,6.81,-69.48,-0.3,0.06,-0.55,-0.12,-0.19,1.0,1000
20:16:18.611,-11.01,6.81,-69.49,-0.24,-0.12,-0.49,-0.12,-0.19,1.01,1000
20:16:18.622,-11.01,6.81,-69.5,-0.24,-0.06,-0.49,-0.12,-0.19,1.0,1000
20:16:18.633,-11.01,6.81,-69.5,-0.18,0.0,-0.55,-0.12,-0.19,1.01,1000
20:16:18.644,-11.01,6.81,-69.51,-0.24,0.12,-0.61,-0.12,-0.19,1.0,1000
20:16:18.664,-11.01,6.81,-69.51,-0.3,0.06,-0.55,-0.12,-0.19,1.0,1000
20:16:18.666,-11.01,6.81,-69.52,-0.12,0.06,-0.43,-0.12,-0.19,1.01,1000
20:16:18.677,-11.01,6.81,-69.52,-0.12,0.0,-0.49,-0.12,-0.2,1.01,1000
20:16:18.687,-11.01,6.81,-69.53,-0.37,-0.06,-0.49,-0.12,-0.19,1.01,1000
20:16:18.700,-11.01,6.81,-69.54,-0.24,0.06,-0.43,-0.12,-0.19,1.0,1000
20:16:18.711,-11.01,6.81,-69.54,-0.24,0.0,-0.49,-0.12,-0.19,1.0,1000
20:16:18.720,-11.02,6.81,-69.55,-0.24,0.0,-0.49,-0.12,-0.19,1.0,1000
20:16:18.732,-11.02,6.8,-69.55,-0.37,0.12,-0.55,-0.12,-0.19,1.01,1000
20:16:18.745,-11.02,6.81,-69.56,-0.18,-0.06,-0.61,-0.12,-0.19,1.01,1000
20:16:18.951,-11.02,6.81,-69.56,-0.24,-0.06,-0.49,-0.12,-0.19,1.0,1000
20:16:18.951,-11.02,6.8,-69.57,-0.24,0.06,-0.49,-0.12,-0.19,1.01,1000
20:16:18.951,-11.02,6.81,-69.58,-0.18,0.06,-0.49,-0.12,-0.19,1.01,1000
20:16:18.951,-11.02,6.81,-69.58,-0.24,0.06,-0.61,-0.12,-0.19,1.0,1000
20:16:18.951,-11.02,6.81,-69.59,-0.12,0.12,-0.37,-0.12,-0.19,1.01,1000
20:16:18.951,-11.02,6.81,-69.59,-0.18,0.12,-0.73,-0.12,-0.19,1.01,1000
20:16:18.951,-11.02,6.81,-69.6,-0.37,-0.12,-0.49,-0.12,-0.19,1.01,1000
20:16:18.951,-11.02,6.81,-69.6,-0.24,0.06,-0.61,-0.12,-0.19,1.01,1000
20:16:18.951,-11.02,6.81,-69.61,-0.12,-0.12,-0.43,-0.12,-0.19,1.01,1000
20:16:18.951,-11.02,6.81,-69.62,-0.12,0.12,-0.61,-0.12,-0.19,1.01,1000
20:16:18.951,-11.02,6.81,-69.62,-0.24,0.0,-0.3,-0.12,-0.19,1.0,1000
20:16:18.951,-11.02,6.81,-69.63,-0.43,0.0,-0.55,-0.12,-0.19,1.01,1000
20:16:18.951,-11.02,6.81,-69.63,-0.18,0.12,-0.55,-0.12,-0.19,1.01,1000
20:16:18.951,-11.02,6.81,-69.64,-0.3,-0.12,-0.55,-0.12,-0.19,1.01,1000
20:16:18.951,-11.02,6.81,-69.64,-0.18,0.12,-0.43,-0.12,-0.19,1.0,1000
20:16:18.951,-11.02,6.81,-69.65,-0.3,0.06,-0.61,-0.12,-0.19,1.01,1000
20:16:18.951,-11.02,6.81,-69.65,-0.12,0.12,-0.43,-0.12,-0.19,1.0,1000
20:16:18.951,-11.02,6.81,-69.66,-0.24,0.06,-0.55,-0.12,-0.19,1.01,1000
20:16:18.951,-11.02,6.81,-69.67,-0.37,0.06,-0.61,-0.12,-0.19,1.01,1000
20:16:18.965,-11.02,6.81,-69.67,-0.3,0.12,-0.61,-0.12,-0.19,1.01,1000
20:16:18.974,-11.02,6.81,-69.68,-0.18,0.0,-0.61,-0.12,-0.19,1.0,1000
20:16:18.984,-11.02,6.81,-69.68,-0.37,0.06,-0.49,-0.12,-0.19,1.01,1000
20:16:18.995,-11.02,6.81,-69.69,-0.18,0.06,-0.49,-0.12,-0.19,1.0,1000
20:16:19.008,-11.02,6.81,-69.7,-0.3,0.12,-0.3,-0.12,-0.19,1.01,1000
20:16:19.017,-11.02,6.81,-69.7,-0.12,0.12,-0.67,-0.12,-0.19,1.0,1000
20:16:19.032,-11.01,6.81,-69.71,-0.3,0.0,-0.55,-0.12,-0.19,1.0,1000
20:16:19.040,-11.02,6.81,-69.71,-0.37,0.06,-0.37,-0.12,-0.19,1.0,1000
20:16:19.051,-11.02,6.81,-69.72,-0.18,-0.06,-0.61,-0.12,-0.19,1.0,1000
20:16:19.068,-11.01,6.81,-69.72,-0.18,0.12,-0.61,-0.12,-0.19,1.0,1000
20:16:19.077,-11.01,6.81,-69.73,-0.24,0.12,-0.61,-0.12,-0.19,1.0,1000
20:16:19.085,-11.01,6.81,-69.74,-0.18,0.0,-0.55,-0.12,-0.19,1.01,1000
20:16:19.095,-11.01,6.8,-69.74,-0.43,0.12,-0.61,-0.12,-0.19,1.01,1000
20:16:19.105,-11.01,6.8,-69.75,-0.43,-0.12,-0.67,-0.12,-0.19,1.0,1000
20:16:19.116,-11.01,6.8,-69.75,-0.18,0.12,-0.61,-0.12,-0.19,1.0,1000
20:16:19.128,-11.01,6.8,-69.76,-0.12,0.0,-0.43,-0.12,-0.19,1.01,1000
20:16:19.141,-11.01,6.8,-69.76,-0.24,0.12,-0.61,-0.12,-0.19,1.0,1000
20:16:19.151,-11.01,6.8,-69.77,-0.37,0.12,-0.55,-0.12,-0.19,1.01,1000
20:16:19.160,-11.01,6.8,-69.78,-0.24,0.18,-0.49,-0.12,-0.19,1.01,1000
20:16:19.177,-11.01,6.8,-69.78,-0.18,0.12,-0.61,-0.12,-0.19,1.01,1000
20:16:19.183,-11.01,6.81,-69.79,-0.24,0.06,-0.49,-0.12,-0.19,1.01,1000
20:16:19.194,-11.01,6.81,-69.79,-0.12,-0.06,-0.37,-0.12,-0.19,1.01,1000
20:16:19.204,-11.01,6.81,-69.8,-0.24,0.12,-0.55,-0.12,-0.19,1.0,1000
20:16:19.215,-11.02,6.81,-69.81,-0.24,0.12,-0.67,-0.12,-0.19,1.0,1000
20:16:19.228,-11.02,6.81,-69.81,-0.24,0.06,-0.43,-0.12,-0.19,1.0,1000
20:16:19.241,-11.02,6.81,-69.82,-0.24,0.06,-0.49,-0.12,-0.19,1.01,1000
20:16:19.248,-11.02,6.81,-69.82,-0.24,0.06,-0.43,-0.12,-0.19,1.0,1000
20:16:19.260,-11.02,6.81,-69.83,-0.18,0.12,-0.49,-0.12,-0.19,1.0,1000
20:16:19.279,-11.02,6.81,-69.83,-0.18,0.0,-0.43,-0.12,-0.19,1.01,1000
20:16:19.282,-11.02,6.81,-69.84,-0.12,0.06,-0.61,-0.12,-0.19,1.01,1000
20:16:19.293,-11.02,6.81,-69.85,-0.37,0.0,-0.49,-0.12,-0.19,1.01,1000
20:16:19.304,-11.02,6.81,-69.85,-0.12,0.0,-0.49,-0.12,-0.19,1.01,1000
20:16:19.314,-11.02,6.81,-69.86,-0.24,0.12,-0.67,-0.12,-0.19,1.01,1000
20:16:19.326,-11.02,6.81,-69.86,-0.18,0.12,-0.55,-0.12,-0.19,1.01,1000
20:16:19.336,-11.01,6.81,-69.87,-0.12,0.12,-0.49,-0.12,-0.19,1.0,1000
20:16:19.348,-11.01,6.8,-69.87,-0.18,-0.06,-0.43,-0.12,-0.19,1.01,1000
20:16:19.358,-11.01,6.8,-69.88,-0.18,0.0,-0.55,-0.12,-0.19,1.01,1000
20:16:19.379,-11.01,6.81,-69.89,-0.24,0.0,-0.61,-0.12,-0.19,1.0,1000
20:16:19.381,-11.01,6.81,-69.89,-0.12,-0.06,-0.49,-0.12,-0.19,1.0,1000
20:16:19.392,-11.01,6.81,-69.9,-0.3,0.12,-0.43,-0.12,-0.19,1.01,1000
20:16:19.402,-11.01,6.81,-69.9,-0.3,-0.06,-0.55,-0.12,-0.19,1.01,1000
20:16:19.418,-11.01,6.81,-69.91,-0.18,0.06,-0.43,-0.12,-0.19,1.0,1000
20:16:19.424,-11.01,6.81,-69.91,-0.24,0.12,-0.55,-0.12,-0.19,1.01,1000
20:16:19.435,-11.01,6.81,-69.92,-0.18,-0.06,-0.73,-0.12,-0.19,1.0,1000
20:16:19.447,-11.01,6.81,-69.93,-0.18,0.0,-0.55,-0.12,-0.19,1.01,1000
20:16:19.457,-11.01,6.81,-69.93,-0.3,0.18,-0.49,-0.12,-0.19,1.0,1000
20:16:19.469,-11.01,6.81,-69.94,-0.3,-0.06,-0.67,-0.12,-0.19,1.01,1000
20:16:19.484,-11.01,6.8,-69.95,-0.18,0.06,-0.61,-0.12,-0.19,1.01,1000
20:16:19.490,-11.01,6.8,-69.95,-0.12,0.0,-0.61,-0.12,-0.19,1.01,1000
20:16:19.501,-11.01,6.8,-69.96,-0.18,0.06,-0.43,-0.12,-0.19,1.0,1000
20:16:19.512,-11.01,6.8,-69.96,-0.24,0.0,-0.49,-0.12,-0.19,1.0,1000
20:16:19.524,-11.01,6.8,-69.97,-0.24,0.12,-0.3,-0.12,-0.19,1.01,1000
20:16:19.535,-11.01,6.8,-69.97,-0.24,0.12,-0.55,-0.12,-0.19,1.01,1000
20:16:19.545,-11.01,6.8,-69.98,-0.3,0.12,-0.55,-0.12,-0.19,1.01,1000
20:16:19.556,-11.01,6.8,-69.99,-0.24,0.0,-0.55,-0.12,-0.19,1.01,1000
20:16:19.567,-11.01,6.8,-69.99,-0.24,0.0,-0.61,-0.12,-0.19,1.0,1000
20:16:19.586,-11.01,6.8,-70.0,-0.18,0.12,-0.61,-0.12,-0.19,1.01,1000
20:16:19.590,-11.01,6.8,-70.0,-0.24,0.12,-0.61,-0.12,-0.19,1.01,1000
20:16:19.601,-11.01,6.8,-70.01,-0.18,0.12,-0.61,-0.12,-0.19,1.0,1000
20:16:19.612,-11.01,6.8,-70.02,-0.12,0.0,-0.49,-0.12,-0.19,1.01,1000
20:16:19.622,-11.01,6.8,-70.02,-0.12,0.06,-0.61,-0.12,-0.19,1.01,1000
20:16:19.634,-11.01,6.8,-70.03,-0.24,-0.06,-0.55,-0.12,-0.19,1.01,1000
20:16:19.647,-11.01,6.8,-70.03,-0.24,0.06,-0.61,-0.12,-0.19,1.01,1000
20:16:19.656,-11.01,6.8,-70.04,-0.3,0.12,-0.55,-0.12,-0.19,1.01,1000
20:16:19.667,-11.01,6.8,-70.04,-0.3,0.06,-0.61,-0.12,-0.19,1.01,1000
20:16:19.680,-11.01,6.8,-70.05,-0.18,0.18,-0.3,-0.12,-0.19,1.01,1000
20:16:19.691,-11.01,6.8,-70.06,-0.24,0.0,-0.73,-0.12,-0.19,1.01,1000
20:16:19.700,-11.01,6.8,-70.06,-0.3,0.06,-0.49,-0.12,-0.19,1.01,1000
20:16:19.711,-11.01,6.8,-70.07,-0.3,0.24,-0.49,-0.12,-0.19,1.01,1000
20:16:19.721,-11.01,6.8,-70.08,-0.24,0.0,-0.55,-0.12,-0.19,1.01,1000
20:16:19.734,-11.01,6.8,-70.08,-0.12,0.12,-0.61,-0.12,-0.19,1.01,1000
20:16:19.743,-11.01,6.8,-70.09,-0.3,0.06,-0.61,-0.12,-0.19,1.01,1000
20:16:19.754,-11.01,6.8,-70.09,-0.3,0.12,-0.49,-0.12,-0.19,1.01,1000
20:16:19.765,-11.01,6.8,-70.1,-0.24,0.06,-0.49,-0.12,-0.19,1.01,1000
20:16:19.776,-11.01,6.8,-70.1,-0.37,0.0,-0.55,-0.12,-0.19,1.0,1000
20:16:19.790,-11.01,6.8,-70.11,-0.12,-0.12,-0.55,-0.12,-0.19,1.01,1000
20:16:19.801,-11.01,6.8,-70.12,-0.12,-0.06,-0.49,-0.12,-0.19,1.01,1000
20:16:19.809,-11.01,6.8,-70.12,-0.18,0.12,-0.43,-0.12,-0.19,1.0,1000
20:16:19.820,-11.01,6.8,-70.13,-0.3,-0.12,-0.61,-0.12,-0.19,1.01,1000
20:16:19.831,-11.01,6.8,-70.13,-0.12,0.0,-0.61,-0.12,-0.19,1.01,1000
20:16:19.842,-11.01,6.8,-70.14,-0.3,0.12,-0.55,-0.12,-0.19,1.01,1000
20:16:19.854,-11.01,6.8,-70.15,-0.3,0.06,-0.49,-0.12,-0.19,1.01,1000
20:16:19.867,-11.01,6.8,-70.15,-0.24,0.0,-0.55,-0.12,-0.19,1.01,1000
20:16:19.878,-11.01,6.8,-70.16,-0.24,0.12,-0.61,-0.12,-0.19,1.0,1000
20:16:19.895,-11.01,6.8,-70.16,-0.37,0.0,-0.61,-0.12,-0.19,1.01,1000
20:16:19.898,-11.01,6.8,-70.17,-0.18,0.06,-0.55,-0.12,-0.19,1.01,1000
20:16:19.909,-11.01,6.8,-70.17,-0.12,0.06,-0.61,-0.12,-0.19,1.01,1000
20:16:19.919,-11.01,6.8,-70.18,-0.24,0.06,-0.43,-0.12,-0.19,1.01,1000
20:16:19.931,-11.01,6.8,-70.19,-0.3,0.24,-0.61,-0.12,-0.19,1.0,1000
20:16:19.942,-11.01,6.8,-70.19,-0.3,0.12,-0.55,-0.12,-0.19,1.01,1000
20:16:19.953,-11.01,6.79,-70.2,-0.18,0.06,-0.49,-0.12,-0.19,1.0,1000
20:16:19.964,-11.01,6.79,-70.2,-0.18,0.06,-0.49,-0.12,-0.19,1.01,1000
20:16:19.975,-11.01,6.79,-70.21,-0.12,0.12,-0.43,-0.12,-0.19,1.01,1000
20:16:19.995,-11.01,6.79,-70.21,-0.12,0.0,-0.43,-0.12,-0.2,1.01,1000
20:16:19.998,-11.01,6.79,-70.22,-0.12,-0.18,-0.43,-0.12,-0.19,1.01,1000
20:16:20.008,-11.01,6.79,-70.23,-0.12,-0.12,-0.55,-0.12,-0.19,1.01,1000
20:16:20.019,-11.0,6.79,-70.23,-0.18,0.0,-0.61,-0.12,-0.19,1.01,1000
20:16:20.031,-11.0,6.79,-70.24,-0.3,-0.06,-0.43,-0.12,-0.19,1.0,1000
20:16:20.041,-11.0,6.79,-70.25,-0.3,0.0,-0.61,-0.12,-0.19,1.01,1000
20:16:20.052,-11.0,6.79,-70.25,-0.18,0.0,-0.43,-0.12,-0.19,1.01,1000
20:16:20.063,-11.0,6.79,-70.26,-0.18,0.12,-0.49,-0.12,-0.19,1.0,1000
20:16:20.075,-11.0,6.79,-70.26,-0.18,0.06,-0.55,-0.12,-0.19,1.0,1000
20:16:20.089,-11.0,6.79,-70.27,-0.12,0.12,-0.61,-0.12,-0.19,1.01,1000
20:16:20.098,-11.0,6.79,-70.28,-0.24,0.12,-0.55,-0.12,-0.19,1.01,1000
20:16:20.109,-11.0,6.79,-70.28,-0.37,0.0,-0.55,-0.12,-0.19,1.0,1000
20:16:20.118,-11.0,6.79,-70.29,-0.12,0.0,-0.61,-0.12,-0.19,1.01,1000
20:16:20.129,-11.0,6.79,-70.29,-0.18,0.06,-0.61,-0.12,-0.19,1.01,1000
20:16:20.140,-11.0,6.79,-70.3,-0.18,0.0,-0.43,-0.12,-0.19,1.0,1000
20:16:20.150,-11.0,6.79,-70.3,-0.24,0.06,-0.49,-0.12,-0.19,1.01,1000
20:16:20.162,-11.0,6.79,-70.31,-0.3,0.0,-0.43,-0.12,-0.19,1.01,1000
20:16:20.172,-11.0,6.79,-70.32,-0.12,-0.06,-0.49,-0.12,-0.19,1.01,1000
20:16:20.184,-11.0,6.79,-70.32,-0.18,0.06,-0.37,-0.12,-0.19,1.01,1000
20:16:20.202,-11.0,6.79,-70.33,-0.24,0.12,-0.61,-0.12,-0.19,1.0,1000
20:16:20.205,-11.0,6.79,-70.33,-0.18,0.12,-0.67,-0.12,-0.19,1.01,1000
20:16:20.217,-11.0,6.79,-70.34,-0.24,-0.06,-0.67,-0.12,-0.19,1.01,1000
20:16:20.227,-11.0,6.79,-70.35,-0.24,0.0,-0.49,-0.12,-0.19,1.01,1000
20:16:20.239,-11.0,6.79,-70.35,-0.3,0.12,-0.55,-0.12,-0.19,1.01,1000
20:16:20.250,-11.0,6.79,-70.36,-0.18,0.0,-0.43,-0.12,-0.2,1.0,1000
20:16:20.261,-11.0,6.79,-70.36,-0.18,0.0,-0.43,-0.12,-0.19,1.01,1000
20:16:20.272,-11.0,6.79,-70.37,-0.12,-0.06,-0.43,-0.12,-0.19,1.01,1000
20:16:20.282,-11.0,6.79,-70.38,-0.12,0.0,-0.43,-0.12,-0.19,1.0,1000
20:16:20.294,-11.0,6.79,-70.38,-0.24,0.12,-0.55,-0.12,-0.19,1.0,1000
20:16:20.305,-11.0,6.79,-70.39,-0.12,0.06,-0.61,-0.12,-0.19,1.0,1000
20:16:20.316,-11.01,6.79,-70.39,-0.24,-0.06,-0.61,-0.12,-0.2,1.0,1000
20:16:20.327,-11.01,6.79,-70.4,-0.37,0.12,-0.49,-0.12,-0.19,1.0,1000
20:16:20.339,-11.01,6.79,-70.41,-0.24,0.06,-0.49,-0.12,-0.19,1.01,1000
20:16:20.349,-11.01,6.79,-70.41,-0.12,0.0,-0.37,-0.12,-0.19,1.01,1000
20:16:20.360,-11.01,6.79,-70.42,-0.24,0.12,-0.61,-0.12,-0.19,1.0,1000
20:16:20.371,-11.01,6.79,-70.42,-0.18,0.12,-0.61,-0.12,-0.19,1.0,1000
20:16:20.382,-11.01,6.79,-70.43,-0.18,0.12,-0.61,-0.12,-0.19,1.0,1000
20:16:20.571,-11.01,6.79,-70.43,-0.18,0.06,-0.43,-0.12,-0.19,1.0,1000
20:16:20.571,-11.01,6.79,-70.44,-0.18,-0.06,-0.55,-0.12,-0.19,1.01,1000
20:16:20.571,-11.01,6.79,-70.45,-0.24,0.0,-0.24,-0.12,-0.19,1.01,1000
20:16:20.571,-11.01,6.79,-70.45,-0.3,0.0,-0.49,-0.12,-0.19,1.0,1000
20:16:20.571,-11.01,6.79,-70.46,-0.12,-0.06,-0.49,-0.12,-0.19,1.01,1000
20:16:20.571,-11.01,6.79,-70.46,-0.3,0.06,-0.61,-0.12,-0.19,1.01,1000
20:16:20.571,-11.01,6.79,-70.47,-0.24,0.0,-0.55,-0.12,-0.19,1.01,1000
20:16:20.571,-11.01,6.79,-70.48,-0.49,-0.06,-0.49,-0.12,-0.19,1.01,1000
20:16:20.571,-11.01,6.79,-70.48,-0.24,0.0,-0.61,-0.12,-0.19,1.01,1000
20:16:20.571,-11.01,6.8,-70.49,-0.12,0.12,-0.61,-0.12,-0.19,1.01,1000
20:16:20.571,-11.01,6.8,-70.49,-0.24,0.0,-0.49,-0.12,-0.19,1.01,1000
20:16:20.571,-11.01,6.8,-70.5,-0.24,0.06,-0.61,-0.12,-0.19,1.0,1000
20:16:20.571,-11.01,6.8,-70.51,-0.3,0.06,-0.43,-0.12,-0.19,1.0,1000
20:16:20.571,-11.01,6.8,-70.51,-0.12,0.06,-0.37,-0.12,-0.19,1.01,1000
20:16:20.571,-11.01,6.8,-70.52,-0.3,0.12,-0.61,-0.12,-0.19,1.01,1000
20:16:20.571,-11.01,6.8,-70.52,-0.24,0.06,-0.43,-0.12,-0.19,1.0,1000
20:16:20.571,-11.0,6.8,-70.53,-0.24,0.0,-0.49,-0.12,-0.19,1.01,1000
20:16:20.579,-11.01,6.8,-70.53,-0.37,-0.06,-0.55,-0.12,-0.19,1.01,1000
20:16:20.591,-11.0,6.8,-70.54,-0.18,0.06,-0.43,-0.12,-0.19,1.01,1000
20:16:20.798,-11.0,6.8,-70.54,-0.24,-0.06,-0.67,-0.12,-0.2,1.0,1000
20:16:20.798,-11.01,6.8,-70.55,-0.24,0.06,-0.61,-0.12,-0.19,1.0,1000
20:16:20.798,-11.01,6.8,-70.56,-0.3,-0.06,-0.55,-0.12,-0.19,1.01,1000
20:16:20.798,-11.01,6.8,-70.56,-0.3,0.0,-0.61,-0.12,-0.19,1.01,1000
20:16:20.798,-11.01,6.8,-70.57,-0.06,0.0,-0.43,-0.12,-0.19,1.0,1000
20:16:20.798,-11.01,6.8,-70.57,-0.24,-0.06,-0.55,-0.12,-0.19,1.01,1000
20:16:20.798,-11.01,6.8,-70.58,-0.3,0.12,-0.61,-0.12,-0.19,1.01,1000
20:16:20.798,-11.0,6.8,-70.58,-0.18,-0.06,-0.61,-0.12,-0.19,1.0,1000
20:16:20.798,-11.01,6.8,-70.59,-0.24,-0.06,-0.61,-0.12,-0.19,1.01,1000
20:16:20.798,-11.01,6.79,-70.6,-0.3,0.0,-0.61,-0.12,-0.19,1.01,1000
20:16:20.798,-11.01,6.79,-70.6,-0.12,0.06,-0.61,-0.12,-0.19,1.0,1000
20:16:20.798,-11.01,6.79,-70.61,-0.12,0.12,-0.43,-0.12,-0.19,1.01,1000
20:16:20.798,-11.01,6.79,-70.61,-0.24,0.06,-0.61,-0.12,-0.19,1.01,1000
20:16:20.798,-11.01,6.79,-70.62,-0.24,0.12,-0.49,-0.12,-0.19,1.01,1000
20:16:20.798,-11.01,6.79,-70.62,-0.3,0.12,-0.37,-0.12,-0.19,1.01,1000
20:16:20.798,-11.01,6.79,-70.63,-0.12,-0.18,-0.67,-0.12,-0.19,1.0,1000
20:16:20.798,-11.01,6.79,-70.64,-0.24,-0.06,-0.73,-0.12,-0.19,1.01,1000
20:16:20.798,-11.01,6.79,-70.64,-0.12,0.0,-0.61,-0.12,-0.19,1.01,1000
20:16:20.800,-11.01,6.79,-70.65,-0.18,0.12,-0.61,-0.12,-0.19,1.01,1000
20:16:20.816,-11.01,6.79,-70.65,-0.37,0.12,-0.61,-0.12,-0.19,1.01,1000
20:16:20.821,-11.01,6.79,-70.66,-0.3,0.12,-0.55,-0.12,-0.19,1.01,1000
20:16:20.832,-11.01,6.79,-70.67,-0.12,0.12,-0.55,-0.12,-0.19,1.01,1000
20:16:20.843,-11.01,6.79,-70.67,-0.24,0.06,-0.61,-0.12,-0.19,1.01,1000
20:16:20.854,-11.01,6.8,-70.68,-0.3,0.12,-0.49,-0.12,-0.19,1.0,1000
20:16:20.866,-11.01,6.79,-70.68,-0.3,0.06,-0.61,-0.12,-0.19,1.01,1000
20:16:20.876,-11.01,6.79,-70.69,-0.24,0.06,-0.67,-0.12,-0.19,1.01,1000
20:16:20.887,-11.01,6.79,-70.7,-0.24,0.0,-0.55,-0.12,-0.19,1.01,1000
20:16:20.898,-11.0,6.79,-70.7,-0.12,0.0,-0.67,-0.12,-0.19,1.01,1000
20:16:20.918,-11.0,6.79,-70.71,-0.18,0.12,-0.55,-0.12,-0.19,1.01,1000
20:16:20.920,-11.0,6.79,-70.71,-0.24,0.06,-0.61,-0.12,-0.19,1.01,1000
20:16:20.931,-11.0,6.79,-70.72,-0.3,0.06,-0.55,-0.12,-0.19,1.01,1000
20:16:20.942,-11.0,6.79,-70.73,-0.37,-0.06,-0.79,-0.12,-0.19,1.01,1000
20:16:21.130,-11.0,6.79,-70.73,-0.24,0.0,-0.61,-0.12,-0.19,1.0,1000
20:16:21.131,-11.0,6.79,-70.74,-0.24,0.0,-0.49,-0.12,-0.19,1.01,1000
20:16:21.131,-11.0,6.79,-70.74,-0.3,0.0,-0.61,-0.12,-0.19,1.0,1000
20:16:21.131,-11.0,6.79,-70.75,-0.18,0.06,-0.55,-0.12,-0.19,1.01,1000
20:16:21.131,-11.0,6.79,-70.76,-0.24,-0.06,-0.55,-0.12,-0.19,1.0,1000
20:16:21.131,-11.01,6.79,-70.76,-0.43,0.0,-0.43,-0.12,-0.19,1.0,1000
20:16:21.131,-11.01,6.8,-70.77,-0.12,0.12,-0.3,-0.12,-0.19,1.01,1000
20:16:21.131,-11.01,6.79,-70.77,-0.24,0.0,-0.55,-0.12,-0.19,1.01,1000
20:16:21.131,-11.01,6.79,-70.78,-0.3,-0.12,-0.73,-0.12,-0.19,1.0,1000
20:16:21.131,-11.01,6.79,-70.78,-1.22,-4.7,-0.18,-0.15,-0.21,0.98,1000
20:16:21.131,-10.99,6.79,-70.79,2.44,1.59,-0.61,-0.1,-0.17,1.0,1000
20:16:21.131,-10.98,6.79,-70.79,0.61,-0.85,-0.85,-0.11,-0.2,1.01,1000
20:16:21.131,-10.97,6.79,-70.8,0.61,-0.06,-0.61,-0.15,-0.16,1.0,1000
20:16:21.131,-10.97,6.78,-70.81,0.91,-0.61,-0.06,-0.11,-0.23,1.01,1000
20:16:21.131,-10.96,6.77,-70.81,0.18,0.12,-0.37,-0.11,-0.16,1.01,1000
20:16:21.131,-10.96,6.77,-70.81,-0.43,0.24,-0.85,-0.13,-0.19,1.01,1000
20:16:21.131,-10.96,6.77,-70.82,-2.13,0.3,-1.22,-0.11,-0.19,1.01,1000
20:16:21.140,-10.98,6.77,-70.83,-1.52,0.73,-0.73,-0.13,-0.19,1.0,1000
20:16:21.151,-10.99,6.78,-70.84,-0.91,1.22,-0.06,-0.11,-0.2,1.01,1000
20:16:21.163,-11.0,6.79,-70.84,-0.12,0.85,0.06,-0.13,-0.19,1.0,1000
20:16:21.174,-11.0,6.8,-70.84,-0.12,0.12,-0.55,-0.13,-0.19,1.0,1000
20:16:21.184,-11.0,6.79,-70.85,-0.43,-0.67,-0.91,-0.12,-0.19,1.01,1000
20:16:21.196,-11.0,6.79,-70.86,-0.12,-0.24,-0.91,-0.12,-0.2,1.01,1000
20:16:21.206,-11.0,6.79,-70.87,0.06,-0.06,-0.43,-0.12,-0.19,1.01,1000
20:16:21.225,-11.0,6.79,-70.87,-0.24,0.24,-0.06,-0.12,-0.19,1.01,1000
20:16:21.229,-11.0,6.79,-70.87,-0.61,0.18,-0.37,-0.12,-0.19,1.01,1000
20:16:21.239,-11.0,6.79,-70.87,-0.3,-0.12,-0.61,-0.12,-0.2,1.0,1000
20:16:21.250,-11.0,6.79,-70.88,0.06,-0.3,-0.67,-0.12,-0.19,1.0,1000
20:16:21.262,-11.0,6.78,-70.89,-0.12,0.0,-0.61,-0.12,-0.19,1.01,1000
20:16:21.278,-11.0,6.78,-70.89,-0.37,0.0,-0.49,-0.12,-0.19,1.01,1000
20:16:21.283,-11.0,6.78,-70.9,-0.49,0.18,-0.61,-0.12,-0.19,1.01,1000
20:16:21.295,-11.0,6.79,-70.9,-0.37,0.12,-0.61,-0.12,-0.19,1.01,1000
20:16:21.306,-11.0,6.79,-70.91,-0.24,-0.06,-0.55,-0.12,-0.19,1.01,1000
20:16:21.326,-11.0,6.78,-70.92,-0.24,0.0,-0.3,-0.12,-0.19,1.01,1000
20:16:21.329,-11.0,6.78,-70.92,-0.12,0.06,-0.43,-0.12,-0.19,1.01,1000
20:16:21.340,-11.0,6.78,-70.93,-0.24,0.12,-0.55,-0.12,-0.19,1.0,1000
20:16:21.350,-11.0,6.78,-70.93,-0.37,0.12,-0.3,-0.12,-0.19,1.01,1000
20:16:21.363,-11.0,6.78,-70.94,-0.43,0.12,-0.37,-0.12,-0.19,1.01,1000
20:16:21.373,-11.0,6.78,-70.94,-0.18,0.06,-0.67,-0.12,-0.19,1.01,1000
20:16:21.383,-11.0,6.78,-70.95,-0.24,-0.06,-0.49,-0.12,-0.19,1.0,1000
20:16:21.589,-11.0,6.78,-70.95,-0.3,0.06,-0.61,-0.12,-0.19,1.0,1000
20:16:21.589,-11.0,6.78,-70.96,-0.18,0.06,-0.49,-0.12,-0.19,1.01,1000
20:16:21.589,-11.0,6.78,-70.97,-0.43,0.12,-0.61,-0.12,-0.19,1.01,1000
20:16:21.589,-11.0,6.78,-70.97,-0.12,0.12,-0.3,-0.12,-0.19,1.01,1000
20:16:21.589,-11.0,6.78,-70.98,-0.43,-0.24,-0.49,-0.12,-0.19,1.01,1000
20:16:21.589,-11.0,6.78,-70.98,-0.24,0.12,-0.43,-0.12,-0.19,1.0,1000
20:16:21.589,-11.0,6.78,-70.99,-0.12,0.12,-0.43,-0.12,-0.19,1.0,1000
20:16:21.589,-11.0,6.78,-70.99,-0.3,0.12,-0.37,-0.12,-0.19,1.01,1000
20:16:21.589,-11.0,6.78,-71.0,-0.24,0.24,-0.49,-0.12,-0.19,1.01,1000
20:16:21.589,-11.0,6.78,-71.0,-0.37,0.12,-0.43,-0.12,-0.19,1.0,1000
20:16:21.589,-11.0,6.78,-71.01,-0.18,-0.18,-0.61,-0.12,-0.19,1.0,1000
20:16:21.589,-11.0,6.78,-71.01,-0.3,0.0,-0.43,-0.12,-0.19,1.01,1000
20:16:21.589,-11.0,6.78,-71.02,-0.3,0.06,-0.49,-0.12,-0.19,1.01,1000
20:16:21.589,-11.0,6.78,-71.03,-0.24,0.12,-0.67,-0.12,-0.19,1.01,1000
20:16:21.589,-11.0,6.78,-71.03,-0.24,0.06,-0.61,-0.12,-0.19,1.01,1000
20:16:21.589,-11.0,6.78,-71.04,-0.37,-0.18,-0.73,-0.12,-0.19,1.01,1000
20:16:21.589,-11.0,6.78,-71.04,-0.12,0.12,-0.43,-0.12,-0.19,1.01,1000
20:16:21.589,-11.0,6.78,-71.05,-0.18,0.06,-0.43,-0.12,-0.19,1.0,1000
20:16:21.593,-11.0,6.78,-71.05,-0.24,0.06,-0.43,-0.12,-0.19,1.0,1000
20:16:21.602,-11.0,6.78,-71.06,-0.18,-0.06,-0.43,-0.13,-0.19,1.01,1000
20:16:21.613,-10.99,6.78,-71.06,-0.06,0.18,-0.61,-0.12,-0.19,1.01,1000
20:16:21.626,-10.99,6.78,-71.07,-0.12,0.3,-0.55,-0.12,-0.19,1.0,1000
20:16:21.636,-10.99,6.79,-71.07,-0.37,0.0,-0.49,-0.13,-0.18,1.01,1000
20:16:21.646,-10.99,6.78,-71.08,-0.67,-0.24,-0.49,-0.12,-0.2,1.0,1000
20:16:21.658,-10.99,6.78,-71.08,-0.06,0.37,-0.3,-0.12,-0.19,1.0,1000
20:16:21.670,-10.99,6.78,-71.09,0.06,0.24,-0.55,-0.11,-0.19,1.01,1000
20:16:21.686,-10.99,6.79,-71.09,-0.12,0.06,-0.37,-0.12,-0.19,1.01,1000
20:16:21.691,-10.99,6.78,-71.09,-0.61,-0.37,-0.43,-0.13,-0.19,1.01,1000
20:16:21.702,-10.99,6.78,-71.1,-0.67,-0.37,-0.73,-0.12,-0.2,1.01,1000
20:16:21.712,-10.99,6.78,-71.11,0.24,0.24,-0.24,-0.12,-0.19,1.01,1000
20:16:21.728,-10.98,6.78,-71.11,-0.55,-0.06,-0.43,-0.13,-0.18,1.01,1000
20:16:21.736,-10.99,6.78,-71.12,-0.85,-0.43,-0.67,-0.12,-0.2,1.0,1000
20:16:21.749,-10.99,6.77,-71.12,-0.43,-0.12,-0.98,-0.12,-0.19,1.01,1000
20:16:21.756,-10.99,6.77,-71.13,-0.24,-0.18,-0.67,-0.13,-0.19,1.0,1000
20:16:21.767,-11.0,6.77,-71.14,-0.61,-0.61,-0.55,-0.12,-0.2,1.01,1000
20:16:21.779,-11.0,6.76,-71.15,-0.12,-0.12,-0.37,-0.11,-0.19,1.01,1000
20:16:21.790,-11.0,6.76,-71.15,-0.73,-0.3,-0.67,-0.12,-0.19,1.01,1000
20:16:21.800,-11.01,6.75,-71.16,-0.61,-0.49,-0.79,-0.12,-0.19,1.01,1000
20:16:21.812,-11.01,6.74,-71.17,-0.37,-0.61,-0.85,-0.12,-0.2,0.99,1000
20:16:22.012,-11.01,6.73,-71.18,0.37,-1.22,-0.24,-0.13,-0.2,1.01,1000
20:16:22.012,-11.0,6.72,-71.18,1.34,-2.68,-0.06,-0.12,-0.2,1.0,1000
20:16:22.012,-10.99,6.69,-71.18,0.98,-2.07,-0.49,-0.13,-0.18,1.01,1000
20:16:22.012,-10.98,6.67,-71.18,0.55,-2.5,-0.98,-0.11,-0.2,1.01,1000
20:16:22.012,-10.97,6.65,-71.19,0.85,-2.5,-0.85,-0.13,-0.19,1.01,1000
20:16:22.012,-10.96,6.63,-71.2,0.91,-2.13,-0.79,-0.12,-0.2,1.01,1000
20:16:22.012,-10.95,6.6,-71.21,0.61,-2.38,-0.73,-0.12,-0.18,1.0,1000
20:16:22.012,-10.94,6.57,-71.22,0.98,-2.56,-0.91,-0.11,-0.19,1.01,1000
20:16:22.012,-10.93,6.55,-71.22,0.98,-1.83,-0.73,-0.13,-0.18,1.01,1000
20:16:22.012,-10.91,6.53,-71.23,0.12,-1.59,-0.73,-0.11,-0.2,1.0,1000
20:16:22.012,-10.91,6.52,-71.24,-0.37,-0.12,-0.55,-0.1,-0.18,1.02,1000
20:16:22.012,-10.91,6.52,-71.25,-1.04,0.91,-0.3,-0.11,-0.18,1.02,1000
20:16:22.012,-10.92,6.53,-71.25,-1.16,1.83,-0.43,-0.12,-0.18,1.02,1000
20:16:22.012,-10.93,6.54,-71.25,-1.28,1.1,0.0,-0.11,-0.19,1.01,1000
20:16:22.012,-10.94,6.55,-71.25,-0.43,0.98,-0.43,-0.12,-0.19,1.01,1000
20:16:22.012,-10.94,6.56,-71.25,0.12,-0.24,-0.79,-0.13,-0.2,1.0,1000
20:16:22.012,-10.94,6.55,-71.26,0.37,-0.3,-1.16,-0.12,-0.17,1.0,1000
20:16:22.012,-10.94,6.55,-71.27,-0.55,-0.91,-1.1,-0.12,-0.21,1.0,1000
20:16:22.020,-10.93,6.54,-71.28,0.43,-0.18,-0.43,-0.11,-0.18,1.0,1000
20:16:22.207,-10.93,6.54,-71.28,0.24,0.06,-0.37,-0.12,-0.18,1.01,1000
20:16:22.207,-10.93,6.54,-71.29,-0.98,0.06,-0.67,-0.09,-0.18,1.02,1000
20:16:22.207,-10.93,6.54,-71.3,-0.98,0.98,-0.49,-0.12,-0.2,1.02,1000
20:16:22.207,-10.94,6.55,-71.3,-0.67,1.77,-0.49,-0.11,-0.18,1.0,1000
20:16:22.207,-10.95,6.57,-71.31,-1.34,0.98,-0.06,-0.13,-0.2,1.0,1000
20:16:22.207,-10.96,6.58,-71.31,-1.04,0.24,0.18,-0.12,-0.19,1.02,1000
20:16:22.207,-10.96,6.58,-71.31,-0.49,-0.73,-0.49,-0.13,-0.2,1.0,1000
20:16:22.207,-10.97,6.57,-71.32,-0.49,-1.4,-1.22,-0.12,-0.19,1.0,1000
20:16:22.207,-10.97,6.56,-71.33,-0.37,-1.28,-1.04,-0.12,-0.2,1.01,1000
20:16:22.207,-10.97,6.55,-71.34,-0.73,-0.98,-0.73,-0.11,-0.18,1.01,1000
20:16:22.207,-10.98,6.54,-71.34,-0.67,-0.37,-0.37,-0.11,-0.19,1.01,1000
20:16:22.207,-10.98,6.54,-71.35,-0.67,0.37,-0.55,-0.11,-0.19,1.0,1000
20:16:22.207,-10.98,6.54,-71.35,-0.06,0.24,-0.18,-0.12,-0.19,1.0,1000
20:16:22.207,-10.98,6.54,-71.35,0.12,-0.3,-0.37,-0.12,-0.19,1.0,1000
20:16:22.207,-10.98,6.54,-71.36,-0.3,-1.04,-0.43,-0.12,-0.19,1.01,1000
20:16:22.207,-10.98,6.53,-71.36,-0.18,-1.28,-0.73,-0.12,-0.2,1.0,1000
20:16:22.208,-10.98,6.51,-71.37,1.4,-2.93,0.0,-0.13,-0.2,1.01,1000
20:16:22.218,-10.96,6.47,-71.37,3.11,-5.85,0.0,-0.14,-0.21,1.0,1000
20:16:22.229,-10.92,6.4,-71.37,4.63,-8.05,-0.73,-0.13,-0.17,1.0,1000
20:16:22.248,-10.88,6.31,-71.38,2.07,-13.05,-1.83,-0.18,-0.21,0.99,1000
20:16:22.251,-10.86,6.2,-71.4,0.37,-13.96,-0.61,-0.12,-0.16,1.01,1000
20:16:22.262,-10.84,6.05,-71.4,0.79,-13.35,-0.3,-0.1,-0.2,1.01,1000
20:16:22.273,-10.83,5.92,-71.4,0.24,-10.79,-0.91,-0.1,-0.19,1.01,1000
20:16:22.284,-10.82,5.82,-71.42,0.73,-6.4,-2.38,-0.07,-0.2,1.0,1000
20:16:22.295,-10.81,5.77,-71.45,1.28,-1.4,-2.8,-0.06,-0.2,1.03,1000
20:16:22.307,-10.79,5.76,-71.47,2.62,3.48,-2.07,-0.08,-0.2,1.01,1000
20:16:22.318,-10.76,5.8,-71.49,3.23,7.62,0.12,-0.08,-0.17,1.0,1000
20:16:22.329,-10.73,5.87,-71.48,3.05,8.17,2.62,-0.1,-0.19,0.99,1000
20:16:22.347,-10.71,5.95,-71.45,2.32,7.13,2.87,-0.12,-0.18,1.01,1000
20:16:22.353,-10.68,6.01,-71.42,1.1,4.63,1.59,-0.14,-0.18,1.0,1000
20:16:22.362,-10.67,6.05,-71.41,-0.06,1.16,-0.79,-0.14,-0.17,1.0,1000
20:16:22.373,-10.67,6.06,-71.43,-0.61,-1.95,-2.26,-0.12,-0.18,1.01,1000
20:16:22.383,-10.67,6.04,-71.45,-0.3,-3.35,-2.01,-0.12,-0.19,1.01,1000
20:16:22.394,-10.67,6.01,-71.47,0.49,-2.87,-0.85,-0.1,-0.2,1.01,1000
20:16:22.406,-10.66,5.99,-71.48,0.98,-0.91,0.0,-0.09,-0.19,1.01,1000
20:16:22.419,-10.65,5.98,-71.48,0.49,0.73,0.12,-0.1,-0.18,1.01,1000
20:16:22.428,-10.65,5.99,-71.48,-0.98,1.28,-0.49,-0.1,-0.18,1.01,1000
20:16:22.605,-10.65,6.0,-71.48,-1.71,1.22,-0.61,-0.11,-0.19,1.01,1000
20:16:22.605,-10.67,6.01,-71.49,-1.28,0.79,-0.67,-0.11,-0.19,1.01,1000
20:16:22.605,-10.67,6.02,-71.49,0.06,0.12,-0.37,-0.11,-0.19,1.01,1000
20:16:22.605,-10.67,6.02,-71.5,0.49,-0.37,-0.37,-0.11,-0.18,1.01,1000
20:16:22.605,-10.66,6.01,-71.5,0.3,-0.85,-0.85,-0.11,-0.18,1.01,1000
20:16:22.605,-10.66,6.01,-71.51,-0.12,-0.67,-0.79,-0.11,-0.18,1.01,1000
20:16:22.605,-10.66,6.0,-71.52,-0.12,-0.24,-0.61,-0.1,-0.18,1.01,1000
20:16:22.605,-10.66,6.0,-71.52,-0.43,0.73,-0.49,-0.11,-0.18,1.01,1000
20:16:22.605,-10.66,6.01,-71.52,-0.43,0.49,-0.3,-0.11,-0.19,1.01,1000
20:16:22.605,-10.66,6.01,-71.53,-0.67,0.49,-0.49,-0.11,-0.19,1.01,1000
20:16:22.605,-10.66,6.01,-71.53,-0.3,0.12,-0.79,-0.11,-0.19,1.01,1000
20:16:22.605,-10.66,6.01,-71.54,-0.06,-0.3,-0.73,-0.11,-0.19,1.01,1000
20:16:22.605,-10.66,6.01,-71.55,0.0,-0.06,-0.49,-0.11,-0.19,1.01,1000
20:16:22.605,-10.66,6.01,-71.56,-0.24,0.06,-0.61,-0.11,-0.19,1.01,1000
20:16:22.605,-10.66,6.01,-71.56,-0.43,0.12,-0.3,-0.11,-0.18,1.01,1000
20:16:22.605,-10.66,6.01,-71.57,-0.24,0.12,-0.49,-0.11,-0.19,1.01,1000
20:16:22.615,-10.66,6.01,-71.57,-0.18,-0.12,-0.61,-0.11,-0.18,1.01,1000
20:16:22.626,-10.66,6.01,-71.58,-0.06,-0.24,-0.73,-0.11,-0.18,1.01,1000
20:16:22.636,-10.66,6.01,-71.58,-0.12,-0.18,-0.67,-0.1,-0.18,1.01,1000
20:16:22.650,-10.66,6.01,-71.59,-0.37,0.12,-0.55,-0.1,-0.18,1.01,1000
20:16:22.661,-10.66,6.01,-71.6,-0.3,0.18,-0.55,-0.1,-0.19,1.01,1000
20:16:22.669,-10.66,6.01,-71.6,-0.3,0.12,-0.61,-0.11,-0.19,1.01,1000
20:16:22.681,-10.66,6.01,-71.61,-0.24,-0.12,-0.55,-0.11,-0.19,1.01,1000
20:16:22.694,-10.66,6.01,-71.61,-0.18,-0.12,-0.37,-0.11,-0.19,1.01,1000
20:16:22.704,-10.66,6.01,-71.62,-0.12,0.0,-0.43,-0.11,-0.19,1.01,1000
20:16:22.713,-10.66,6.01,-71.63,-0.3,0.12,-0.24,-0.11,-0.19,1.01,1000
20:16:22.725,-10.66,6.01,-71.63,-0.18,0.18,-0.37,-0.11,-0.19,1.01,1000
20:16:22.736,-10.66,6.01,-71.64,-0.12,-0.06,-0.73,-0.11,-0.19,1.01,1000
20:16:22.747,-10.66,6.01,-71.64,-0.12,-0.18,-0.67,-0.11,-0.19,1.0,1000
20:16:22.760,-10.66,6.01,-71.65,-0.12,-0.06,-0.61,-0.11,-0.18,1.01,1000
20:16:22.774,-10.66,6.01,-71.65,-0.12,0.06,-0.43,-0.11,-0.19,1.01,1000
20:16:22.780,-10.66,6.01,-71.66,-0.18,0.06,-0.43,-0.11,-0.19,1.01,1000
20:16:22.792,-10.66,6.01,-71.66,-0.24,0.0,-0.43,-0.11,-0.19,1.01,1000
20:16:22.802,-10.66,6.01,-71.67,-0.24,0.06,-0.55,-0.11,-0.19,1.01,1000
20:16:22.813,-10.66,6.01,-71.68,-0.12,-0.06,-0.67,-0.11,-0.19,1.01,1000
20:16:22.824,-10.66,6.01,-71.68,-0.12,0.18,-0.61,-0.11,-0.18,1.01,1000
20:16:22.834,-10.65,6.01,-71.69,-0.06,0.12,-0.37,-0.11,-0.18,1.01,1000
20:16:22.845,-10.65,6.02,-71.69,-0.3,0.12,-0.55,-0.11,-0.19,1.01,1000
20:16:22.857,-10.65,6.02,-71.7,-0.18,0.12,-0.61,-0.11,-0.19,1.01,1000
20:16:22.867,-10.65,6.02,-71.7,-0.24,-0.12,-0.3,-0.11,-0.19,1.01,1000
20:16:22.879,-10.65,6.02,-71.71,-0.12,0.06,-0.67,-0.11,-0.19,1.01,1000
20:16:22.889,-10.65,6.02,-71.72,-0.37,0.0,-0.61,-0.1,-0.19,1.01,1000
20:16:22.901,-10.65,6.02,-71.72,-0.37,0.12,-0.37,-0.11,-0.19,1.01,1000
20:16:22.913,-10.65,6.02,-71.73,-0.24,0.12,-0.61,-0.11,-0.19,1.01,1000
20:16:22.923,-10.65,6.02,-71.73,-0.12,0.12,-0.55,-0.11,-0.19,1.01,1000
20:16:22.934,-10.65,6.02,-71.74,-0.3,-0.12,-0.49,-0.11,-0.19,1.01,1000
20:16:22.944,-10.65,6.02,-71.74,-0.18,0.0,-0.43,-0.11,-0.18,1.01,1000
20:16:22.965,-10.65,6.02,-71.75,-0.3,0.12,-0.24,-0.11,-0.18,1.01,1000
20:16:22.968,-10.65,6.02,-71.75,-0.3,0.0,-0.43,-0.11,-0.18,1.01,1000
20:16:22.978,-10.65,6.02,-71.76,-0.37,-0.12,-0.67,-0.11,-0.19,1.01,1000
20:16:22.989,-10.65,6.02,-71.76,-0.12,0.0,-0.43,-0.11,-0.19,1.01,1000
20:16:23.001,-10.65,6.02,-71.77,-0.12,0.06,-0.61,-0.11,-0.19,1.01,1000
20:16:23.011,-10.65,6.02,-71.78,-0.18,0.0,-0.61,-0.11,-0.18,1.01,1000
20:16:23.021,-10.65,6.02,-71.78,-0.3,0.12,-0.61,-0.11,-0.19,1.01,1000
20:16:23.032,-10.65,6.02,-71.79,-0.18,0.0,-0.37,-0.11,-0.19,1.01,1000
20:16:23.044,-10.65,6.02,-71.79,-0.18,0.06,-0.43,-0.11,-0.19,1.01,1000
20:16:23.064,-10.65,6.02,-71.8,-0.06,0.06,-0.43,-0.11,-0.18,1.01,1000
20:16:23.068,-10.65,6.02,-71.81,-0.24,0.0,-0.49,-0.1,-0.18,1.01,1000
20:16:23.078,-10.65,6.02,-71.81,-0.37,0.06,-0.55,-0.11,-0.19,1.01,1000
20:16:23.087,-10.65,6.02,-71.82,-0.18,0.06,-0.61,-0.11,-0.19,1.01,1000
20:16:23.098,-10.65,6.02,-71.82,-0.12,0.12,-0.49,-0.11,-0.19,1.01,1000
20:16:23.110,-10.65,6.02,-71.83,-0.37,0.12,-0.43,-0.11,-0.18,1.01,1000
20:16:23.120,-10.65,6.02,-71.83,-0.49,-0.06,-0.55,-0.11,-0.19,1.01,1000
20:16:23.131,-10.65,6.02,-71.84,-0.3,0.06,-0.37,-0.11,-0.19,1.01,1000
20:16:23.145,-10.65,6.02,-71.85,-0.12,0.0,-0.43,-0.11,-0.19,1.01,1000
20:16:23.153,-10.65,6.02,-71.85,-0.12,0.06,-0.49,-0.11,-0.19,1.01,1000
20:16:23.167,-10.65,6.02,-71.86,-0.3,0.06,-0.55,-0.11,-0.18,1.01,1000
20:16:23.176,-10.65,6.02,-71.86,-0.3,-0.06,-0.43,-0.11,-0.19,1.01,1000
20:16:23.187,-10.65,6.02,-71.87,-0.3,-0.06,-0.49,-0.11,-0.19,1.01,1000
20:16:23.198,-10.65,6.02,-71.87,-0.24,0.18,-0.85,-0.11,-0.18,1.01,1000
20:16:23.208,-10.65,6.02,-71.88,-0.18,0.06,-0.49,-0.11,-0.18,1.01,1000
20:16:23.220,-10.65,6.02,-71.89,-0.24,0.12,-0.67,-0.11,-0.18,1.01,1000
20:16:23.233,-10.65,6.02,-71.89,-0.3,0.0,-0.67,-0.11,-0.19,1.01,1000
20:16:23.241,-10.65,6.02,-71.9,-0.24,0.06,-0.43,-0.11,-0.18,1.01,1000
20:16:23.252,-10.65,6.02,-71.9,-0.24,0.0,-0.55,-0.11,-0.19,1.01,1000
20:16:23.264,-10.65,6.02,-71.91,-0.61,2.93,-2.68,-0.06,-0.14,1.08,1000
20:16:23.276,-10.65,6.03,-71.93,-1.65,0.98,-0.37,-0.13,-0.21,1.04,1000
20:16:23.285,-10.66,6.03,-71.93,-0.73,-2.01,1.16,-0.16,-0.23,0.99,1000
20:16:23.296,-10.66,6.02,-71.92,0.79,-1.89,0.06,-0.1,-0.19,1.01,1000
20:16:23.308,-10.65,6.01,-71.93,0.91,-0.85,-1.52,-0.12,-0.19,1.01,1000
20:16:23.319,-10.65,6.01,-71.94,0.85,0.12,-1.46,-0.1,-0.15,1.02,1000
20:16:23.330,-10.64,6.01,-71.96,-0.79,-0.43,-0.61,-0.12,-0.19,1.0,1000
20:16:23.340,-10.64,6.0,-71.96,-0.79,0.06,0.06,-0.08,-0.19,1.01,1000
20:16:23.352,-10.65,6.0,-71.96,-0.67,0.85,0.37,-0.1,-0.21,1.01,1000
20:16:23.366,-10.65,6.01,-71.96,0.06,2.2,-0.91,-0.06,-0.18,1.02,1000
20:16:23.374,-10.64,6.04,-71.98,2.26,7.56,-4.76,-0.09,-0.21,1.0,1000
20:16:23.385,-10.61,6.12,-72.05,2.87,9.57,-8.48,-0.05,-0.16,1.02,1000
20:16:23.395,-10.57,6.22,-72.17,3.66,11.22,-16.34,-0.05,-0.13,1.03,1000
20:16:23.406,-10.51,6.32,-72.39,4.33,11.83,-24.63,-0.09,-0.19,1.03,1000
20:16:23.417,-10.47,6.48,-72.69,2.32,17.68,-31.16,-0.2,-0.29,0.96,1000
20:16:23.428,-10.47,6.71,-73.06,1.59,22.68,-36.83,-0.09,-0.21,1.01,1000
20:16:23.439,-10.44,6.97,-73.48,5.79,21.59,-39.63,-0.15,-0.18,1.01,1000
20:16:23.453,-10.37,7.19,-73.91,10.79,15.67,-37.5,-0.17,-0.2,0.96,1000
20:16:23.461,-10.25,7.35,-74.3,15.43,12.13,-32.93,-0.14,-0.24,0.99,1000
20:16:23.479,-10.06,7.48,-74.63,26.28,13.6,-27.2,-0.06,-0.29,0.99,1000
20:16:23.483,-9.75,7.65,-74.9,41.46,21.1,-20.79,-0.06,-0.3,0.98,1000
20:16:23.495,-9.31,7.85,-75.1,48.48,20.12,-13.41,-0.1,-0.21,1.02,1000
20:16:23.505,-8.84,8.01,-75.21,44.88,11.77,-4.88,-0.23,-0.17,1.2,1000
20:16:23.516,-8.39,8.11,-75.23,40.0,6.28,3.35,-0.25,-0.2,1.1,1000
20:16:23.528,-7.99,8.19,-75.16,39.09,7.68,9.7,-0.12,-0.23,1.03,1000
20:16:23.539,-7.57,8.28,-75.04,40.73,10.0,12.32,-0.11,-0.1,0.99,1000
20:16:23.549,-7.16,8.39,-74.91,37.56,9.63,11.71,-0.16,-0.11,1.03,1000
20:16:23.560,-6.76,8.49,-74.77,35.3,11.28,13.78,-0.14,-0.12,0.99,1000
20:16:23.766,-6.42,8.62,-74.62,35.49,16.65,15.18,-0.09,-0.13,1.06,1000
20:16:23.766,-6.04,8.85,-74.45,35.49,30.67,16.46,-0.12,-0.18,1.07,1000
20:16:23.766,-5.67,9.26,-74.25,38.84,48.05,22.26,-0.15,-0.19,1.1,1000
20:16:23.766,-5.26,9.81,-73.96,46.46,60.06,31.95,-0.21,-0.14,1.12,1000
20:16:23.766,-4.75,10.48,-73.57,53.9,63.11,40.61,-0.28,-0.04,1.15,1000
20:16:23.766,-4.17,11.19,-73.11,57.5,63.23,43.72,-0.28,0.11,0.96,1000
20:16:23.767,-3.56,11.89,-72.63,53.78,57.32,43.6,-0.39,0.03,0.94,1000
20:16:23.767,-2.93,12.57,-72.15,56.77,52.26,44.09,-0.42,0.03,0.99,1000
20:16:23.767,-2.26,13.2,-71.65,59.51,50.12,47.26,-0.45,-0.06,0.96,1000
20:16:23.767,-1.58,13.79,-71.12,61.1,43.05,49.82,-0.38,-0.07,1.03,1000
20:16:23.767,-0.86,14.31,-70.57,65.73,40.98,49.21,-0.44,-0.1,1.12,1000
20:16:23.767,-0.13,14.72,-70.04,68.78,24.51,45.24,-0.38,-0.05,1.07,1000
20:16:23.767,0.6,14.96,-69.57,68.11,6.46,38.66,-0.41,-0.01,1.26,1000
20:16:23.767,1.36,15.03,-69.16,67.93,-7.13,34.76,-0.61,0.03,1.1,1000
20:16:23.767,2.13,14.89,-68.79,66.95,-32.99,33.17,-0.61,0.08,1.25,1000
20:16:23.767,2.83,14.51,-68.43,61.04,-60.06,30.67,-0.48,-0.08,1.25,1000
20:16:23.767,3.46,13.84,-68.11,72.8,-84.7,23.72,-0.03,0.15,1.22,1000
20:16:23.767,4.1,13.01,-67.85,75.67,-91.22,21.59,-0.42,-0.04,1.03,1000
20:16:23.771,4.94,12.13,-67.64,89.88,-88.84,13.17,-0.36,-0.04,1.0,1000
20:16:23.787,5.74,11.31,-67.53,92.87,-87.01,5.73,-0.32,0.2,1.13,1000
20:16:23.791,6.65,10.5,-67.54,82.2,-80.18,-7.5,-0.3,0.18,1.02,1000
20:16:23.802,7.47,9.74,-67.66,67.38,-77.07,-15.55,-0.32,0.19,1.31,1000
20:16:23.814,8.09,9.01,-67.85,48.54,-71.4,-19.33,-0.2,0.19,1.25,1000
20:16:23.824,8.45,8.4,-68.04,24.33,-66.46,-18.35,-0.26,0.2,1.36,1000
20:16:23.836,8.56,7.76,-68.25,-4.45,-51.22,-16.89,-0.17,0.21,1.15,1000
20:16:23.846,8.39,7.33,-68.43,-28.29,-35.91,-15.18,-0.16,0.22,1.18,1000
20:16:23.857,8.01,7.05,-68.59,-44.63,-21.52,-14.39,-0.14,0.22,1.06,1000
20:16:23.869,7.48,6.91,-68.73,-57.68,-8.78,-10.43,-0.11,0.19,1.13,1000
20:16:23.886,6.84,6.87,-68.83,-62.74,-2.2,-6.28,-0.18,0.2,1.08,1000
20:16:23.891,6.16,6.85,-68.88,-67.01,-7.99,-2.62,-0.2,0.18,1.08,1000
20:16:23.904,5.45,6.75,-68.9,-65.98,-18.29,0.37,-0.18,0.13,1.07,1000
20:16:23.912,4.76,6.52,-68.89,-60.73,-31.83,2.26,-0.19,0.08,1.08,1000
20:16:23.924,4.15,6.15,-68.86,-52.68,-46.65,3.48,-0.22,0.07,1.06,1000
20:16:23.935,3.63,5.62,-68.82,-42.56,-59.63,3.41,-0.2,0.06,1.06,1000
20:16:23.945,3.22,4.97,-68.78,-31.59,-69.7,3.6,-0.2,0.07,1.0,1000
20:16:23.956,2.93,4.22,-68.74,-23.9,-78.6,4.21,-0.16,0.03,0.99,1000
20:16:23.968,2.71,3.4,-68.69,-18.66,-84.45,6.89,-0.12,0.0,0.95,1000
20:16:23.985,2.52,2.51,-68.59,-13.05,-88.35,10.06,-0.07,-0.01,0.93,1000
20:16:23.991,2.37,1.57,-68.47,-10.37,-92.2,12.13,-0.06,0.0,0.88,1000
20:16:24.001,2.25,0.59,-68.34,-8.48,-94.94,12.44,-0.03,-0.01,0.85,1000
20:16:24.011,2.14,-0.43,-68.2,-6.83,-96.34,11.83,-0.01,-0.02,0.8,1000
20:16:24.025,2.04,-1.46,-68.08,-7.68,-96.59,9.76,0.01,-0.01,0.75,1000
20:16:24.033,1.92,-2.48,-67.99,-9.63,-93.9,6.28,0.06,-0.02,0.71,1000
20:16:24.044,1.78,-3.48,-67.94,-12.8,-88.96,2.68,0.09,-0.04,0.67,1000
20:16:24.055,1.58,-4.41,-67.92,-17.56,-81.16,-1.16,0.12,-0.04,0.64,1000
20:16:24.067,1.33,-5.27,-67.95,-22.01,-70.0,-3.6,0.12,-0.06,0.61,1000
20:16:24.245,1.03,-6.01,-68.0,-25.18,-58.05,-6.83,0.14,-0.07,0.6,1000
20:16:24.245,0.68,-6.62,-68.1,-27.93,-45.37,-12.38,0.17,-0.07,0.59,1000
20:16:24.246,0.31,-7.12,-68.26,-29.45,-32.8,-20.06,0.21,-0.09,0.59,1000
20:16:24.246,-0.05,-7.47,-68.49,-29.82,-21.34,-26.65,0.23,-0.1,0.58,1000
20:16:24.246,-0.44,-7.76,-68.81,-29.09,-10.12,-31.52,0.24,-0.11,0.57,1000
20:16:24.246,-0.83,-7.94,-69.17,-26.89,-1.28,-35.37,0.26,-0.12,0.55,1000
20:16:24.246,-1.19,-8.05,-69.57,-22.93,6.52,-37.87,0.25,-0.11,0.56,1000
20:16:24.246,-1.51,-8.1,-70.0,-17.13,12.74,-39.09,0.27,-0.11,0.57,1000
20:16:24.246,-1.74,-8.08,-70.44,-8.54,18.48,-41.52,0.26,-0.09,0.56,1000
20:16:24.246,-1.86,-8.02,-70.86,-1.4,21.04,-44.7,0.27,-0.07,0.58,1000
20:16:24.246,-1.91,-7.94,-71.37,4.88,22.2,-47.99,0.28,-0.04,0.58,1000
20:16:24.246,-1.87,-7.86,-71.91,10.98,23.05,-50.98,0.28,-0.03,0.59,1000
20:16:24.246,-1.76,-7.79,-72.48,15.85,22.5,-52.5,0.28,-0.01,0.59,1000
20:16:24.246,-1.57,-7.72,-73.06,20.91,22.74,-52.44,0.28,0.02,0.6,1000
20:16:24.246,-1.32,-7.64,-73.69,25.85,24.51,-51.59,0.28,0.04,0.6,1000
20:16:24.246,-0.99,-7.53,-74.19,30.67,27.93,-49.63,0.27,0.07,0.61,1000
20:16:24.254,-0.59,-7.37,-74.73,35.06,33.11,-46.83,0.27,0.1,0.62,1000
20:16:24.264,-0.13,-7.15,-75.23,38.6,39.82,-44.45,0.26,0.12,0.65,1000
20:16:24.275,0.38,-6.83,-75.71,42.32,47.99,-41.22,0.24,0.14,0.66,1000
20:16:24.295,0.94,-6.41,-76.14,46.16,56.46,-36.89,0.21,0.15,0.69,1000
20:16:24.300,1.55,-5.89,-76.57,49.21,62.62,-32.93,0.2,0.17,0.71,1000
20:16:24.308,2.19,-5.29,-76.88,52.56,67.01,-30.06,0.19,0.19,0.74,1000
20:16:24.320,2.89,-4.65,-77.2,55.85,68.9,-27.87,0.17,0.21,0.76,1000
20:16:24.331,3.62,-4.0,-77.51,58.84,69.02,-27.44,0.17,0.23,0.77,1000
20:16:24.342,4.37,-3.33,-77.81,57.8,67.56,-25.49,0.13,0.3,0.74,1000
20:16:24.352,5.16,-2.68,-78.1,65.67,71.28,-25.67,0.16,0.19,0.87,1000
20:16:24.363,6.03,-1.99,-78.38,64.39,67.26,-23.6,0.09,0.35,0.86,1000
20:16:24.374,6.86,-1.33,-78.62,62.93,67.32,-20.06,0.12,0.37,0.87,1000
20:16:24.385,7.66,-0.66,-78.82,60.0,68.29,-16.1,0.1,0.35,0.95,1000
20:16:24.405,8.45,0.03,-78.98,58.11,70.12,-11.04,0.06,0.36,0.94,1000
20:16:24.409,9.2,0.74,-79.08,52.87,69.63,-5.43,0.04,0.4,0.99,1000
20:16:24.418,9.89,1.46,-79.11,50.49,70.61,0.12,0.01,0.45,1.01,1000
20:16:24.430,10.56,2.18,-79.09,48.84,69.88,3.78,-0.02,0.47,1.02,1000
20:16:24.440,11.21,2.91,-79.04,48.78,68.05,7.32,-0.04,0.5,1.04,1000
20:16:24.451,11.89,3.61,-78.94,51.1,65.85,11.16,-0.03,0.5,1.06,1000
20:16:24.463,12.58,4.29,-78.79,53.23,62.74,16.71,-0.04,0.53,1.05,1000
20:16:24.474,13.29,4.92,-78.58,52.01,56.22,22.13,-0.03,0.54,1.06,1000
20:16:24.485,14.0,5.48,-78.32,52.62,50.61,26.4,-0.07,0.52,1.06,1000
20:16:24.502,14.69,5.96,-78.0,52.56,43.29,32.5,-0.09,0.5,1.07,1000
20:16:24.507,15.31,6.34,-77.66,53.05,36.83,36.83,-0.1,0.5,1.06,1000
20:16:24.517,16.05,6.73,-77.2,53.23,29.45,40.61,-0.1,0.56,1.01,1000
20:16:24.529,16.66,6.98,-76.71,51.71,24.39,41.1,-0.09,0.51,1.03,1000
20:16:24.541,17.29,7.21,-76.29,50.98,20.98,42.87,-0.1,0.49,1.05,1000
20:16:24.551,17.79,7.38,-75.94,47.93,19.63,43.9,-0.08,0.48,1.02,1000
20:16:24.563,18.3,7.55,-75.49,41.95,18.35,46.89,-0.08,0.46,1.0,1000
20:16:24.572,18.79,7.71,-74.97,34.27,15.55,49.02,-0.07,0.44,0.96,1000
20:16:24.583,19.19,7.84,-74.42,25.12,12.74,50.37,-0.09,0.42,0.94,1000
20:16:24.594,19.5,7.96,-73.86,20.06,14.15,50.98,-0.14,0.46,0.95,1000
20:16:24.606,19.76,8.12,-73.3,18.72,20.24,51.77,-0.18,0.48,0.96,1000
20:16:24.616,20.03,8.37,-72.73,20.3,28.05,51.59,-0.21,0.5,1.0,1000
20:16:24.627,20.32,8.72,-72.17,23.17,35.55,50.55,-0.23,0.52,1.02,1000
20:16:24.639,20.64,9.14,-71.62,25.61,40.06,48.84,-0.22,0.54,1.06,1000
20:16:24.649,20.94,9.57,-71.09,23.66,37.8,47.2,-0.24,0.5,1.08,1000
20:16:24.660,21.27,9.99,-70.59,26.83,37.2,42.44,-0.28,0.52,1.08,1000
20:16:24.671,21.62,10.41,-70.14,29.21,35.12,37.93,-0.29,0.55,1.08,1000
20:16:24.682,22.0,10.79,-69.74,32.07,31.46,33.41,-0.3,0.56,1.11,1000
20:16:24.697,22.41,11.14,-69.4,35.85,28.23,28.05,-0.31,0.59,1.13,1000
20:16:24.707,22.85,11.45,-69.12,38.48,25.67,22.07,-0.32,0.59,1.14,1000
20:16:24.716,23.32,11.74,-68.9,40.98,25.24,17.07,-0.32,0.57,1.14,1000
20:16:24.726,23.8,12.04,-68.73,43.23,27.68,12.68,-0.33,0.56,1.11,1000
20:16:24.739,24.3,12.37,-68.6,43.17,29.33,10.06,-0.31,0.56,1.13,1000
20:16:24.748,24.78,12.71,-68.51,41.46,29.82,7.56,-0.31,0.55,1.12,1000
20:16:24.760,25.24,13.05,-68.43,39.09,29.82,5.91,-0.31,0.55,1.12,1000
20:16:24.770,25.66,13.38,-68.37,35.67,28.72,4.39,-0.31,0.55,1.11,1000
20:16:24.781,26.03,13.69,-68.32,31.46,27.87,4.21,-0.29,0.56,1.14,1000
20:16:24.792,26.34,13.99,-68.28,25.91,25.98,4.33,-0.29,0.55,1.13,1000
20:16:24.805,26.59,14.25,-68.23,21.1,23.05,5.18,-0.3,0.54,1.14,1000
20:16:24.814,26.78,14.48,-68.16,16.95,20.61,6.46,-0.31,0.53,1.11,1000
