Timestamp,Roll,Pitch,Yaw,Throttle
21:55:41.254,-6.18,-0.86,-52.54,1000
21:55:41.254,-5.69,-1.17,-52.51,1000
21:55:41.254,-5.81,-0.78,-52.53,1000
21:55:41.254,-6.05,-0.69,-52.48,1000
21:55:41.260,-5.95,-0.7,-52.43,1000
21:55:41.419,-5.97,-0.59,-52.53,1000
21:55:41.419,-6.16,-0.59,-52.57,1000
21:55:41.419,-6.18,-0.6,-52.51,1000
21:55:41.508,-6.28,-0.53,-52.53,1000
21:55:41.517,-6.35,-0.52,-52.61,1000
21:55:41.597,-6.25,-0.48,-52.7,1000
21:55:41.616,-5.7,-0.75,-52.76,1000
21:55:41.700,-5.34,-0.74,-52.63,1000
21:55:41.718,-5.79,-0.38,-52.68,1000
21:55:41.806,-6.13,-0.41,-52.73,1000
21:55:41.821,-5.51,-0.82,-52.84,1000
21:55:41.900,-4.91,-0.87,-52.65,1000
21:55:41.979,-5.53,-0.2,-52.73,1000
21:55:41.979,-6.0,-0.34,-52.79,1000
21:55:42.059,-5.78,-0.5,-52.69,1000
21:55:42.076,-5.79,-0.2,-52.7,1000
21:55:42.161,-6.08,-0.08,-52.78,1000
21:55:42.177,-6.05,-0.2,-52.76,1000
21:55:42.258,-6.09,-0.1,-52.63,1000
21:55:42.338,-6.23,0.07,-52.63,1000
21:55:42.339,-6.13,0.08,-52.67,1000
21:55:42.418,-5.99,0.05,-52.69,1000
21:55:42.433,-5.99,-0.03,-52.61,1000
21:55:42.512,-5.98,0.03,-52.49,1000
21:55:42.591,-6.03,0.15,-52.5,1000
21:55:42.591,-6.06,0.1,-52.58,1000
21:55:42.672,-6.01,0.13,-52.6,1000
21:55:42.691,-6.01,0.31,-52.43,1000
21:55:42.771,-5.89,0.31,-52.14,1000
21:55:42.789,-5.72,0.04,-51.83,1000
21:55:42.873,-6.09,0.31,-51.83,1000
21:55:42.891,-6.32,0.22,-51.92,1000
21:55:42.976,-5.84,-0.22,-51.89,1000
21:55:43.056,-5.7,-0.01,-51.78,1000
21:55:43.056,-6.21,0.15,-51.81,1000
21:55:43.135,-5.93,-0.46,-51.63,1000
21:55:43.146,-5.09,-0.92,-51.35,1000
21:55:43.226,-4.8,-0.76,-50.96,1000
21:55:43.306,-5.44,-0.56,-50.63,1000
21:55:43.306,-5.38,-1.1,-50.46,1000
21:55:43.387,-4.57,-1.72,-50.04,1000
21:55:43.401,-5.4,-0.67,-50.4,1000
21:55:43.480,-6.08,-0.6,-51.07,1000
21:55:43.559,-5.66,-0.71,-51.38,1000
21:55:43.559,-4.91,-0.51,-51.14,1000
21:55:43.638,-4.71,-0.03,-50.43,1000
21:55:43.656,-5.23,0.31,-50.2,1000
21:55:43.737,-5.36,0.18,-50.34,1000
21:55:43.817,-5.33,0.28,-50.69,1000
21:55:43.817,-5.44,0.51,-51.01,1000
21:55:43.899,-5.69,0.77,-51.17,1000
21:55:43.912,-5.91,1.02,-51.32,1000
21:55:43.996,-5.84,1.12,-51.36,1000
21:55:44.013,-5.66,1.24,-51.36,1000
21:55:44.094,-5.57,1.32,-51.34,1000
21:55:44.177,-5.64,1.28,-51.26,1000
21:55:44.177,-5.59,1.25,-51.17,1000
21:55:44.257,-5.45,1.39,-51.08,1000
21:55:44.268,-5.56,1.47,-51.2,1000
21:55:44.347,-5.55,1.41,-51.3,1000
21:55:44.429,-5.45,1.48,-51.26,1000
21:55:44.429,-5.73,1.67,-51.15,1000
21:55:44.507,-5.84,1.6,-51.02,1000
21:55:44.526,-5.68,1.58,-51.06,1000
21:55:44.605,-5.51,1.65,-51.22,1000
21:55:44.687,-5.64,1.96,-51.45,1000
21:55:44.687,-5.77,2.02,-51.57,1000
21:55:44.766,-5.88,2.12,-51.64,1000
21:55:44.779,-5.91,2.35,-51.67,1000
21:55:44.862,-5.89,2.35,-51.74,1000
21:55:44.944,-5.23,1.78,-51.91,1000
21:55:44.944,-4.77,1.8,-51.74,1000
21:55:45.023,-5.29,2.43,-51.78,1000
21:55:45.035,-5.48,2.16,-51.7,1000
21:55:45.114,-5.01,2.01,-51.74,1000
21:55:45.194,-4.43,1.95,-51.8,1000
21:55:45.197,-4.73,2.37,-52.03,1000
21:55:45.276,-4.99,2.35,-52.06,1000
21:55:45.288,-4.73,2.15,-51.84,1000
21:55:45.368,-4.78,2.51,-51.79,1000
21:55:45.446,-5.16,2.48,-51.94,1000
21:55:45.446,-5.08,2.16,-52.13,1000
21:55:45.527,-4.96,2.32,-52.17,1000
21:55:45.545,-5.38,2.65,-52.31,1000
21:55:45.630,-5.67,2.62,-52.49,1000
21:55:45.647,-5.47,2.49,-52.46,1000
21:55:45.728,-5.5,2.56,-52.18,1000
21:55:45.809,-5.72,2.58,-51.95,1000
21:55:45.809,-5.48,1.92,-51.72,1000
21:55:45.888,-5.34,0.84,-51.12,1000
21:55:45.900,-4.51,-0.47,-50.5,1000
21:55:45.985,-1.66,-2.57,-49.16,1000
21:55:46.003,0.32,-2.54,-48.4,1000
21:55:46.086,1.51,-3.02,-47.39,1000
21:55:46.104,1.33,-3.15,-45.93,1000
21:55:46.186,0.69,-2.51,-43.89,1000
21:55:46.206,1.03,-2.33,-41.55,1000
21:55:46.287,1.13,-2.54,-39.44,1000
21:55:46.369,-0.03,-2.14,-38.2,1000
21:55:46.369,-0.41,-2.51,-37.08,1000
21:55:46.448,-0.02,-2.38,-36.55,1000
21:55:46.461,0.15,-1.51,-36.64,1000
21:55:46.542,-0.44,-0.09,-37.59,1000
21:55:46.621,-0.89,1.29,-38.19,1000
21:55:46.621,-1.49,2.51,-38.19,1000
21:55:46.702,-2.65,3.12,-37.58,1000
21:55:46.718,-4.33,4.37,-37.75,1000
21:55:46.797,-5.71,5.11,-38.6,1000
21:55:46.878,-6.52,5.29,-39.72,1000
21:55:46.879,-6.93,5.13,-40.91,1000
21:55:46.959,-7.28,4.62,-41.43,1000
21:55:46.972,-7.69,4.6,-41.5,1000
21:55:47.051,-7.84,4.79,-41.43,1000
21:55:47.132,-6.83,4.53,-41.04,1000
21:55:47.132,-6.34,4.8,-40.72,1000
21:55:47.211,-6.84,4.85,-40.52,1000
21:55:47.228,-7.19,4.5,-39.83,1000
21:55:47.308,-5.71,3.67,-38.72,1000
21:55:47.390,-4.13,3.26,-37.19,1000
21:55:47.390,-5.12,3.95,-36.69,1000
21:55:47.469,-6.66,3.84,-36.49,1000
21:55:47.481,-7.7,3.69,-36.12,1000
21:55:47.565,-8.11,4.04,-35.64,1000
21:55:47.583,-8.39,4.01,-34.98,1000
21:55:47.666,-9.0,4.08,-34.25,1000
21:55:47.685,-9.72,4.92,-33.93,1000
21:55:47.765,-9.83,5.27,-33.92,1000
21:55:47.843,-9.32,4.8,-34.02,1000
21:55:47.844,-8.76,4.6,-34.04,1000
21:55:47.922,-8.66,5.02,-33.87,1000
21:55:47.941,-8.75,5.43,-33.54,1000
21:55:48.022,-8.82,5.46,-33.11,1000
21:55:48.042,-8.67,5.27,-32.64,1000
21:55:48.123,-8.51,5.3,-32.14,1000
21:55:48.202,-8.6,5.61,-31.93,1000
21:55:48.202,-8.45,5.7,-31.96,1000
21:55:48.281,-7.82,5.33,-31.63,1000
21:55:48.297,-8.03,5.48,-31.54,1000
21:55:48.376,-8.37,5.56,-31.32,1000
21:55:48.458,-8.31,5.44,-30.83,1000
21:55:48.458,-8.47,5.48,-30.27,1000
21:55:48.539,-9.15,5.59,-29.63,1000
21:55:48.552,-10.17,5.94,-29.11,1000
21:55:48.631,-10.32,5.47,-28.54,1000
21:55:48.712,-10.5,5.02,-27.67,1000
21:55:48.713,-12.04,5.73,-27.1,1000
21:55:48.795,-13.43,6.06,-26.71,1000
21:55:48.807,-13.65,5.85,-26.53,1000
21:55:48.886,-12.98,5.56,-26.28,1000
21:55:48.965,-12.48,5.39,-25.79,1000
21:55:48.965,-12.89,5.61,-25.27,1000
21:55:49.045,-13.57,5.97,-24.82,1000
21:55:49.065,-13.51,5.97,-24.29,1000
21:55:49.144,-13.12,6.03,-23.98,1000
21:55:49.164,-12.6,6.34,-24.04,1000
21:55:49.244,-12.17,6.76,-24.59,1000
21:55:49.323,-11.96,6.82,-25.24,1000
21:55:49.323,-12.08,6.82,-25.88,1000
21:55:49.402,-12.29,6.94,-26.43,1000
21:55:49.419,-12.39,7.06,-26.99,1000
21:55:49.498,-12.68,6.83,-27.45,1000
21:55:49.581,-12.99,6.75,-27.92,1000
21:55:49.581,-13.34,6.59,-28.54,1000
21:55:49.661,-13.56,6.28,-29.32,1000
21:55:49.674,-13.55,6.17,-30.25,1000
21:55:49.753,-13.14,6.12,-31.09,1000
21:55:49.832,-12.82,5.69,-31.71,1000
21:55:49.833,-12.65,5.14,-31.92,1000
21:55:49.912,-12.66,5.1,-32.17,1000
21:55:49.929,-12.66,5.14,-32.74,1000
21:55:50.011,-12.74,5.11,-33.35,1000
21:55:50.093,-13.52,5.23,-33.64,1000
21:55:50.093,-14.61,5.37,-33.62,1000
21:55:50.173,-15.06,5.28,-33.53,1000
21:55:50.184,-14.83,5.2,-33.65,1000
21:55:50.263,-14.7,5.1,-34.02,1000
21:55:50.342,-14.89,4.81,-34.28,1000
21:55:50.342,-14.95,4.48,-34.44,1000
21:55:50.422,-14.85,4.26,-34.58,1000
21:55:50.439,-14.62,3.85,-34.71,1000
21:55:50.524,-14.83,3.79,-34.98,1000
21:55:50.541,-15.39,3.68,-35.38,1000
21:55:50.625,-15.92,3.39,-35.87,1000
21:55:50.643,-16.2,3.19,-36.31,1000
21:55:50.725,-16.58,3.18,-36.81,1000
21:55:50.745,-17.0,3.06,-37.36,1000
21:55:50.825,-17.28,3.0,-38.03,1000
21:55:50.904,-17.31,2.87,-38.51,1000
21:55:50.904,-17.41,2.94,-38.92,1000
21:55:50.984,-17.72,3.15,-39.38,1000
21:55:51.002,-17.6,3.14,-39.66,1000
21:55:51.083,-17.18,3.39,-39.95,1000
21:55:51.165,-16.68,3.48,-40.23,1000
21:55:51.166,-16.16,3.32,-40.11,1000
21:55:51.244,-15.56,3.36,-39.68,1000
21:55:51.255,-14.95,3.33,-39.1,1000
21:55:51.335,-14.58,3.24,-38.49,1000
21:55:51.415,-14.25,3.24,-38.24,1000
21:55:51.415,-14.0,3.06,-37.95,1000
21:55:51.517,-13.88,3.02,-37.34,1000
21:55:51.517,-13.76,3.25,-36.51,1000
21:55:51.596,-13.62,3.51,-35.67,1000
21:55:51.614,-13.39,3.66,-35.03,1000
21:55:51.697,-13.23,3.5,-34.39,1000
21:55:51.717,-13.46,3.44,-33.63,1000
21:55:51.798,-13.95,3.7,-32.98,1000
21:55:51.816,-14.11,3.75,-32.46,1000
21:55:51.895,-13.79,3.74,-32.13,1000
21:55:51.977,-13.29,3.68,-31.75,1000
21:55:51.977,-13.62,4.03,-31.61,1000
21:55:52.064,-14.18,3.92,-31.54,1000
21:55:52.071,-14.13,3.7,-31.48,1000
21:55:52.151,-13.69,3.81,-31.55,1000
21:55:52.232,-13.55,4.15,-31.92,1000
21:55:52.232,-13.5,4.19,-32.23,1000
21:55:52.313,-13.68,4.3,-32.19,1000
21:55:52.326,-14.06,4.34,-31.96,1000
21:55:52.406,-14.34,4.35,-31.97,1000
21:55:52.486,-14.53,4.39,-32.34,1000
21:55:52.486,-14.87,4.41,-32.8,1000
21:55:52.569,-15.42,4.32,-33.22,1000
21:55:52.581,-15.56,4.01,-33.37,1000
21:55:52.664,-15.28,4.08,-33.64,1000
21:55:52.685,-14.73,3.97,-34.16,1000
21:55:52.764,-14.11,3.88,-34.62,1000
21:55:52.847,-14.1,4.38,-35.15,1000
21:55:52.847,-14.48,4.92,-35.7,1000
21:55:52.926,-14.26,5.12,-36.23,1000
21:55:52.938,-13.72,5.48,-36.62,1000
21:55:53.017,-14.17,6.34,-37.11,1000
21:55:53.098,-15.06,6.67,-37.32,1000
21:55:53.098,-15.58,6.55,-37.1,1000
21:55:53.176,-15.9,6.48,-36.78,1000
21:55:53.194,-15.8,6.25,-36.79,1000
21:55:53.274,-15.36,5.78,-37.11,1000
21:55:53.355,-14.87,5.54,-37.64,1000
21:55:53.355,-14.73,5.42,-38.09,1000
21:55:53.434,-15.16,5.35,-38.26,1000
21:55:53.450,-15.34,5.29,-38.17,1000
21:55:53.529,-15.17,5.46,-38.29,1000
21:55:53.608,-14.79,5.39,-38.78,1000
21:55:53.608,-14.52,5.11,-39.05,1000
21:55:53.687,-14.29,4.83,-38.92,1000
21:55:53.703,-13.7,4.23,-38.75,1000
21:55:53.782,-13.08,3.52,-38.51,1000
21:55:53.861,-12.84,3.23,-38.55,1000
21:55:53.861,-12.65,2.87,-38.51,1000
21:55:53.940,-12.32,2.95,-38.56,1000
21:55:54.019,-11.46,3.06,-38.77,1000
21:55:54.019,-10.69,2.92,-39.16,1000
21:55:54.098,-10.86,2.75,-39.7,1000
21:55:54.111,-11.51,2.69,-40.24,1000
21:55:54.194,-11.4,2.41,-40.8,1000
21:55:54.213,-11.5,2.74,-41.76,1000
21:55:54.292,-11.76,2.9,-43.14,1000
21:55:54.370,-11.47,3.14,-44.74,1000
21:55:54.371,-10.8,3.54,-46.29,1000
21:55:54.451,-10.51,3.78,-47.69,1000
21:55:54.468,-11.03,3.81,-48.29,1000
21:55:54.549,-11.44,3.95,-48.35,1000
21:55:54.629,-10.44,3.7,-48.12,1000
21:55:54.630,-8.96,3.54,-47.84,1000
21:55:54.709,-8.63,3.63,-47.91,1000
21:55:54.725,-9.32,3.91,-48.1,1000
21:55:54.809,-9.77,4.19,-48.35,1000
21:55:54.825,-9.24,4.25,-48.46,1000
21:55:54.904,-8.51,4.86,-48.84,1000
21:55:54.983,-8.21,5.57,-49.53,1000
21:55:54.983,-8.37,5.71,-50.3,1000
21:55:55.062,-8.4,5.76,-50.77,1000
21:55:55.141,-7.97,5.6,-50.79,1000
21:55:55.141,-8.32,5.33,-50.78,1000
21:55:55.221,-8.96,5.06,-51.02,1000
21:55:55.236,-8.46,4.37,-51.11,1000
21:55:55.315,-7.68,3.63,-51.3,1000
21:55:55.335,-7.42,3.2,-51.86,1000
21:55:55.417,-7.41,2.95,-52.73,1000
21:55:55.437,-6.99,2.63,-53.47,1000
21:55:55.516,-6.57,2.58,-54.04,1000
21:55:55.596,-6.02,2.67,-54.22,1000
21:55:55.596,-5.75,2.56,-54.12,1000
21:55:55.682,-6.05,2.58,-54.32,1000
21:55:55.693,-6.32,2.32,-54.61,1000
21:55:55.773,-6.26,1.78,-54.93,1000
21:55:55.853,-6.08,1.41,-55.29,1000
21:55:55.853,-6.1,1.48,-55.81,1000
21:55:55.935,-6.25,1.45,-56.17,1000
21:55:55.949,-6.53,1.5,-56.47,1000
21:55:56.030,-6.82,1.38,-56.69,1000
21:55:56.049,-7.16,1.23,-56.9,1000
21:55:56.133,-7.38,0.9,-57.12,1000
21:55:56.304,-7.58,-0.48,0.12,1100
21:55:56.559,-5.36,-1.18,-0.57,1100
21:55:56.814,-6.15,-1.02,-0.56,1110
21:55:56.975,-5.18,-0.83,-1.46,1110
21:55:57.069,-5.46,0.1,-3.05,1120
21:55:57.172,-4.58,-0.04,-4.82,1130
21:55:57.333,-4.77,-0.17,-6.25,1140
21:55:57.429,-4.62,-0.16,-7.2,1150
21:55:57.531,-4.9,-0.23,-7.77,1150
21:55:57.632,-5.18,-0.32,-8.66,1160
21:55:57.790,-4.75,-0.54,-9.22,1170
21:55:57.885,-4.64,-1.05,-8.95,1180
21:55:57.987,-4.45,-1.42,-8.89,1180
21:55:58.151,-3.99,-1.46,-9.36,1190
21:55:58.232,-3.64,-1.73,-10.36,1200
21:55:58.244,-3.27,-1.74,-10.96,1200
21:55:58.344,-2.91,-1.58,-11.83,1210
21:55:58.502,-2.52,-1.78,-12.42,1220
21:55:58.584,-1.59,-1.78,-12.59,1220
21:55:58.599,-1.88,-1.63,-12.76,1230
21:55:58.701,-1.31,-1.77,-13.65,1230
21:55:58.861,-0.42,-1.5,-16.23,1240
21:55:58.960,-0.79,-1.68,-15.58,1250
21:55:59.212,-1.56,-2.24,-6.99,1260
21:55:59.619,-0.81,-1.9,-20.63,1260
21:55:59.875,0.08,-1.89,-28.43,1260
21:56:00.129,0.07,-1.42,-25.37,1260
21:56:00.231,0.11,-1.86,-22.65,1260
21:56:00.391,-0.13,-1.71,-19.94,1260
21:56:00.486,-0.2,-2.3,-17.16,1260
21:56:00.588,0.03,-2.44,-16.54,1260
21:56:00.690,0.35,-2.36,-16.96,1260
21:56:00.849,0.09,-2.32,-18.3,1260
21:56:00.945,0.24,-2.47,-21.04,1260
21:56:01.047,0.16,-2.39,-22.65,1260
21:56:01.149,0.21,-2.46,-23.68,1260
21:56:01.309,0.09,-2.53,-23.92,1260
21:56:01.405,0.11,-2.36,-22.83,1260
21:56:01.506,-0.0,-2.28,-21.66,1260
21:56:01.665,0.07,-2.13,-20.57,1260
21:56:01.746,0.04,-2.09,-19.75,1260
21:56:01.762,-0.07,-1.93,-19.5,1260
21:56:01.923,-0.16,-2.24,-19.36,1260
21:56:02.004,-0.36,-2.02,-19.57,1260
21:56:02.017,-0.29,-2.04,-19.82,1260
21:56:02.176,-0.07,-1.98,-20.4,1260
21:56:02.424,1.13,-1.75,-20.54,1260
21:56:03.087,0.32,-1.54,-24.12,1260
21:56:03.343,0.47,-1.26,-23.57,1260
21:56:03.502,0.24,-1.28,-22.01,1260
21:56:03.597,0.38,-1.23,-19.33,1260
21:56:03.758,0.39,-1.21,-18.0,1260
21:56:03.852,0.09,-1.26,-17.34,1260
21:56:04.009,-0.02,-1.35,-17.84,1260
21:56:04.109,-0.07,-1.34,-19.53,1260
21:56:04.274,0.12,-1.42,-20.96,1260
21:56:04.353,0.09,-1.42,-22.25,1260
21:56:04.362,0.07,-1.25,-22.74,1260
21:56:04.522,0.04,-1.01,-23.41,1260
21:56:04.621,0.07,-0.78,-23.64,1260
21:56:04.719,0.05,-0.67,-23.31,1260
21:56:04.878,-0.03,-0.5,-22.7,1260
21:56:04.958,0.19,-0.29,-22.06,1260
21:56:04.974,0.05,-0.31,-21.79,1260
21:56:05.139,-0.12,-0.3,-21.42,1260
21:56:05.217,-0.13,-0.72,-21.33,1260
21:56:05.229,-0.02,-0.76,-21.33,1260
21:56:05.390,-0.46,-0.63,-21.51,1260
21:56:05.472,-0.19,-1.27,-21.86,1260
21:56:05.892,0.33,-1.06,-21.92,1260
21:56:06.147,0.89,-0.51,-21.59,1260
21:56:06.555,1.38,-0.63,-23.39,1260
21:56:06.714,0.8,-0.31,-23.88,1260
21:56:06.876,0.58,-0.9,-24.83,1260
21:56:06.965,0.76,-0.57,-25.74,1260
21:56:07.129,0.69,-0.55,-26.23,1260
21:56:07.218,0.91,-0.68,-26.79,1260
21:56:07.377,0.56,-0.7,-27.04,1260
21:56:07.474,0.28,-0.89,-27.33,1260
21:56:07.576,0.4,-0.9,-27.33,1260
21:56:07.738,0.46,-0.63,-27.24,1260
21:56:07.817,0.87,-0.43,-27.11,1260
21:56:07.830,0.88,-0.34,-27.01,1260
21:56:07.989,1.17,-0.22,-26.62,1260
21:56:08.070,1.48,0.16,-26.06,1260
21:56:08.087,1.49,0.21,-25.82,1260
21:56:08.188,1.47,0.39,-25.31,1260
21:56:08.348,1.53,0.64,-24.92,1260
21:56:08.427,1.55,0.36,-24.64,1260
21:56:08.442,1.91,0.39,-24.42,1260
21:56:08.544,1.7,0.53,-23.88,1260
21:56:08.951,0.67,0.22,-22.1,1260
21:56:09.359,-1.12,-1.27,-26.84,1260
21:56:09.615,-0.61,-1.23,-27.79,1260
21:56:09.870,1.24,-0.05,-22.61,1260
21:56:10.030,1.52,-0.06,-20.51,1270
21:56:10.125,1.27,-0.2,-19.4,1270
21:56:10.287,1.31,-0.32,-20.12,1270
21:56:10.382,1.36,-0.38,-22.58,1270
21:56:10.481,1.22,-0.32,-24.47,1270
21:56:10.640,1.58,-0.53,-26.16,1270
21:56:10.736,1.19,-0.43,-27.33,1270
21:56:10.838,1.03,-0.18,-27.04,1270
21:56:11.002,0.43,-0.33,-26.34,1270
21:56:11.081,0.25,-0.75,-25.66,1270
21:56:11.093,0.14,-0.46,-25.37,1270
21:56:11.252,0.46,-0.73,-24.89,1270
21:56:11.334,0.18,-0.8,-24.58,1270
21:56:11.348,0.15,-0.99,-24.51,1270
21:56:11.509,-0.46,-0.93,-24.54,1270
21:56:11.588,0.15,-1.13,-24.64,1270
21:56:11.604,0.26,-0.91,-24.59,1270
21:56:11.706,0.42,-0.68,-24.35,1270
21:56:11.865,0.69,-0.6,-23.96,1270
21:56:11.944,0.69,-0.75,-23.7,1270
21:56:12.114,1.06,-0.56,-23.35,1270
21:56:12.522,-1.1,-0.83,-23.85,1270
21:56:12.777,-1.08,-1.01,-24.77,1270
21:56:12.879,-0.88,-1.02,-25.07,1270
21:56:12.980,-0.5,-1.1,-25.31,1270
21:56:13.083,-0.11,-0.87,-25.34,1270
21:56:13.242,0.29,-1.38,-25.18,1270
21:56:13.337,0.47,-1.4,-24.41,1270
21:56:13.499,0.45,-1.6,-23.66,1270
21:56:13.593,0.28,-1.49,-22.23,1270
21:56:13.694,0.19,-1.45,-21.67,1270
21:56:13.855,0.05,-1.68,-21.58,1270
21:56:13.949,-0.01,-1.53,-22.12,1270
21:56:14.109,0.13,-1.59,-22.85,1270
21:56:14.206,0.09,-1.67,-24.12,1270
21:56:14.306,0.1,-1.59,-24.73,1270
21:56:14.471,-0.32,-1.78,-24.92,1270
21:56:14.550,-0.41,-2.32,-24.82,1270
21:56:14.562,-0.47,-2.29,-24.7,1270
21:56:14.664,-0.22,-2.41,-24.42,1270
21:56:14.824,-0.53,-2.3,-24.22,1270
21:56:14.904,-0.48,-2.24,-24.27,1270
21:56:15.072,-0.28,-1.88,-24.77,1270
21:56:15.230,-0.31,-1.62,-25.34,1270
21:56:15.481,-0.85,-2.41,-27.66,1280
21:56:15.735,-0.1,-1.74,-28.74,1280
21:56:15.989,0.55,-1.05,-28.03,1280
21:56:16.091,0.01,-1.62,-27.5,1280
21:56:16.346,-0.15,-2.2,-25.41,1280
21:56:16.448,-0.16,-2.31,-24.29,1280
21:56:16.608,-0.05,-2.32,-23.41,1280
21:56:16.704,-0.26,-2.26,-22.89,1280
21:56:16.806,-0.42,-2.4,-23.09,1280
21:56:16.964,-0.05,-2.45,-23.68,1280
21:56:17.060,0.01,-2.49,-25.17,1280
21:56:17.226,0.29,-2.95,-26.37,1280
21:56:17.306,0.3,-3.36,-27.37,1280
21:56:17.464,0.27,-3.36,-27.84,1280
21:56:17.626,0.21,-3.41,-27.32,1280
21:56:17.783,0.38,-3.1,-26.22,1280
21:56:17.862,0.28,-3.11,-25.53,1280
21:56:17.876,0.42,-3.03,-25.28,1280
21:56:18.036,0.5,-2.93,-25.07,1280
21:56:18.117,0.81,-2.8,-25.4,1280
21:56:18.134,0.59,-2.6,-25.72,1280
21:56:18.233,-0.52,-1.4,-26.74,1280
21:56:18.489,-0.95,-2.29,-30.86,1280
21:56:19.151,0.71,-2.67,-22.45,1280
21:56:19.406,1.05,-3.19,-20.09,1280
21:56:19.721,1.27,-3.97,-22.89,1280
21:56:19.815,1.19,-4.12,-25.29,1280
21:56:19.974,1.33,-4.48,-26.45,1280
21:56:20.069,1.01,-4.66,-27.56,1280
21:56:20.174,1.06,-5.14,-27.69,1280
21:56:20.273,0.6,-5.19,-27.33,1280
21:56:20.432,1.14,-5.82,-26.48,1280
21:56:20.528,1.03,-5.72,-24.22,1280
21:56:20.630,0.99,-6.06,-22.45,1280
21:56:20.791,0.32,-4.81,-21.36,1280
21:56:20.870,2.17,-6.23,-21.68,1280
21:56:20.885,0.72,-5.26,-22.25,1280
21:56:21.057,0.58,-5.88,-24.08,1280
21:56:21.136,0.75,-5.51,-26.56,1280
21:56:21.144,0.86,-6.29,-27.78,1280
21:56:21.304,0.98,-4.87,-29.89,1280
21:56:21.385,0.9,-4.87,-31.37,1280
21:56:21.395,1.13,-5.29,-31.63,1280
21:56:22.466,1.2,-4.89,-23.62,1280
21:56:22.722,0.9,-4.32,-23.65,1280
21:56:22.880,1.08,-4.18,-23.72,1280
21:56:22.976,0.82,-3.72,-24.27,1280
21:56:23.136,0.59,-3.47,-25.18,1280
21:56:23.232,0.3,-3.54,-26.84,1280
21:56:23.393,0.63,-2.59,-28.08,1280
21:56:23.486,-0.14,-2.79,-29.78,1280
21:56:23.588,0.52,-2.26,-30.22,1280
21:56:23.746,0.85,-2.17,-29.93,1280
21:56:23.843,0.92,-1.83,-27.51,1280
21:56:23.945,1.05,-1.54,-25.45,1280
21:56:24.104,0.74,-1.64,-23.88,1280
21:56:24.200,0.7,-1.96,-22.38,1280
21:56:24.362,1.28,-2.15,-22.09,1280
21:56:24.445,0.95,-2.15,-22.65,1280
21:56:24.459,1.12,-2.04,-23.33,1280
21:56:24.616,1.64,-2.26,-24.97,1280
21:56:24.695,1.58,-2.42,-26.76,1280
21:56:25.271,-0.9,-2.59,-27.29,1280
21:56:25.526,-0.07,-3.5,-22.05,1280
21:56:25.781,0.74,-3.9,-20.69,1280
21:56:26.036,1.21,-3.74,-24.63,1280
21:56:26.194,1.12,-3.55,-26.57,1280
21:56:26.291,0.48,-3.53,-28.95,1280
21:56:26.450,0.06,-3.67,-29.8,1280
21:56:26.546,-0.35,-3.44,-29.6,1280
21:56:26.708,-0.31,-3.41,-28.72,1280
21:56:26.801,-0.26,-2.85,-26.78,1280
21:56:26.969,-0.01,-2.71,-25.31,1280
21:56:27.049,-0.13,-2.63,-23.82,1280
21:56:27.056,0.01,-2.44,-23.14,1280
21:56:27.219,0.01,-1.99,-21.96,1280
21:56:27.301,0.07,-2.14,-21.29,1280
21:56:27.313,0.04,-2.0,-21.13,1280
21:56:27.471,-0.27,-1.56,-21.24,1280
21:56:27.550,-0.18,-1.68,-22.02,1280
21:56:27.566,-0.27,-1.42,-22.48,1280
21:56:27.724,-0.62,-1.56,-23.58,1280
21:56:27.806,-0.61,-1.83,-24.61,1280
21:56:27.821,-0.96,-1.76,-25.09,1280
21:56:27.979,-0.91,-2.2,-25.81,1280
21:56:28.059,-1.2,-2.08,-26.39,1280
21:56:28.793,-1.24,-1.86,-26.94,1280
21:56:28.892,-1.51,-2.23,-27.13,1280
21:56:29.147,-1.26,-2.03,-27.0,1280
21:56:29.249,-1.31,-2.09,-26.81,1280
21:56:29.406,-1.34,-2.17,-26.69,1280
21:56:29.504,-1.21,-2.85,-26.12,1280
21:56:29.606,-1.11,-2.78,-25.46,1280
21:56:29.769,-0.99,-2.83,-24.76,1280
21:56:30.021,-0.59,-1.73,-22.87,1280
21:56:30.116,-0.41,-1.38,-22.5,1280
21:56:30.274,-0.18,-1.37,-22.81,1280
21:56:30.371,-0.26,-1.69,-23.75,1280
21:56:30.473,-0.5,-1.78,-24.59,1280
21:56:30.632,-0.72,-2.23,-25.58,1280
21:56:30.729,-0.83,-2.64,-26.71,1280
21:56:30.887,-0.88,-3.08,-26.87,1280
21:56:30.972,-0.97,-3.25,-26.49,1280
21:56:30.983,-0.84,-3.48,-26.11,1280
21:56:31.147,-0.78,-3.51,-25.02,1280
21:56:31.238,-0.11,-3.1,-23.19,1280
21:56:31.902,0.27,-1.13,-27.11,1280
21:56:32.157,-0.78,-1.32,-29.78,1280
21:56:32.414,0.01,-0.27,-27.77,1280
21:56:32.576,0.06,0.01,-26.25,1280
21:56:32.667,-0.15,0.2,-24.26,1280
21:56:32.826,-0.24,0.12,-23.38,1280
21:56:32.926,-0.28,0.04,-23.02,1280
21:56:33.023,-0.34,-0.08,-23.55,1280
21:56:33.182,-0.22,-0.4,-24.5,1280
21:56:33.278,-0.19,-0.36,-26.55,1280
21:56:33.438,-0.7,-0.49,-27.8,1280
21:56:33.533,-0.55,-0.84,-29.11,1280
21:56:33.691,-0.38,-0.94,-29.45,1280
21:56:33.788,0.26,-0.27,-28.94,1280
21:56:33.948,0.62,0.57,-28.11,1280
21:56:34.027,0.83,0.61,-27.27,1280
21:56:34.046,0.74,0.73,-26.9,1280
21:56:34.204,0.52,0.23,-26.36,1280
21:56:34.283,0.16,-0.45,-26.26,1280
21:56:34.298,0.09,-0.46,-26.29,1280
21:56:34.400,-0.16,-0.93,-26.4,1280
21:56:34.564,-0.54,-0.92,-26.56,1280
21:56:35.063,0.64,-0.52,-26.86,1280
21:56:35.318,-0.26,-1.17,-28.05,1280
21:56:35.573,-0.31,-1.45,-29.42,1280
21:56:35.828,0.1,-1.02,-27.95,1280
21:56:35.991,0.33,-0.89,-26.72,1280
21:56:36.083,-0.16,-1.15,-25.59,1280
21:56:36.241,-0.28,-1.08,-25.32,1280
21:56:36.403,-0.24,-1.38,-25.51,1280
21:56:36.642,-0.47,-1.86,-26.93,1280
21:56:36.805,-0.03,-1.35,-27.03,1280
21:56:36.899,0.42,-1.1,-26.19,1280
21:56:37.001,0.31,-0.94,-25.47,1280
21:56:37.160,0.76,-0.76,-24.76,1280
21:56:37.240,0.62,-1.03,-24.35,1280
21:56:37.258,0.85,-1.08,-24.26,1280
21:56:37.421,0.67,-0.95,-24.15,1280
21:56:37.504,0.47,-0.9,-24.06,1280
21:56:37.510,0.58,-1.09,-23.97,1280
21:56:37.672,0.16,-0.99,-23.62,1280
21:56:37.755,0.07,-1.13,-23.15,1280
21:56:37.766,0.08,-1.22,-22.84,1280
21:56:38.582,0.7,-1.55,-23.55,1280
21:56:38.838,0.5,-1.42,-25.16,1280
21:56:38.998,0.2,-1.4,-25.23,1280
21:56:39.091,-0.45,-1.87,-24.93,1280
21:56:39.251,-0.7,-1.94,-24.27,1280
21:56:39.347,-0.71,-2.17,-22.73,1280
21:56:39.448,-0.63,-2.03,-21.59,1280
21:56:39.551,-0.35,-2.16,-20.8,1280
21:56:39.710,-0.25,-1.92,-20.64,1280
21:56:39.806,-0.09,-1.84,-21.68,1280
21:56:39.908,0.16,-1.85,-22.87,1280
21:56:40.009,0.36,-1.39,-23.96,1280
21:56:40.170,0.53,-1.47,-24.81,1280
21:56:40.264,-0.49,-1.55,-25.93,1280
21:56:40.426,-1.0,-2.35,-26.79,1280
21:56:40.505,-1.38,-2.5,-27.17,1280
21:56:40.519,-1.37,-2.81,-27.03,1280
21:56:40.679,-1.59,-2.98,-26.08,1280
21:56:40.759,-1.52,-3.05,-24.57,1280
21:56:40.776,-1.35,-2.87,-23.64,1280
21:56:40.940,-0.85,-2.21,-21.69,1280
21:56:41.591,-0.75,-2.86,-25.73,1280
21:56:41.846,-0.64,-2.96,-28.03,1280
21:56:42.254,-0.01,-2.84,-24.17,1280
21:56:42.356,-0.15,-2.63,-22.89,1280
21:56:42.457,0.03,-2.68,-21.69,1280
21:56:42.618,0.09,-2.48,-20.72,1280
21:56:42.714,0.11,-2.1,-20.0,1280
21:56:42.872,0.15,-2.16,-20.13,1280
21:56:42.967,0.2,-2.2,-21.06,1280
21:56:43.070,0.43,-2.33,-21.93,1280
21:56:43.172,0.2,-2.07,-22.76,1280
21:56:43.331,-0.19,-2.04,-23.48,1280
21:56:43.427,-0.32,-2.21,-24.29,1280
21:56:43.591,-0.27,-2.11,-24.47,1280
21:56:43.671,-0.4,-1.92,-24.27,1280
21:56:43.681,-0.28,-1.91,-24.03,1280
21:56:43.783,-0.37,-1.74,-23.37,1280
21:56:43.885,-0.03,-1.4,-22.59,1280
21:56:44.045,-0.17,-1.74,-21.89,1280
21:56:44.124,-0.03,-1.69,-21.27,1280
21:56:44.141,-0.15,-1.71,-20.99,1280
21:56:45.112,-0.82,-2.01,-26.61,1280
21:56:45.271,-1.19,-2.1,-27.31,1280
21:56:45.364,-1.25,-2.25,-27.93,1280
21:56:45.467,-1.58,-2.22,-28.08,1280
21:56:45.625,-1.52,-2.23,-28.2,1280
21:56:45.723,-1.34,-2.22,-28.37,1280
21:56:45.888,-0.98,-1.93,-28.33,1280
21:56:45.976,-0.56,-1.41,-27.83,1280
21:56:46.135,-0.63,-1.59,-27.29,1280
21:56:46.293,-1.2,-1.87,-26.23,1280
21:56:46.384,-1.33,-1.91,-24.78,1280
21:56:46.542,-1.29,-1.82,-23.56,1280
21:56:46.641,-1.41,-1.73,-21.61,1280
21:56:46.798,-1.02,-1.42,-20.69,1280
21:56:46.877,-1.13,-1.32,-20.46,1280
21:56:46.894,-0.77,-1.26,-20.57,1280
21:56:47.055,-1.21,-0.85,-21.15,1280
21:56:47.136,-0.69,-0.9,-22.21,1280
21:56:47.149,-0.54,-0.87,-22.86,1280
21:56:47.252,-0.85,-0.82,-24.13,1280
21:56:47.659,-1.49,-1.72,-26.81,1280
21:56:48.067,-0.65,-0.53,-25.62,1280
21:56:48.322,0.18,-0.0,-25.41,1280
21:56:48.577,-0.13,0.26,-25.44,1280
21:56:48.737,-0.43,-0.24,-25.24,1280
21:56:48.833,-1.2,-0.31,-24.71,1280
21:56:48.991,-1.63,-0.66,-24.53,1280
21:56:49.088,-1.85,-0.68,-24.28,1280
21:56:49.189,-1.32,-0.62,-23.96,1280
21:56:49.354,-1.2,-0.6,-23.65,1280
21:56:49.444,-0.75,-0.2,-23.47,1280
21:56:49.546,-0.33,-0.2,-23.83,1280
21:56:49.708,-0.11,0.14,-24.37,1280
21:56:49.801,-0.22,-0.1,-25.15,1280
21:56:49.962,-0.17,-0.28,-25.3,1280
21:56:50.043,-0.71,-0.34,-25.08,1280
21:56:50.056,-0.97,-0.35,-24.84,1280
21:56:50.216,-1.29,-0.41,-24.18,1280
21:56:50.295,-1.35,-0.6,-23.18,1280
21:56:50.313,-1.27,-0.68,-22.64,1280
21:56:50.476,-1.25,-0.72,-21.51,1280
21:56:50.562,-0.86,-0.89,-20.65,1280
21:56:50.566,-0.71,-0.83,-20.44,1280
21:56:51.080,-0.39,-0.9,-25.1,1280
21:56:51.333,-1.33,-0.57,-26.11,1280
21:56:51.586,-1.57,-1.0,-25.45,1280
21:56:51.841,-0.81,-0.63,-24.12,1280
21:56:51.943,-0.66,-0.29,-23.63,1280
21:56:52.110,-0.34,-0.44,-23.52,1280
21:56:52.198,-0.03,-0.45,-24.19,1280
21:56:52.359,-0.05,-0.48,-25.13,1280
21:56:52.453,-0.63,-0.78,-26.83,1280
21:56:52.615,-1.01,-1.32,-27.9,1280
21:56:52.708,-1.69,-1.61,-28.64,1280
21:56:52.810,-1.06,-1.51,-28.19,1280
21:56:52.968,-0.76,-1.1,-27.11,1280
21:56:53.065,-0.53,-0.73,-25.19,1280
21:56:53.167,-0.4,-0.54,-24.19,1280
21:56:53.269,-0.12,-0.42,-23.57,1280
21:56:53.427,-0.07,-0.23,-23.37,1280
21:56:53.505,-0.17,-0.31,-23.51,1280
21:56:53.524,-0.26,-0.39,-23.67,1280
21:56:53.627,-0.28,-0.54,-24.11,1280
21:56:53.785,-1.01,-0.96,-24.8,1280
21:56:54.187,-1.4,-1.42,-25.08,1280
21:56:54.442,-0.61,-0.51,-23.43,1280
21:56:54.850,-0.83,-0.52,-22.36,1280
21:56:55.105,-0.86,-0.48,-21.53,1280
21:56:55.207,-0.64,-0.84,-20.95,1280
21:56:55.309,0.39,-0.75,-20.44,1280
21:56:55.467,0.54,-0.76,-20.37,1280
21:56:55.564,1.13,-0.42,-20.85,1280
21:56:55.722,1.27,-0.08,-21.43,1280
21:56:55.879,1.38,0.05,-23.16,1280
21:56:55.972,1.41,0.08,-24.94,1280
21:56:56.132,1.71,0.15,-25.38,1280
21:56:56.228,1.45,0.55,-24.75,1280
21:56:56.329,1.31,0.6,-23.83,1280
21:56:56.488,-0.11,0.03,-23.0,1280
21:56:56.572,-0.63,-1.06,-22.43,1280
21:56:56.592,-0.54,-0.85,-22.1,1280
21:56:56.686,-0.53,-0.78,-21.55,1280
21:56:56.845,-0.33,-0.86,-21.12,1280
21:56:56.927,-0.31,-0.65,-20.62,1280
21:56:57.504,1.51,-0.74,-21.86,1280
21:56:57.758,1.87,-0.67,-26.46,1280
21:56:58.014,0.81,-0.95,-29.46,1280
21:56:58.174,0.62,-1.46,-29.43,1280
21:56:58.267,0.13,-1.48,-28.35,1280
21:56:58.369,0.2,-1.87,-27.28,1280
21:56:58.472,0.2,-1.46,-26.17,1280
21:56:58.632,0.64,-1.33,-25.32,1280
21:56:58.728,0.55,-0.85,-25.28,1280
21:56:58.889,0.53,-1.01,-25.99,1280
21:56:58.985,0.13,-0.99,-27.69,1280
21:56:59.086,-0.17,-1.13,-29.1,1280
21:56:59.188,-0.13,-1.31,-30.34,1280
21:56:59.287,-0.6,-1.13,-31.13,1280
21:56:59.447,-0.77,-1.31,-31.41,1280
21:56:59.545,-0.61,-1.25,-30.81,1280
21:56:59.704,-0.87,-1.08,-29.77,1280
21:56:59.784,-1.43,-1.6,-28.35,1280
21:56:59.797,-1.57,-1.71,-27.6,1280
21:56:59.901,-1.63,-1.45,-25.98,1280
21:57:00.001,-1.55,-1.04,-24.15,1280
21:57:00.161,-1.59,-1.03,-22.6,1280
21:57:00.240,-1.78,-0.71,-21.8,1280
21:57:00.256,-2.07,-0.81,-21.74,1280
21:57:00.920,-2.51,-1.64,-29.24,1280
21:57:01.021,-2.16,-1.44,-28.41,1280
21:57:01.276,-2.05,-1.3,-24.78,1280
21:57:01.532,-1.88,-1.23,-23.35,1280
21:57:01.689,-2.0,-1.61,-23.63,1280
21:57:01.786,-1.9,-1.5,-24.48,1280
21:57:01.888,-1.73,-1.55,-25.11,1280
21:57:02.051,-1.34,-1.55,-25.83,1280
21:57:02.149,-1.09,-1.58,-27.03,1280
21:57:02.250,-1.26,-1.77,-27.92,1280
21:57:02.350,-1.59,-2.03,-28.87,1280
21:57:02.449,-1.54,-1.97,-29.6,1280
21:57:02.551,-1.82,-2.13,-29.98,1280
21:57:02.653,-1.62,-2.12,-29.78,1280
21:57:02.815,-1.24,-1.84,-28.95,1280
21:57:02.899,-1.12,-1.94,-27.73,1280
21:57:02.908,-1.0,-1.71,-27.05,1280
21:57:03.066,-1.12,-1.91,-25.92,1280
21:57:03.145,-1.34,-2.11,-25.37,1280
21:57:03.164,-1.3,-2.04,-25.21,1280
21:57:03.326,-1.29,-1.98,-25.04,1280
21:57:03.406,-1.3,-2.2,-25.22,1280
21:57:03.418,-1.18,-2.23,-25.42,1280
21:57:03.581,-0.56,-2.08,-25.8,1280
21:57:04.086,-0.52,-2.12,-24.97,1280
21:57:04.743,-0.06,-2.11,-22.48,1280
21:57:04.907,0.29,-1.99,-23.18,1280
21:57:04.999,-0.12,-2.05,-24.91,1280
21:57:05.163,-0.49,-2.41,-26.31,1280
21:57:05.411,-0.06,-2.17,-28.14,1280
21:57:05.509,0.1,-2.47,-27.19,1280
21:57:05.672,0.51,-2.38,-25.99,1280
21:57:05.764,0.01,-2.77,-24.38,1280
21:57:05.866,0.05,-2.93,-23.78,1280
21:57:05.968,-0.12,-2.83,-23.53,1280
21:57:06.130,-0.13,-3.04,-23.32,1280
21:57:06.210,-0.2,-2.93,-22.87,1280
21:57:06.223,-0.45,-2.84,-22.54,1280
21:57:06.383,-0.49,-2.98,-22.05,1280
21:57:06.469,-0.39,-2.88,-21.62,1280
21:57:06.478,0.09,-2.72,-21.37,1280
21:57:06.636,0.64,-2.8,-21.06,1280
21:57:06.719,0.57,-3.28,-21.11,1280
21:57:06.888,0.13,-3.75,-22.68,1280
21:57:07.141,-0.06,-3.72,-26.27,1280
21:57:07.549,0.58,-3.27,-28.51,1280
21:57:07.803,0.6,-2.64,-24.33,1280
21:57:08.059,0.92,-2.4,-19.68,1280
21:57:08.161,0.61,-2.11,-18.95,1280
21:57:08.263,0.98,-2.0,-19.07,1280
21:57:08.425,0.91,-1.94,-19.84,1280
21:57:08.520,1.11,-1.86,-21.66,1280
21:57:08.620,0.61,-1.83,-23.25,1280
21:57:08.780,0.5,-2.76,-24.92,1280
21:57:08.877,-0.15,-2.47,-26.89,1280
21:57:08.977,0.19,-2.33,-27.63,1280
21:57:09.079,-0.01,-2.09,-27.86,1280
21:57:09.180,-0.14,-2.16,-27.82,1280
21:57:09.284,-0.16,-1.97,-27.54,1280
21:57:09.441,0.04,-2.23,-27.22,1280
21:57:09.538,0.15,-2.14,-26.9,1280
21:57:09.698,0.11,-2.37,-26.81,1280
21:57:09.776,-0.05,-2.41,-26.68,1280
21:57:09.792,0.09,-2.37,-26.54,1280
21:57:09.959,-0.09,-2.43,-26.07,1280
21:57:10.038,-0.06,-2.45,-25.34,1280
21:57:10.055,-0.13,-2.36,-24.9,1280
21:57:10.292,-0.58,-2.52,-23.7,1280
21:57:10.711,0.23,-1.86,-24.05,1280
21:57:10.965,-0.26,-1.85,-24.33,1280
21:57:11.223,-0.72,-2.28,-24.11,1280
21:57:11.385,-0.75,-2.22,-23.9,1280
21:57:11.634,-0.66,-1.66,-24.37,1280
21:57:11.793,-0.76,-1.41,-25.14,1280
21:57:11.887,-0.42,-1.35,-26.51,1280
21:57:11.985,-0.92,-1.23,-27.7,1280
21:57:12.088,-0.85,-1.92,-29.04,1280
21:57:12.249,-1.35,-2.13,-29.98,1280
21:57:12.343,-1.29,-2.13,-29.96,1280
21:57:12.446,-1.55,-2.19,-29.09,1280
21:57:12.607,-1.09,-1.87,-27.88,1280
21:57:12.690,-1.4,-1.85,-26.46,1280
21:57:12.705,-1.35,-2.06,-25.83,1280
21:57:12.802,-1.49,-2.1,-24.67,1280
21:57:12.963,-1.33,-2.28,-23.79,1280
21:57:13.043,-1.06,-1.35,-23.55,1280
21:57:13.056,-0.87,-1.08,-23.72,1280
21:57:13.222,-0.96,-1.49,-24.57,1280
21:57:13.301,-1.21,-1.34,-25.81,1280
21:57:13.311,-1.19,-1.89,-26.51,1280
21:57:14.382,-0.47,-3.44,-25.82,1280
21:57:14.638,-1.56,-3.36,-25.24,1280
21:57:14.742,-1.92,-2.88,-24.88,1280
21:57:14.904,-2.04,-2.76,-24.34,1280
21:57:14.994,-2.26,-2.27,-23.39,1280
21:57:15.155,-2.28,-2.03,-22.9,1280
21:57:15.316,-2.27,-2.16,-22.9,1280
21:57:15.562,-3.32,-2.21,-25.15,1280
21:57:15.657,-3.76,-2.8,-27.06,1280
21:57:15.759,-4.61,-3.44,-28.28,1280
21:57:15.863,-4.49,-3.66,-29.05,1280
21:57:15.963,-4.35,-3.91,-29.31,1280
21:57:16.124,-4.58,-4.21,-29.22,1280
21:57:16.207,-4.5,-4.85,-28.97,1280
21:57:16.218,-4.56,-5.11,-28.89,1280
21:57:16.377,-4.54,-5.56,-28.93,1280
21:57:16.455,-3.76,-4.27,-29.55,1280
21:57:16.538,-3.12,-4.38,-30.2,1280
21:57:16.778,-1.78,-3.4,-32.33,1280
21:57:17.187,-3.96,-3.66,-28.58,1280
21:57:17.443,-3.92,-4.51,-27.38,1280
21:57:17.697,-3.2,-4.43,-27.07,1280
21:57:17.799,-3.26,-4.17,-26.25,1280
21:57:17.958,-3.52,-3.75,-24.87,1280
21:57:18.054,-2.97,-2.77,-22.46,1280
21:57:18.213,-3.41,-2.18,-20.99,1280
21:57:18.311,-3.4,-1.45,-19.83,1280
21:57:18.411,-2.88,0.32,-19.95,1280
21:57:18.513,-2.65,0.92,-20.74,1280
21:57:18.674,-2.12,1.79,-21.97,1280
21:57:18.768,-1.23,2.34,-23.78,1280
21:57:18.870,-1.25,2.31,-24.46,1280
21:57:19.030,-2.01,2.31,-24.93,1280
21:57:19.125,-1.76,0.77,-25.07,1280
21:57:19.227,-2.04,1.12,-24.4,1280
21:57:19.329,-2.14,0.38,-23.75,1280
21:57:19.493,-1.79,-0.16,-23.49,1280
21:57:19.572,-1.99,-0.05,-23.36,1280
21:57:19.585,-1.91,-0.01,-23.37,1280
21:57:19.745,-1.98,-0.34,-23.65,1280
21:57:19.823,-2.37,-0.09,-24.44,1280
21:57:19.842,-2.08,-0.31,-24.99,1280
21:57:20.096,-1.58,0.01,-26.85,1280
21:57:20.503,-1.07,0.83,-26.49,1280
21:57:20.757,-0.51,1.16,-25.85,1280
21:57:21.006,-0.73,1.01,-26.72,1280
21:57:21.012,-0.93,0.98,-27.15,1280
21:57:21.172,-1.36,0.55,-28.11,1280
21:57:21.267,-1.96,-0.03,-29.47,1280
21:57:21.369,-1.85,0.12,-29.89,1280
21:57:21.471,-1.14,0.69,-29.58,1280
21:57:21.573,-1.03,1.03,-28.83,1280
21:57:21.738,-1.25,0.97,-27.72,1280
21:57:21.831,-1.12,0.97,-25.76,1280
21:57:21.989,-1.39,0.64,-24.76,1280
21:57:22.083,-1.36,0.35,-23.71,1280
21:57:22.244,-1.2,-0.1,-23.14,1280
21:57:22.338,-1.47,-0.44,-22.17,1280
21:57:22.441,-1.84,-0.76,-21.73,1280
21:57:22.599,-1.69,-0.94,-21.73,1280
21:57:22.678,-1.57,-0.99,-22.5,1280
21:57:22.696,-1.71,-0.8,-23.12,1280
21:57:22.858,-1.77,-0.85,-24.8,1280
21:57:22.940,-1.98,-0.41,-26.65,1280
21:57:22.952,-1.75,-0.46,-27.63,1280
21:57:23.113,-1.62,-0.29,-29.61,1280
21:57:23.193,-1.12,0.64,-31.22,1280
21:57:23.205,-1.2,0.53,-31.74,1280
21:57:23.366,-1.55,0.45,-32.09,1280
21:57:23.614,-1.8,0.03,-28.56,1280
21:57:23.868,-1.93,0.55,-23.87,1280
21:57:23.970,-1.95,0.61,-22.97,1280
21:57:24.228,-1.15,1.68,-24.59,1280
21:57:24.387,-0.78,2.05,-26.48,1280
21:57:24.481,-0.37,2.75,-29.88,1280
21:57:24.640,-0.15,3.17,-32.01,1280
21:57:24.735,-0.9,4.01,-33.58,1280
21:57:24.896,0.04,0.72,-33.37,1280
21:57:24.990,-0.07,0.24,-30.15,1280
21:57:25.093,-1.49,0.42,-26.17,1280
21:57:25.253,-1.03,-3.52,-22.16,1280
21:57:25.416,-0.97,-1.64,-15.66,1280
21:57:25.495,-0.39,-0.75,-11.21,1280
21:57:25.500,-0.86,-0.65,-9.25,1280
21:57:25.659,-1.93,-0.38,-6.3,1280
21:57:25.755,-1.99,-0.15,-6.44,1280
21:57:25.918,-1.86,0.3,-9.62,1280
21:57:26.002,-1.27,0.84,-14.34,1280
21:57:26.010,-1.09,1.4,-16.9,1280
21:57:26.172,-1.29,1.88,-21.76,1280
21:57:26.254,-1.28,1.93,-25.89,1280
21:57:26.265,-1.24,2.12,-27.41,1280
21:57:26.424,-1.23,2.06,-29.55,1280
21:57:26.505,-0.8,2.44,-30.31,1280
21:57:27.235,-1.37,1.45,-14.74,1280
21:57:27.489,-1.64,0.93,-16.6,1280
21:57:27.747,-1.32,0.69,-21.81,1280
21:57:27.847,-1.89,0.87,-23.74,1280
21:57:28.011,-1.64,0.52,-25.1,1280
21:57:28.101,-1.95,0.42,-25.86,1280
21:57:28.263,-1.94,0.48,-25.44,1280
21:57:28.363,-2.1,0.15,-24.05,1280
21:57:28.458,-1.93,0.41,-23.13,1280
21:57:28.617,-1.68,0.31,-22.48,1280
21:57:28.713,-1.58,0.28,-21.83,1280
21:57:28.815,-1.6,0.24,-21.82,1280
21:57:28.977,-1.41,-0.26,-22.31,1280
21:57:29.057,-1.32,-0.25,-23.0,1280
21:57:29.071,-1.44,-0.35,-23.38,1280
21:57:29.232,-1.7,-0.44,-23.99,1280
21:57:29.311,-1.9,-0.67,-24.59,1280
21:57:29.325,-1.99,-0.92,-24.85,1280
21:57:29.427,-1.7,-0.95,-25.16,1280
21:57:29.529,-1.73,-0.86,-24.96,1280
21:57:30.345,-1.87,-1.34,-25.18,1280
21:57:30.600,-1.32,-1.67,-26.57,1280
21:57:30.857,-2.15,-2.64,-25.99,1280
21:57:30.957,-2.4,-2.85,-25.39,1280
21:57:31.121,-2.27,-3.16,-24.85,1280
21:57:31.214,-2.3,-2.67,-24.37,1280
21:57:31.373,-1.9,-3.87,-24.5,1280
21:57:31.467,-2.45,-3.26,-25.6,1280
21:57:31.569,-2.56,-2.34,-26.82,1280
21:57:31.671,-2.34,-0.42,-28.17,1280
21:57:31.840,-2.25,0.21,-29.59,1280
21:57:31.919,-1.78,1.03,-31.07,1280
21:57:31.926,-1.99,1.24,-31.81,1280
21:57:32.086,-1.9,1.62,-33.08,1280
21:57:32.182,-2.1,0.65,-34.46,1280
21:57:32.283,-1.61,0.33,-34.75,1280
21:57:32.444,-2.03,0.04,-34.34,1280
21:57:32.529,-1.76,-0.0,-33.46,1280
21:57:32.538,-1.66,0.31,-32.94,1280
21:57:32.700,-1.75,-1.38,-32.14,1280
21:57:32.779,-1.39,-3.33,-31.3,1280
21:57:32.795,-1.47,-3.55,-30.82,1280
21:57:33.609,-4.22,-0.91,-30.11,1280
21:57:33.864,-3.28,-3.99,-29.38,1280
21:57:34.119,-3.96,-1.26,-27.09,1280
21:57:34.279,-4.27,-1.33,-26.88,1280
21:57:34.374,-1.58,-2.03,-27.18,1280
21:57:34.539,-1.07,-2.59,-27.99,1280
21:57:34.631,-2.53,-3.47,-30.0,1280
21:57:34.792,-0.5,-3.55,-31.45,1280
21:57:34.884,-0.01,-3.02,-32.99,1280
21:57:34.986,0.99,-3.32,-33.21,1280
21:57:35.145,0.68,-2.91,-32.65,1280
21:57:35.241,-0.88,-3.22,-31.0,1280
21:57:35.344,-1.58,-3.26,-29.54,1280
21:57:35.504,-1.45,-3.44,-28.1,1280
21:57:35.598,-3.34,-3.65,-26.86,1280
21:57:35.757,-5.59,-3.99,-26.84,1280
21:57:35.836,-7.07,-3.62,-27.15,1280
21:57:35.854,-7.65,-3.37,-27.34,1280
21:57:36.017,-7.69,-3.65,-27.79,1280
21:57:36.100,-4.48,-4.07,-28.3,1280
21:57:36.109,-3.2,-4.34,-28.59,1280
21:57:36.269,-2.15,-4.4,-29.27,1280
21:57:36.348,-0.73,-5.06,-30.02,1280
21:57:36.364,-0.41,-5.19,-30.4,1280
21:57:37.028,-4.76,-1.84,-34.83,1280
21:57:37.281,-4.02,-0.71,-36.75,1280
21:57:37.537,-3.54,-2.0,-37.45,1280
21:57:37.699,-3.28,-3.12,-37.08,1280
21:57:37.793,-1.01,-4.52,-35.81,1280
21:57:37.952,-1.01,-5.06,-34.67,1280
21:57:38.048,0.37,-5.7,-32.69,1280
21:57:38.206,-1.48,-5.93,-31.38,1280
21:57:38.301,-5.44,-6.75,-29.66,1280
21:57:38.461,-3.92,-7.78,-29.24,1280
21:57:38.619,-5.61,-8.08,-29.69,1280
21:57:38.709,-8.81,-9.36,-31.92,1280
21:57:38.811,-9.71,-8.68,-34.03,1280
21:57:38.974,-10.29,-8.41,-36.16,1280
21:57:39.054,-8.53,-10.51,-38.62,1280
21:57:39.066,-7.03,-12.44,-40.1,1280
21:57:39.168,-5.68,-15.52,-43.46,1280
21:57:39.328,-5.24,-18.7,-47.31,1280
21:57:39.407,-4.69,-23.37,-53.01,1280
21:57:39.423,-5.58,-25.15,-56.96,1000
21:57:39.502,-6.74,-27.87,-62.16,1000
21:57:39.581,-7.59,-32.63,-68.46,1000
21:57:39.581,-7.43,-39.95,-75.44,1000
21:57:39.662,-20.77,-29.81,-74.27,1000
21:57:39.678,-13.19,-23.7,-84.3,1000
21:57:39.757,-10.11,-20.73,-94.8,1000
21:57:39.836,-6.02,-16.22,-103.36,1000
21:57:39.837,-4.68,-10.91,-110.95,1000
21:57:39.916,-5.9,-9.45,-114.55,1000
21:57:39.932,-2.32,-13.79,-114.8,1000
21:57:40.012,-2.74,-14.68,-114.45,1000
21:57:40.091,-1.17,-13.37,-114.47,1000
21:57:40.091,0.5,-12.32,-114.33,1000
21:57:40.173,1.1,-12.24,-114.15,1000
21:57:40.189,1.97,-11.88,-114.22,1000
21:57:40.268,2.75,-11.61,-114.22,1000
21:57:40.350,3.41,-11.37,-114.25,1000
21:57:40.350,4.04,-11.14,-114.26,1000
21:57:40.429,4.69,-10.91,-114.28,1000
21:57:40.444,5.37,-10.66,-114.3,1000
21:57:40.524,6.01,-10.44,-114.31,1000
21:57:40.605,6.63,-10.21,-114.33,1000
21:57:40.605,7.21,-10.0,-114.35,1000
21:57:40.684,7.75,-9.8,-114.36,1000
21:57:40.697,8.24,-9.62,-114.38,1000
21:57:40.776,8.75,-9.43,-114.39,1000
21:57:40.859,9.21,-9.27,-114.41,1000
21:57:40.859,9.67,-9.09,-114.42,1000
21:57:40.938,10.06,-8.96,-114.44,1000
21:57:40.952,10.47,-8.8,-114.46,1000
21:57:41.034,10.88,-8.65,-114.47,1000
21:57:41.055,11.24,-8.53,-114.49,1000
21:57:41.135,11.61,-8.39,-114.51,1000
21:57:41.214,11.93,-8.28,-114.52,1000
21:57:41.214,12.28,-8.15,-114.54,1000
21:57:41.293,12.59,-8.03,-114.56,1000
21:57:41.313,12.89,-7.92,-114.57,1000
21:57:41.394,13.18,-7.82,-114.59,1000
21:57:41.414,13.44,-7.72,-114.6,1000
21:57:41.494,13.69,-7.63,-114.61,1000
21:57:41.513,13.92,-7.55,-114.63,1000
21:57:41.598,14.17,-7.46,-114.65,1000
21:57:41.678,14.4,-7.37,-114.67,1000
21:57:41.678,14.6,-7.3,-114.68,1000
21:57:41.757,14.81,-7.22,-114.7,1000
21:57:41.769,14.99,-7.15,-114.71,1000
21:57:41.850,15.18,-7.08,-114.73,1000
21:57:41.871,15.36,-7.02,-114.75,1000
21:57:41.950,15.53,-6.95,-114.76,1000
21:57:42.030,15.69,-6.9,-114.78,1000
21:57:42.030,15.84,-6.84,-114.8,1000
21:57:42.110,15.98,-6.79,-114.81,1000
21:57:42.126,16.12,-6.74,-114.83,1000
21:57:42.205,16.26,-6.68,-114.85,1000
21:57:42.284,16.39,-6.64,-114.87,1000
21:57:42.284,16.51,-6.59,-114.88,1000
21:57:42.367,16.61,-6.56,-114.9,1000
21:57:42.382,16.71,-6.52,-114.91,1000
21:57:42.462,16.81,-6.48,-114.93,1000
21:57:42.543,16.92,-6.45,-114.94,1000
21:57:42.543,17.01,-6.41,-114.96,1000
21:57:42.623,17.11,-6.38,-114.97,1000
21:57:42.635,17.19,-6.35,-114.99,1000
21:57:42.718,17.28,-6.32,-115.0,1000
21:57:42.737,17.36,-6.29,-115.02,1000
21:57:42.818,17.44,-6.26,-115.03,1000
21:57:42.900,17.5,-6.24,-115.04,1000
21:57:42.900,17.57,-6.21,-115.06,1000
21:57:42.981,17.63,-6.19,-115.08,1000
21:57:42.992,17.7,-6.17,-115.09,1000
21:57:43.072,17.76,-6.14,-115.11,1000
21:57:43.154,17.81,-6.12,-115.12,1000
21:57:43.154,17.87,-6.1,-115.14,1000
21:57:43.233,17.92,-6.08,-115.16,1000
21:57:43.247,17.96,-6.07,-115.17,1000
21:57:43.327,18.01,-6.05,-115.19,1000
21:57:43.406,18.05,-6.03,-115.2,1000
21:57:43.406,18.1,-6.02,-115.21,1000
21:57:43.485,18.03,-6.12,-115.19,1000
21:57:43.502,17.83,-6.3,-115.12,1000
21:57:43.584,18.06,-5.99,-115.24,1000
21:57:43.604,17.75,-3.66,-115.01,1000
21:57:43.684,9.28,4.71,-114.09,1000
21:57:43.764,-3.11,14.9,-113.55,1000
