Timestamp,Roll,Pitch,Yaw,Gyro_X,Gyro_Y,Gyro_Z,Accel_X,Accel_Y,Accel_Z,Throttle
16:08:49.402,17.54,-7.15,-112.57,-0.12,-0.06,-0.49,0.13,0.31,0.97,1000
16:08:49.404,17.54,-7.15,-112.57,-0.18,-0.3,-0.43,0.13,0.31,0.97,1000
16:08:49.405,17.54,-7.15,-112.57,-0.24,-0.18,-0.43,0.13,0.31,0.97,1000
16:08:49.410,17.54,-7.15,-112.57,-0.12,-0.18,-0.49,0.13,0.31,0.97,1000
16:08:49.410,17.54,-7.15,-112.57,-0.18,-0.18,-0.37,0.13,0.31,0.97,1000
16:08:49.411,17.54,-7.15,-112.57,-0.18,-0.18,-0.43,0.13,0.31,0.97,1000
16:08:49.414,17.54,-7.15,-112.57,-0.18,-0.24,-0.43,0.13,0.31,0.97,1000
16:08:49.416,17.54,-7.15,-112.57,-0.3,-0.18,-0.49,0.13,0.31,0.97,1000
16:08:49.419,17.54,-7.15,-112.57,-0.18,-0.24,-0.3,0.13,0.31,0.97,1000
16:08:49.419,17.54,-7.15,-112.57,-0.24,-0.12,-0.43,0.12,0.31,0.97,1000
16:08:49.421,17.54,-7.15,-112.57,-0.18,-0.3,-0.3,0.12,0.31,0.97,1000
16:08:49.424,17.54,-7.15,-112.57,-0.24,-0.12,-0.3,0.13,0.31,0.97,1000
16:08:49.426,17.54,-7.15,-112.57,-0.18,-0.18,-0.43,0.13,0.31,0.97,1000
16:08:49.429,17.54,-7.15,-112.57,-0.24,-0.18,-0.43,0.13,0.31,0.97,1000
16:08:49.429,17.54,-7.15,-112.57,-0.12,-0.18,-0.3,0.13,0.31,0.97,1000
16:08:49.432,17.54,-7.15,-112.57,-0.12,-0.18,-0.49,0.13,0.31,0.97,1000
16:08:49.434,17.54,-7.15,-112.57,-0.24,-0.3,-0.49,0.13,0.31,0.97,1000
16:08:49.436,17.54,-7.15,-112.58,-0.18,-0.3,-0.43,0.13,0.31,0.97,1000
16:08:49.437,17.54,-7.15,-112.58,-0.24,-0.12,-0.49,0.13,0.31,0.97,1000
16:08:49.439,17.54,-7.15,-112.58,-0.06,-0.06,-0.3,0.13,0.31,0.97,1000
16:08:49.441,17.54,-7.15,-112.58,-0.24,-0.3,-0.37,0.13,0.31,0.97,1000
16:08:49.443,17.54,-7.15,-112.58,-0.18,-0.3,-0.43,0.13,0.31,0.97,1000
16:08:49.446,17.54,-7.15,-112.58,-0.18,-0.18,-0.37,0.13,0.31,0.97,1000
16:08:49.448,17.54,-7.15,-112.58,-0.18,-0.18,-0.37,0.13,0.31,0.97,1000
16:08:49.450,17.54,-7.15,-112.58,-0.18,-0.18,-0.43,0.13,0.31,0.97,1000
16:08:49.451,17.54,-7.15,-112.58,-0.18,-0.18,-0.55,0.13,0.31,0.97,1000
16:08:49.454,17.54,-7.15,-112.58,-0.18,-0.24,-0.37,0.13,0.31,0.97,1000
16:08:49.456,17.54,-7.15,-112.58,-0.24,-0.37,-0.49,0.13,0.31,0.97,1000
16:08:49.457,17.54,-7.15,-112.58,-0.24,-0.24,-0.43,0.13,0.31,0.97,1000
16:08:49.459,17.54,-7.15,-112.58,-0.18,-0.12,-0.3,0.12,0.31,0.97,1000
16:08:49.463,17.54,-7.15,-112.58,-0.3,-0.18,-0.24,0.13,0.31,0.97,1000
16:08:49.465,17.54,-7.15,-112.58,-0.24,-0.37,-0.61,0.13,0.31,0.97,1000
16:08:49.467,17.54,-7.15,-112.58,-0.18,-0.24,-0.55,0.13,0.31,0.97,1000
16:08:49.471,17.54,-7.15,-112.58,-0.24,-0.12,-0.49,0.13,0.31,0.97,1000
16:08:49.472,17.54,-7.15,-112.58,-0.24,-0.06,-0.55,0.13,0.31,0.97,1000
16:08:49.472,17.54,-7.15,-112.58,-0.24,-0.12,-0.3,0.13,0.31,0.97,1000
16:08:49.473,17.54,-7.15,-112.59,-0.18,-0.18,-0.49,0.13,0.31,0.97,1000
16:08:49.477,17.54,-7.15,-112.59,-0.18,-0.18,-0.3,0.13,0.31,0.97,1000
16:08:49.478,17.54,-7.15,-112.59,-0.18,-0.18,-0.3,0.13,0.31,0.97,1000
16:08:49.479,17.54,-7.15,-112.59,-0.24,-0.3,-0.3,0.13,0.31,0.97,1000
16:08:49.481,17.54,-7.15,-112.59,-0.12,-0.12,-0.61,0.13,0.31,0.98,1000
16:08:49.485,17.54,-7.15,-112.59,-0.24,-0.12,-0.43,0.13,0.31,0.98,1000
16:08:49.485,17.54,-7.15,-112.59,-0.3,-0.24,-0.37,0.13,0.31,0.97,1000
16:08:49.487,17.54,-7.15,-112.59,-0.24,-0.3,-0.37,0.13,0.31,0.97,1000
16:08:49.489,17.54,-7.15,-112.59,-0.18,-0.3,-0.43,0.13,0.31,0.97,1000
16:08:49.492,17.54,-7.15,-112.59,-0.18,-0.24,-0.55,0.13,0.31,0.97,1000
16:08:49.494,17.54,-7.15,-112.59,-0.3,-0.3,-0.43,0.13,0.31,0.97,1000
16:08:49.496,17.54,-7.15,-112.59,-0.24,-0.24,-0.49,0.13,0.31,0.97,1000
16:08:49.497,17.54,-7.15,-112.59,-0.3,-0.12,-0.49,0.13,0.31,0.98,1000
16:08:49.499,17.54,-7.15,-112.59,-0.37,-0.12,-0.55,0.13,0.31,0.97,1000
16:08:49.501,17.54,-7.15,-112.59,-0.24,-0.18,-0.61,0.13,0.31,0.97,1000
16:08:49.503,17.54,-7.15,-112.59,-0.18,-0.12,-0.37,0.12,0.31,0.97,1000
16:08:49.507,17.54,-7.15,-112.6,-0.24,-0.24,-0.37,0.13,0.31,0.97,1000
16:08:49.512,17.54,-7.15,-112.6,-0.3,-0.24,-0.43,0.13,0.31,0.97,1000
16:08:49.522,17.54,-7.15,-112.6,-0.24,-0.12,-0.37,0.13,0.31,0.97,1000
16:08:49.523,17.54,-7.15,-112.6,-0.24,-0.3,-0.43,0.13,0.31,0.97,1000
16:08:49.523,17.54,-7.15,-112.6,-0.18,-0.18,-0.3,0.13,0.31,0.97,1000
16:08:49.523,17.54,-7.15,-112.6,-0.24,-0.24,-0.55,0.13,0.31,0.97,1000
16:08:49.523,17.54,-7.15,-112.6,-0.24,-0.18,-0.37,0.13,0.31,0.97,1000
16:08:49.523,17.54,-7.15,-112.6,-0.24,-0.18,-0.49,0.13,0.31,0.97,1000
16:08:49.523,17.54,-7.15,-112.6,-0.3,-0.18,-0.37,0.13,0.31,0.97,1000
16:08:49.524,17.54,-7.15,-112.6,-0.3,-0.18,-0.43,0.13,0.31,0.97,1000
16:08:49.526,17.54,-7.15,-112.6,-0.24,-0.3,-0.61,0.13,0.31,0.97,1000
16:08:49.529,17.54,-7.15,-112.6,-0.3,-0.12,-0.49,0.13,0.31,0.97,1000
16:08:49.529,17.54,-7.15,-112.6,-0.37,-0.12,-0.61,0.13,0.31,0.97,1000
16:08:49.533,17.53,-7.15,-112.6,-0.24,-0.18,-0.55,0.13,0.31,0.97,1000
16:08:49.534,17.53,-7.15,-112.61,-0.37,-0.24,-0.49,0.13,0.31,0.97,1000
16:08:49.535,17.53,-7.15,-112.61,-0.24,-0.24,-0.55,0.13,0.31,0.97,1000
16:08:49.537,17.53,-7.15,-112.61,-0.3,-0.37,-0.43,0.13,0.31,0.97,1000
16:08:49.540,17.53,-7.15,-112.61,-0.18,-0.18,-0.37,0.13,0.31,0.97,1000
16:08:49.541,17.53,-7.15,-112.61,-0.24,-0.12,-0.55,0.13,0.31,0.97,1000
16:08:49.543,17.53,-7.15,-112.61,-0.24,-0.37,-0.37,0.13,0.31,0.97,1000
16:08:49.545,17.53,-7.15,-112.61,-0.3,-0.18,-0.55,0.13,0.31,0.97,1000
16:08:49.549,17.53,-7.15,-112.61,-0.18,-0.18,-0.43,0.13,0.31,0.97,1000
16:08:49.549,17.53,-7.16,-112.61,-0.18,-0.18,-0.43,0.13,0.31,0.97,1000
16:08:49.551,17.53,-7.16,-112.61,-0.12,-0.18,-0.49,0.13,0.31,0.97,1000
16:08:49.556,17.53,-7.16,-112.61,-0.18,-0.37,-0.43,0.13,0.31,0.97,1000
16:08:49.556,17.53,-7.16,-112.61,-0.18,-0.3,-0.3,0.13,0.31,0.97,1000
16:08:49.558,17.53,-7.16,-112.61,-0.18,-0.3,-0.43,0.13,0.31,0.97,1000
16:08:49.561,17.53,-7.16,-112.61,-0.18,-0.12,-0.37,0.13,0.31,0.97,1000
16:08:49.564,17.53,-7.16,-112.61,-0.3,-0.18,-0.67,0.13,0.31,0.97,1000
16:08:49.564,17.53,-7.16,-112.61,-0.24,-0.43,-0.3,0.12,0.31,0.97,1000
16:08:49.567,17.53,-7.16,-112.62,-0.24,-0.24,-0.43,0.12,0.31,0.97,1000
16:08:49.574,17.53,-7.16,-112.62,-0.18,-0.18,-0.49,0.13,0.31,0.97,1000
16:08:49.575,17.53,-7.16,-112.62,-0.18,-0.18,-0.3,0.13,0.31,0.97,1000
16:08:49.575,17.53,-7.16,-112.62,-0.18,-0.37,-0.55,0.13,0.31,0.97,1000
16:08:49.575,17.53,-7.16,-112.62,-0.24,-0.18,-0.49,0.13,0.31,0.97,1000
16:08:49.576,17.53,-7.16,-112.62,-0.18,-0.24,-0.37,0.13,0.31,0.97,1000
16:08:49.579,17.53,-7.16,-112.62,-0.24,-0.24,-0.37,0.13,0.31,0.97,1000
16:08:49.582,17.53,-7.16,-112.62,-0.37,-0.06,-0.43,0.13,0.31,0.97,1000
16:08:49.582,17.53,-7.16,-112.62,-0.18,-0.18,-0.49,0.13,0.31,0.98,1000
16:08:49.583,17.53,-7.16,-112.62,-0.3,-0.12,-0.43,0.13,0.31,0.98,1000
16:08:49.587,17.53,-7.16,-112.62,-0.12,-0.18,-0.55,0.13,0.31,0.97,1000
16:08:49.588,17.53,-7.16,-112.62,-0.18,-0.24,-0.61,0.13,0.31,0.97,1000
16:08:49.589,17.53,-7.16,-112.62,-0.24,-0.43,-0.49,0.13,0.31,0.97,1000
16:08:49.591,17.53,-7.16,-112.62,-0.18,-0.3,-0.55,0.13,0.31,0.97,1000
16:08:49.593,17.53,-7.16,-112.62,-0.3,-0.3,-0.43,0.13,0.31,0.97,1000
16:08:49.596,17.53,-7.16,-112.63,-0.18,-0.3,-0.37,0.13,0.31,0.97,1000
16:08:49.597,17.53,-7.16,-112.63,-0.24,-0.12,-0.43,0.13,0.31,0.97,1000
16:08:49.599,17.53,-7.16,-112.63,-0.24,0.0,-0.37,0.13,0.31,0.97,1000
16:08:49.601,17.53,-7.16,-112.63,-0.24,-0.12,-0.61,0.13,0.31,0.97,1000
16:08:49.603,17.53,-7.16,-112.63,-0.18,-0.3,-0.49,0.13,0.31,0.97,1000
16:08:49.605,17.53,-7.16,-112.63,-0.3,-0.3,-0.37,0.13,0.31,0.97,1000
16:08:49.612,17.53,-7.16,-112.63,-0.18,-0.18,-0.3,0.12,0.31,0.97,1000
16:08:49.613,17.53,-7.16,-112.63,-0.3,-0.12,-0.61,0.13,0.31,0.97,1000
16:08:49.613,17.53,-7.16,-112.63,-0.3,-0.3,-0.49,0.13,0.31,0.97,1000
16:08:49.623,17.53,-7.16,-112.63,-0.24,-0.24,-0.37,0.13,0.31,0.97,1000
16:08:49.624,17.53,-7.16,-112.63,-0.37,-0.06,-0.49,0.13,0.31,0.97,1000
16:08:49.624,17.53,-7.16,-112.63,-0.18,-0.3,-0.3,0.13,0.31,0.97,1000
16:08:49.624,17.53,-7.16,-112.63,-0.18,-0.12,-0.61,0.13,0.31,0.97,1000
16:08:49.624,17.53,-7.16,-112.63,-0.18,-0.24,-0.37,0.13,0.31,0.97,1000
16:08:49.625,17.53,-7.16,-112.63,-0.3,-0.3,-0.37,0.13,0.31,0.97,1000
16:08:49.626,17.53,-7.16,-112.63,-0.24,-0.3,-0.43,0.13,0.31,0.97,1000
16:08:49.627,17.53,-7.16,-112.64,-0.12,-0.12,-0.37,0.13,0.31,0.97,1000
16:08:49.631,17.53,-7.16,-112.64,-0.18,-0.24,-0.24,0.13,0.31,0.97,1000
16:08:49.632,17.53,-7.16,-112.64,-0.18,-0.24,-0.3,0.13,0.31,0.97,1000
16:08:49.633,17.53,-7.16,-112.64,-0.18,-0.12,-0.43,0.13,0.31,0.97,1000
16:08:49.635,17.53,-7.16,-112.64,-0.18,-0.24,-0.43,0.13,0.31,0.97,1000
16:08:49.637,17.53,-7.16,-112.64,-0.3,-0.18,-0.37,0.13,0.31,0.97,1000
16:08:49.640,17.53,-7.16,-112.64,-0.24,-0.06,-0.61,0.13,0.31,0.97,1000
16:08:49.641,17.53,-7.16,-112.64,-0.18,-0.12,-0.49,0.13,0.31,0.97,1000
16:08:49.644,17.53,-7.16,-112.64,-0.12,-0.12,-0.3,0.12,0.31,0.98,1000
16:08:49.645,17.53,-7.16,-112.64,-0.12,-0.18,-0.43,0.13,0.31,0.97,1000
16:08:49.647,17.53,-7.16,-112.64,-0.12,-0.24,-0.37,0.13,0.31,0.97,1000
16:08:49.650,17.53,-7.16,-112.64,-0.24,-0.12,-0.49,0.13,0.31,0.97,1000
16:08:49.651,17.53,-7.16,-112.64,-0.12,-0.24,-0.49,0.13,0.31,0.97,1000
16:08:49.655,17.53,-7.16,-112.64,-0.18,-0.24,-0.67,0.13,0.31,0.97,1000
16:08:49.657,17.53,-7.16,-112.64,-0.24,-0.06,-0.61,0.12,0.31,0.97,1000
16:08:49.657,17.53,-7.16,-112.64,-0.18,-0.3,-0.55,0.13,0.31,0.97,1000
16:08:49.659,17.53,-7.16,-112.65,-0.3,-0.12,-0.61,0.13,0.31,0.97,1000
16:08:49.663,17.53,-7.16,-112.65,-0.24,-0.3,-0.43,0.13,0.31,0.97,1000
16:08:49.663,17.53,-7.16,-112.65,-0.12,-0.37,-0.37,0.13,0.31,0.97,1000
16:08:49.667,17.53,-7.16,-112.65,-0.24,-0.24,-0.37,0.13,0.31,0.97,1000
16:08:49.668,17.53,-7.16,-112.65,-0.18,-0.12,-0.43,0.13,0.31,0.97,1000
16:08:49.669,17.53,-7.16,-112.65,-0.24,-0.24,-0.3,0.13,0.31,0.97,1000
16:08:49.671,17.53,-7.16,-112.65,-0.18,-0.24,-0.3,0.13,0.31,0.97,1000
16:08:49.673,17.53,-7.16,-112.65,-0.24,-0.12,-0.3,0.13,0.31,0.97,1000
16:08:49.675,17.53,-7.16,-112.65,-0.3,-0.3,-0.43,0.12,0.31,0.97,1000
16:08:49.677,17.53,-7.16,-112.65,-0.18,-0.24,-0.37,0.12,0.31,0.97,1000
16:08:49.681,17.53,-7.16,-112.65,-0.18,-0.3,-0.37,0.13,0.31,0.97,1000
16:08:49.682,17.53,-7.16,-112.65,-0.3,-0.24,-0.73,0.13,0.31,0.97,1000
16:08:49.686,17.53,-7.16,-112.65,-0.3,-0.3,-0.49,0.13,0.31,0.97,1000
16:08:49.687,17.53,-7.16,-112.65,-0.3,-0.24,-0.3,0.13,0.31,0.97,1000
16:08:49.688,17.53,-7.16,-112.65,-0.24,-0.24,-0.43,0.13,0.31,0.97,1000
16:08:49.690,17.53,-7.16,-112.65,-0.24,-0.18,-0.3,0.13,0.31,0.97,1000
16:08:49.695,17.53,-7.16,-112.65,-0.18,-0.06,-0.43,0.13,0.31,0.97,1000
16:08:49.696,17.53,-7.16,-112.65,-0.18,-0.3,-0.37,0.13,0.31,0.97,1000
16:08:49.696,17.53,-7.16,-112.66,-0.18,-0.24,-0.43,0.13,0.31,0.97,1000
16:08:49.699,17.53,-7.16,-112.66,-0.24,-0.18,-0.49,0.13,0.31,0.97,1000
16:08:49.699,17.53,-7.16,-112.66,-0.3,-0.24,-0.43,0.13,0.31,0.97,1000
16:08:49.701,17.53,-7.16,-112.66,-0.24,-0.24,-0.3,0.13,0.31,0.97,1000
16:08:49.703,17.53,-7.16,-112.66,-0.3,-0.12,-0.37,0.13,0.31,0.98,1000
16:08:49.706,17.53,-7.16,-112.66,-0.12,-0.18,-0.37,0.13,0.31,0.97,1000
16:08:49.707,17.53,-7.16,-112.66,-0.12,-0.18,-0.43,0.13,0.31,0.97,1000
16:08:49.715,17.53,-7.16,-112.66,-0.3,-0.18,-0.43,0.12,0.31,0.97,1000
16:08:49.716,17.53,-7.16,-112.66,-0.24,-0.24,-0.43,0.13,0.31,0.97,1000
16:08:49.716,17.53,-7.16,-112.66,-0.18,-0.18,-0.43,0.13,0.31,0.97,1000
16:08:49.716,17.53,-7.16,-112.66,-0.3,-0.43,-0.55,0.13,0.31,0.97,1000
16:08:49.724,17.53,-7.16,-112.66,-0.24,-0.12,-0.43,0.13,0.31,0.97,1000
16:08:49.725,17.53,-7.16,-112.66,-0.18,-0.06,-0.3,0.13,0.31,0.97,1000
16:08:49.725,17.53,-7.16,-112.66,-0.18,-0.24,-0.55,0.13,0.31,0.97,1000
16:08:49.725,17.53,-7.16,-112.66,-0.18,-0.24,-0.43,0.13,0.31,0.97,1000
16:08:49.727,17.53,-7.16,-112.67,-0.18,-0.18,-0.37,0.13,0.31,0.97,1000
16:08:49.727,17.53,-7.16,-112.67,-0.18,-0.24,-0.3,0.13,0.31,0.97,1000
16:08:49.729,17.53,-7.16,-112.67,-0.3,-0.37,-0.49,0.13,0.31,0.97,1000
16:08:49.734,17.53,-7.16,-112.67,-0.3,-0.3,-0.43,0.13,0.31,0.97,1000
16:08:49.734,17.53,-7.16,-112.67,-0.18,-0.12,-0.43,0.13,0.31,0.97,1000
16:08:49.736,17.53,-7.16,-112.67,-0.12,-0.37,-0.43,0.13,0.31,0.97,1000
16:08:49.738,17.53,-7.16,-112.67,-0.24,-0.3,-0.49,0.13,0.31,0.97,1000
16:08:49.739,17.53,-7.16,-112.67,-0.37,-0.3,-0.49,0.13,0.31,0.97,1000
16:08:49.741,17.53,-7.16,-112.67,-0.3,-0.37,-0.55,0.13,0.31,0.97,1000
16:08:49.743,17.53,-7.16,-112.67,-0.24,-0.24,-0.49,0.13,0.31,0.97,1000
16:08:49.745,17.53,-7.16,-112.67,-0.24,-0.18,-0.37,0.13,0.31,0.97,1000
16:08:49.747,17.53,-7.16,-112.67,-0.3,-0.18,-0.37,0.13,0.31,0.97,1000
16:08:49.749,17.53,-7.16,-112.67,-0.18,-0.18,-0.3,0.13,0.31,0.97,1000
16:08:49.752,17.53,-7.16,-112.67,-0.3,-0.24,-0.49,0.13,0.31,0.97,1000
16:08:49.753,17.53,-7.16,-112.67,-0.18,-0.06,-0.49,0.13,0.31,0.97,1000
16:08:49.755,17.53,-7.16,-112.67,-0.24,-0.3,-0.43,0.13,0.31,0.97,1000
16:08:49.758,17.53,-7.16,-112.67,-0.24,-0.24,-0.43,0.13,0.31,0.97,1000
16:08:49.760,17.53,-7.16,-112.67,-0.24,-0.12,-0.43,0.13,0.31,0.97,1000
16:08:49.761,17.53,-7.16,-112.68,-0.24,-0.12,-0.55,0.13,0.31,0.97,1000
16:08:49.764,17.53,-7.16,-112.68,-0.18,-0.24,-0.49,0.13,0.31,0.97,1000
16:08:49.767,17.53,-7.16,-112.68,-0.18,-0.06,-0.3,0.13,0.31,0.97,1000
16:08:49.767,17.53,-7.16,-112.68,-0.24,0.0,-0.24,0.13,0.31,0.97,1000
16:08:49.769,17.53,-7.16,-112.68,-0.18,-0.24,-0.43,0.13,0.31,0.97,1000
16:08:49.771,17.53,-7.16,-112.68,-0.24,-0.18,-0.3,0.13,0.31,0.97,1000
16:08:49.773,17.53,-7.16,-112.68,-0.3,-0.3,-0.24,0.13,0.31,0.97,1000
16:08:49.775,17.53,-7.16,-112.68,-0.18,-0.3,-0.61,0.13,0.31,0.97,1000
16:08:49.777,17.53,-7.16,-112.68,-0.06,-0.12,-0.49,0.13,0.31,0.97,1000
16:08:49.780,17.53,-7.16,-112.68,-0.24,-0.37,-0.43,0.13,0.31,0.97,1000
16:08:49.784,17.53,-7.16,-112.68,-0.3,-0.18,-0.43,0.13,0.31,0.97,1000
16:08:49.785,17.53,-7.16,-112.68,-0.24,-0.24,-0.3,0.13,0.31,0.97,1000
16:08:49.786,17.53,-7.17,-112.68,-0.24,-0.12,-0.49,0.13,0.31,0.97,1000
16:08:49.788,17.53,-7.17,-112.68,-0.18,-0.12,-0.3,0.13,0.31,0.97,1000
16:08:49.790,17.53,-7.17,-112.68,-0.18,-0.3,-0.43,0.13,0.31,0.97,1000
16:08:49.791,17.53,-7.17,-112.68,-0.24,0.06,-0.67,0.13,0.31,0.97,1000
16:08:49.795,17.53,-7.17,-112.69,-0.24,-0.18,-0.37,0.13,0.31,0.97,1000
16:08:49.796,17.53,-7.17,-112.69,-0.18,-0.12,-0.43,0.13,0.31,0.97,1000
16:08:49.797,17.53,-7.17,-112.69,-0.24,-0.24,-0.43,0.13,0.31,0.97,1000
16:08:49.801,17.53,-7.17,-112.69,-0.24,-0.12,-0.37,0.13,0.31,0.97,1000
16:08:49.802,17.53,-7.17,-112.69,-0.18,-0.06,-0.37,0.13,0.31,0.97,1000
16:08:49.803,17.53,-7.17,-112.69,-0.3,-0.3,-0.37,0.13,0.31,0.97,1000
16:08:49.808,17.53,-7.17,-112.69,-0.18,-0.12,-0.49,0.13,0.31,0.97,1000
16:08:49.808,17.53,-7.17,-112.69,-0.24,-0.18,-0.49,0.13,0.31,0.97,1000
16:08:49.810,17.53,-7.17,-112.69,-0.24,-0.3,-0.43,0.13,0.31,0.97,1000
16:08:49.811,17.53,-7.17,-112.69,-0.24,-0.18,-0.55,0.13,0.31,0.97,1000
16:08:49.828,17.53,-7.17,-112.69,-0.18,-0.37,-0.55,0.13,0.31,0.97,1000
16:08:49.829,17.53,-7.17,-112.69,-0.18,-0.12,-0.67,0.13,0.31,0.97,1000
16:08:49.829,17.53,-7.17,-112.69,-0.18,0.0,-0.49,0.13,0.31,0.97,1000
16:08:49.829,17.53,-7.17,-112.69,-0.18,-0.12,-0.37,0.13,0.31,0.97,1000
16:08:49.829,17.53,-7.17,-112.69,-0.18,-0.12,-0.43,0.13,0.31,0.97,1000
16:08:49.829,17.53,-7.17,-112.69,-0.37,-0.18,-0.49,0.13,0.31,0.97,1000
16:08:49.829,17.53,-7.17,-112.7,-0.18,-0.12,-0.3,0.13,0.31,0.97,1000
16:08:49.829,17.53,-7.17,-112.7,-0.3,-0.18,-0.37,0.13,0.31,0.97,1000
16:08:49.830,17.53,-7.17,-112.7,-0.24,-0.12,-0.49,0.13,0.31,0.97,1000
16:08:49.831,17.53,-7.17,-112.7,-0.18,-0.24,-0.61,0.13,0.31,0.97,1000
16:08:49.833,17.53,-7.17,-112.7,-0.24,-0.24,-0.55,0.13,0.31,0.97,1000
16:08:49.835,17.53,-7.17,-112.7,-0.37,-0.18,-0.49,0.13,0.31,0.97,1000
16:08:49.837,17.53,-7.17,-112.7,-0.18,-0.18,-0.37,0.13,0.31,0.97,1000
16:08:49.839,17.53,-7.17,-112.7,-0.24,-0.43,-0.61,0.13,0.31,0.97,1000
16:08:49.841,17.53,-7.17,-112.7,-0.18,-0.18,-0.49,0.13,0.31,0.97,1000
16:08:49.843,17.53,-7.17,-112.7,-0.18,-0.3,-0.3,0.13,0.31,0.97,1000
16:08:49.845,17.53,-7.17,-112.7,-0.18,-0.3,-0.55,0.13,0.31,0.97,1000
16:08:49.847,17.53,-7.17,-112.7,-0.18,-0.18,-0.43,0.13,0.31,0.97,1000
16:08:49.849,17.53,-7.17,-112.7,-0.18,-0.12,-0.37,0.13,0.31,0.97,1000
16:08:49.851,17.53,-7.17,-112.7,-0.24,-0.12,-0.43,0.13,0.31,0.97,1000
16:08:49.853,17.53,-7.17,-112.7,-0.18,-0.24,-0.43,0.13,0.31,0.97,1000
16:08:49.858,17.53,-7.17,-112.7,-0.18,-0.18,-0.37,0.13,0.31,0.97,1000
16:08:49.858,17.53,-7.17,-112.71,-0.3,-0.18,-0.37,0.13,0.31,0.97,1000
16:08:49.859,17.53,-7.17,-112.71,-0.18,-0.12,-0.55,0.13,0.31,0.97,1000
16:08:49.862,17.53,-7.17,-112.71,-0.24,-0.3,-0.43,0.13,0.31,0.97,1000
16:08:49.865,17.53,-7.17,-112.71,-0.24,-0.24,-0.49,0.12,0.31,0.98,1000
16:08:49.866,17.53,-7.17,-112.71,-0.18,-0.18,-0.43,0.13,0.31,0.97,1000
16:08:49.867,17.53,-7.17,-112.71,-0.12,-0.24,-0.37,0.13,0.31,0.97,1000
16:08:49.870,17.53,-7.17,-112.71,-0.18,-0.18,-0.43,0.13,0.31,0.97,1000
16:08:49.871,17.53,-7.17,-112.71,-0.24,-0.3,-0.55,0.13,0.31,0.97,1000
16:08:49.874,17.53,-7.17,-112.71,-0.3,-0.18,-0.61,0.13,0.31,0.97,1000
16:08:49.876,17.53,-7.17,-112.71,-0.24,-0.3,-0.49,0.13,0.31,0.97,1000
16:08:49.878,17.53,-7.17,-112.71,-0.24,-0.24,-0.55,0.13,0.31,0.97,1000
16:08:49.879,17.53,-7.17,-112.71,-0.12,-0.12,-0.24,0.13,0.31,0.97,1000
16:08:49.881,17.53,-7.17,-112.71,-0.18,-0.37,-0.61,0.13,0.31,0.97,1000
16:08:49.883,17.53,-7.17,-112.71,-0.18,-0.37,-0.43,0.13,0.31,0.97,1000
16:08:49.886,17.53,-7.17,-112.72,-0.18,-0.3,-0.49,0.13,0.31,0.97,1000
16:08:49.888,17.53,-7.17,-112.72,-0.24,-0.18,-0.24,0.13,0.31,0.97,1000
16:08:49.891,17.53,-7.17,-112.72,-0.18,-0.3,-0.37,0.13,0.31,0.97,1000
16:08:49.892,17.54,-7.17,-112.72,-0.18,-0.18,-0.43,0.13,0.31,0.97,1000
16:08:49.893,17.54,-7.17,-112.72,-0.18,-0.24,-0.37,0.13,0.31,0.97,1000
16:08:49.895,17.54,-7.17,-112.72,-0.18,-0.3,-0.37,0.13,0.31,0.97,1000
16:08:49.897,17.54,-7.17,-112.72,-0.18,-0.24,-0.49,0.13,0.31,0.97,1000
16:08:49.899,17.54,-7.17,-112.72,-0.24,-0.24,-0.24,0.13,0.31,0.97,1000
16:08:49.901,17.54,-7.17,-112.72,-0.18,-0.12,-0.43,0.13,0.31,0.97,1000
16:08:49.904,17.54,-7.17,-112.72,-0.18,-0.3,-0.49,0.13,0.31,0.98,1000
16:08:49.908,17.54,-7.17,-112.72,-0.24,-0.3,-0.55,0.13,0.31,0.97,1000
16:08:49.908,17.54,-7.17,-112.72,-0.24,-0.12,-0.43,0.12,0.31,0.97,1000
16:08:49.910,17.54,-7.17,-112.72,-0.24,-0.24,-0.43,0.13,0.31,0.97,1000
16:08:49.911,17.54,-7.17,-112.72,-0.18,-0.18,-0.3,0.13,0.31,0.97,1000
16:08:49.913,17.54,-7.17,-112.72,-0.3,-0.24,-0.3,0.13,0.31,0.97,1000
16:08:49.927,17.54,-7.17,-112.72,-0.12,-0.3,-0.49,0.13,0.31,0.97,1000
16:08:49.931,17.54,-7.17,-112.72,-0.18,-0.3,-0.49,0.13,0.31,0.97,1000
16:08:49.931,17.54,-7.17,-112.72,-0.12,-0.24,-0.61,0.13,0.31,0.97,1000
16:08:49.931,17.54,-7.17,-112.73,-0.18,-0.18,-0.55,0.13,0.31,0.97,1000
16:08:49.931,17.54,-7.17,-112.73,-0.24,-0.3,-0.55,0.13,0.31,0.97,1000
16:08:49.931,17.54,-7.17,-112.73,-0.18,-0.24,-0.49,0.13,0.31,0.97,1000
16:08:49.931,17.54,-7.17,-112.73,-0.18,-0.24,-0.43,0.13,0.31,0.97,1000
16:08:49.931,17.54,-7.17,-112.73,-0.18,-0.24,-0.3,0.13,0.31,0.97,1000
16:08:49.932,17.54,-7.17,-112.73,-0.3,-0.24,-0.49,0.13,0.31,0.97,1000
16:08:49.934,17.54,-7.17,-112.73,-0.18,-0.37,-0.43,0.13,0.31,0.97,1000
16:08:49.936,17.54,-7.17,-112.73,-0.3,-0.3,-0.43,0.13,0.31,0.97,1000
16:08:49.940,17.54,-7.17,-112.73,-0.12,-0.3,-0.3,0.12,0.31,0.98,1000
16:08:49.940,17.54,-7.17,-112.73,-0.18,-0.18,-0.49,0.13,0.31,0.97,1000
16:08:49.942,17.54,-7.17,-112.73,-0.06,-0.24,-0.37,0.13,0.31,0.97,1000
16:08:49.944,17.54,-7.17,-112.73,-0.18,-0.24,-0.3,0.13,0.31,0.97,1000
16:08:49.946,17.54,-7.17,-112.73,-0.18,-0.18,-0.49,0.13,0.31,0.97,1000
16:08:49.948,17.54,-7.17,-112.73,-0.18,-0.12,-0.37,0.13,0.31,0.97,1000
16:08:49.949,17.54,-7.17,-112.73,-0.18,-0.3,-0.55,0.13,0.31,0.97,1000
16:08:49.951,17.54,-7.17,-112.73,-0.3,-0.3,-0.55,0.13,0.31,0.97,1000
16:08:49.953,17.54,-7.17,-112.73,-0.24,-0.24,-0.43,0.13,0.31,0.97,1000
16:08:49.955,17.54,-7.17,-112.74,-0.18,-0.18,-0.3,0.13,0.31,0.97,1000
16:08:49.959,17.54,-7.17,-112.74,-0.24,-0.24,-0.43,0.13,0.31,0.97,1000
16:08:49.959,17.54,-7.17,-112.74,-0.12,-0.24,-0.55,0.13,0.31,0.97,1000
16:08:49.962,17.54,-7.17,-112.74,-0.24,-0.3,-0.61,0.13,0.31,0.97,1000
16:08:49.963,17.54,-7.17,-112.74,-0.24,-0.18,-0.61,0.13,0.31,0.97,1000
16:08:49.965,17.54,-7.17,-112.74,-0.18,-0.43,-0.37,0.13,0.31,0.97,1000
16:08:49.969,17.54,-7.17,-112.74,-0.12,-0.24,-0.49,0.13,0.31,0.97,1000
16:08:49.970,17.54,-7.17,-112.74,-0.12,-0.06,-0.37,0.13,0.31,0.97,1000
16:08:49.971,17.54,-7.17,-112.74,-0.3,-0.18,-0.49,0.13,0.31,0.97,1000
16:08:49.973,17.54,-7.17,-112.74,-0.37,-0.24,-0.67,0.13,0.31,0.97,1000
16:08:49.975,17.54,-7.17,-112.74,-0.3,-0.24,-0.49,0.13,0.31,0.97,1000
16:08:49.980,17.54,-7.17,-112.74,-0.24,-0.3,-0.3,0.13,0.31,0.97,1000
16:08:49.980,17.54,-7.17,-112.74,-0.24,-0.12,-0.3,0.13,0.31,0.97,1000
16:08:49.981,17.54,-7.17,-112.74,-0.18,-0.18,-0.3,0.13,0.31,0.97,1000
16:08:49.986,17.54,-7.17,-112.74,-0.24,-0.18,-0.37,0.13,0.31,0.97,1000
16:08:49.989,17.54,-7.17,-112.74,-0.18,-0.43,-0.43,0.12,0.31,0.97,1000
16:08:49.990,17.54,-7.17,-112.75,-0.24,-0.24,-0.43,0.13,0.31,0.97,1000
16:08:49.990,17.54,-7.17,-112.75,-0.18,-0.24,-0.49,0.13,0.31,0.97,1000
16:08:49.991,17.54,-7.17,-112.75,-0.37,-0.24,-0.67,0.13,0.31,0.97,1000
16:08:49.993,17.54,-7.17,-112.75,-0.37,-0.3,-0.55,0.13,0.31,0.98,1000
16:08:49.996,17.54,-7.17,-112.75,-0.3,-0.24,-0.37,0.13,0.31,0.97,1000
16:08:49.997,17.54,-7.17,-112.75,-0.37,-0.18,-0.43,0.13,0.31,0.97,1000
16:08:49.999,17.54,-7.17,-112.75,-0.18,-0.18,-0.3,0.13,0.31,0.97,1000
16:08:50.002,17.54,-7.17,-112.75,-0.24,-0.18,-0.3,0.13,0.31,0.97,1000
16:08:50.003,17.54,-7.17,-112.75,-0.18,-0.24,-0.43,0.13,0.31,0.97,1000
16:08:50.006,17.54,-7.17,-112.75,-0.18,-0.24,-0.37,0.13,0.31,0.97,1000
16:08:50.008,17.54,-7.17,-112.75,-0.18,-0.3,-0.43,0.13,0.31,0.97,1000
16:08:50.009,17.54,-7.17,-112.75,-0.24,-0.24,-0.43,0.13,0.31,0.97,1000
16:08:50.011,17.54,-7.17,-112.75,-0.3,-0.18,-0.49,0.13,0.31,0.97,1000
16:08:50.013,17.54,-7.17,-112.75,-0.18,-0.3,-0.3,0.13,0.31,0.97,1000
16:08:50.015,17.54,-7.17,-112.75,-0.18,-0.3,-0.43,0.13,0.31,0.97,1000
16:08:50.032,17.54,-7.17,-112.75,-0.37,-0.18,-0.49,0.13,0.31,0.97,1000
16:08:50.032,17.54,-7.17,-112.75,-0.24,-0.24,-0.61,0.13,0.31,0.97,1000
16:08:50.032,17.54,-7.17,-112.76,-0.18,-0.24,-0.43,0.13,0.31,0.97,1000
16:08:50.032,17.54,-7.17,-112.76,-0.12,-0.18,-0.43,0.13,0.31,0.97,1000
16:08:50.032,17.53,-7.17,-112.76,-0.18,-0.24,-0.37,0.13,0.31,0.97,1000
16:08:50.032,17.53,-7.17,-112.76,-0.37,-0.18,-0.43,0.13,0.31,0.97,1000
16:08:50.032,17.53,-7.17,-112.76,-0.18,-0.18,-0.3,0.13,0.31,0.97,1000
16:08:50.032,17.53,-7.17,-112.76,-0.24,-0.12,-0.49,0.12,0.31,0.97,1000
16:08:50.034,17.53,-7.17,-112.76,-0.24,-0.18,-0.37,0.13,0.31,0.97,1000
16:08:50.035,17.53,-7.17,-112.76,-0.18,-0.24,-0.3,0.13,0.31,0.97,1000
16:08:50.037,17.53,-7.17,-112.76,-0.24,-0.3,-0.24,0.13,0.31,0.97,1000
16:08:50.043,17.53,-7.17,-112.76,-0.18,-0.24,-0.3,0.13,0.31,0.97,1000
16:08:50.043,17.53,-7.17,-112.76,-0.24,-0.12,-0.43,0.13,0.31,0.97,1000
16:08:50.044,17.53,-7.17,-112.76,-0.18,-0.18,-0.49,0.13,0.31,0.97,1000
16:08:50.045,17.53,-7.17,-112.76,-0.24,-0.24,-0.49,0.13,0.31,0.97,1000
16:08:50.048,17.53,-7.17,-112.76,-0.24,-0.12,-0.3,0.13,0.31,0.97,1000
16:08:50.050,17.53,-7.17,-112.76,-0.3,-0.24,-0.37,0.13,0.31,0.97,1000
16:08:50.051,17.53,-7.17,-112.77,-0.18,-0.24,-0.37,0.13,0.31,0.97,1000
16:08:50.053,17.53,-7.17,-112.77,-0.12,-0.24,-0.37,0.13,0.31,0.97,1000
16:08:50.055,17.53,-7.17,-112.77,-0.24,-0.3,-0.43,0.13,0.31,0.97,1000
16:08:50.057,17.53,-7.17,-112.77,-0.18,-0.37,-0.49,0.13,0.31,0.97,1000
16:08:50.059,17.53,-7.17,-112.77,-0.18,-0.24,-0.3,0.13,0.31,0.97,1000
16:08:50.061,17.53,-7.17,-112.77,-0.18,-0.18,-0.43,0.13,0.31,0.97,1000
16:08:50.065,17.53,-7.17,-112.77,-0.18,-0.3,-0.37,0.13,0.31,0.97,1000
16:08:50.066,17.53,-7.17,-112.77,-0.3,-0.18,-0.3,0.13,0.31,0.97,1000
16:08:50.067,17.53,-7.17,-112.77,-0.3,-0.43,-0.37,0.13,0.31,0.97,1000
16:08:50.069,17.53,-7.17,-112.77,-0.18,-0.3,-0.37,0.13,0.31,0.98,1000
16:08:50.071,17.53,-7.17,-112.77,-0.3,-0.43,-0.3,0.13,0.31,0.98,1000
16:08:50.073,17.53,-7.17,-112.77,-0.18,-0.37,-0.49,0.13,0.31,0.98,1000
16:08:50.075,17.53,-7.17,-112.77,-0.18,-0.24,-0.37,0.13,0.31,0.98,1000
16:08:50.077,17.53,-7.17,-112.77,-0.18,-0.24,-0.55,0.13,0.31,0.97,1000
16:08:50.081,17.53,-7.17,-112.77,-0.37,-0.18,-0.49,0.13,0.31,0.97,1000
16:08:50.082,17.53,-7.17,-112.77,-0.24,-0.18,-0.55,0.13,0.31,0.97,1000
16:08:50.085,17.53,-7.17,-112.77,-0.37,-0.24,-0.37,0.13,0.31,0.97,1000
16:08:50.085,17.53,-7.17,-112.77,-0.24,-0.37,-0.37,0.13,0.31,0.97,1000
16:08:50.087,17.53,-7.17,-112.77,-0.3,-0.43,-0.43,0.13,0.31,0.97,1000
16:08:50.091,17.53,-7.17,-112.78,-0.3,-0.37,-0.49,0.12,0.31,0.97,1000
16:08:50.092,17.53,-7.17,-112.78,-0.3,-0.3,-0.61,0.13,0.31,0.97,1000
16:08:50.093,17.53,-7.17,-112.78,-0.18,-0.12,-0.37,0.13,0.31,0.97,1000
16:08:50.095,17.53,-7.17,-112.78,-0.18,-0.18,-0.49,0.13,0.31,0.97,1000
16:08:50.098,17.53,-7.17,-112.78,-0.24,-0.18,-0.3,0.12,0.31,0.97,1000
16:08:50.100,17.53,-7.17,-112.78,-0.18,-0.3,-0.37,0.13,0.31,0.97,1000
16:08:50.101,17.53,-7.17,-112.78,-0.24,-0.12,-0.61,0.13,0.31,0.97,1000
16:08:50.104,17.53,-7.17,-112.78,-0.18,-0.24,-0.49,0.13,0.31,0.97,1000
16:08:50.109,17.53,-7.17,-112.78,-0.12,-0.06,-0.49,0.13,0.31,0.97,1000
16:08:50.110,17.53,-7.17,-112.78,-0.18,0.0,-0.43,0.13,0.31,0.97,1000
16:08:50.110,17.53,-7.17,-112.78,-0.18,-0.12,-0.49,0.13,0.31,0.97,1000
16:08:50.112,17.53,-7.17,-112.78,-0.12,-0.06,-0.49,0.13,0.31,0.97,1000
16:08:50.115,17.53,-7.17,-112.78,-0.24,-0.12,-0.49,0.13,0.31,0.97,1000
16:08:50.116,17.53,-7.17,-112.78,-0.24,-0.18,-0.49,0.13,0.31,0.97,1000
16:08:50.118,17.53,-7.16,-112.78,-0.12,-0.06,-0.3,0.13,0.31,0.97,1000
16:08:50.135,17.53,-7.16,-112.79,-0.18,-0.24,-0.49,0.13,0.31,0.97,1000
16:08:50.135,17.53,-7.16,-112.79,-0.24,-0.18,-0.55,0.13,0.31,0.97,1000
16:08:50.136,17.53,-7.16,-112.79,-0.3,-0.24,-0.49,0.13,0.31,0.97,1000
16:08:50.136,17.53,-7.17,-112.79,-0.3,-0.43,-0.3,0.13,0.31,0.97,1000
16:08:50.136,17.53,-7.17,-112.79,-0.24,-0.24,-0.49,0.13,0.31,0.97,1000
16:08:50.136,17.53,-7.17,-112.79,-0.12,0.0,-0.43,0.12,0.31,0.97,1000
16:08:50.136,17.53,-7.16,-112.79,-0.3,0.0,-0.37,0.12,0.31,0.97,1000
16:08:50.136,17.53,-7.16,-112.79,-0.24,0.0,-0.49,0.12,0.31,0.97,1000
16:08:50.136,17.53,-7.16,-112.79,-0.12,-0.12,-0.24,0.13,0.31,0.97,1000
16:08:50.137,17.53,-7.16,-112.79,-0.3,-0.24,-0.37,0.13,0.31,0.97,1000
16:08:50.140,17.53,-7.16,-112.79,-0.18,-0.12,-0.49,0.13,0.31,0.97,1000
16:08:50.143,17.53,-7.16,-112.79,-0.12,-0.3,-0.43,0.13,0.31,0.97,1000
16:08:50.143,17.53,-7.16,-112.79,-0.37,-0.24,-0.37,0.13,0.31,0.97,1000
16:08:50.145,17.53,-7.16,-112.79,-0.3,-0.12,-0.3,0.13,0.31,0.97,1000
16:08:50.148,17.53,-7.16,-112.79,-0.3,-0.3,-0.49,0.13,0.31,0.97,1000
16:08:50.149,17.53,-7.16,-112.79,-0.24,-0.18,-0.3,0.13,0.31,0.97,1000
16:08:50.151,17.53,-7.16,-112.8,-0.24,-0.18,-0.37,0.13,0.31,0.97,1000
16:08:50.153,17.53,-7.16,-112.8,-0.24,-0.12,-0.3,0.13,0.31,0.97,1000
16:08:50.155,17.53,-7.16,-112.8,-0.24,0.0,-0.55,0.13,0.31,0.97,1000
16:08:50.159,17.53,-7.16,-112.8,-0.37,-0.24,-0.43,0.13,0.31,0.97,1000
16:08:50.160,17.53,-7.16,-112.8,-0.18,-0.24,-0.49,0.13,0.31,0.97,1000
16:08:50.163,17.53,-7.16,-112.8,-0.24,-0.24,-0.49,0.13,0.31,0.98,1000
16:08:50.168,17.53,-7.16,-112.8,-0.3,-0.24,-0.43,0.13,0.31,0.97,1000
16:08:50.168,17.53,-7.16,-112.8,-0.3,-0.24,-0.43,0.13,0.31,0.97,1000
16:08:50.168,17.53,-7.16,-112.8,-0.3,-0.18,-0.43,0.13,0.31,0.97,1000
16:08:50.170,17.53,-7.16,-112.8,-0.24,-0.12,-0.37,0.13,0.31,0.97,1000
16:08:50.172,17.53,-7.16,-112.8,-0.24,-0.24,-0.61,0.13,0.31,0.97,1000
16:08:50.174,17.53,-7.16,-112.8,-0.18,-0.37,-0.43,0.13,0.31,0.97,1000
16:08:50.176,17.53,-7.16,-112.8,-0.3,-0.24,-0.3,0.13,0.31,0.97,1000
16:08:50.177,17.53,-7.16,-112.8,-0.24,-0.24,-0.3,0.13,0.31,0.97,1000
16:08:50.179,17.53,-7.16,-112.81,-0.18,-0.12,-0.43,0.13,0.31,0.97,1000
16:08:50.181,17.53,-7.16,-112.81,-0.12,-0.24,-0.43,0.13,0.31,0.97,1000
16:08:50.184,17.53,-7.16,-112.81,-0.18,-0.18,-0.55,0.13,0.31,0.97,1000
16:08:50.185,17.53,-7.16,-112.81,-0.3,-0.3,-0.49,0.13,0.31,0.97,1000
16:08:50.189,17.53,-7.16,-112.81,-0.24,-0.24,-0.55,0.13,0.31,0.97,1000
16:08:50.189,17.53,-7.16,-112.81,-0.24,-0.18,-0.37,0.13,0.31,0.97,1000
16:08:50.194,17.53,-7.16,-112.81,-0.24,-0.3,-0.37,0.13,0.31,0.97,1000
16:08:50.194,17.53,-7.16,-112.81,-0.24,-0.24,-0.43,0.13,0.31,0.97,1000
16:08:50.196,17.53,-7.16,-112.81,-0.18,-0.12,-0.55,0.13,0.31,0.97,1000
16:08:50.197,17.53,-7.16,-112.81,-0.3,-0.18,-0.55,0.13,0.31,0.97,1000
16:08:50.201,17.53,-7.16,-112.81,-0.18,-0.24,-0.49,0.13,0.31,0.97,1000
16:08:50.204,17.53,-7.16,-112.81,-0.24,-0.3,-0.43,0.13,0.31,0.97,1000
16:08:50.204,17.53,-7.16,-112.81,-0.18,-0.18,-0.43,0.13,0.31,0.97,1000
16:08:50.206,17.53,-7.16,-112.81,-0.24,-0.18,-0.37,0.13,0.31,0.97,1000
16:08:50.208,17.53,-7.16,-112.81,-0.18,-0.24,-0.43,0.13,0.31,0.97,1000
16:08:50.210,17.53,-7.16,-112.81,-0.12,-0.24,-0.37,0.13,0.31,0.97,1000
16:08:50.211,17.53,-7.16,-112.81,-0.12,-0.3,-0.49,0.13,0.31,0.97,1000
16:08:50.213,17.53,-7.16,-112.82,-0.18,-0.18,-0.43,0.13,0.31,0.97,1000
16:08:50.215,17.53,-7.16,-112.82,-0.18,-0.18,-0.49,0.13,0.31,0.97,1000
16:08:50.217,17.53,-7.16,-112.82,-0.12,-0.12,-0.49,0.13,0.31,0.97,1000
16:08:50.220,17.53,-7.16,-112.82,-0.24,-0.06,-0.37,0.13,0.31,0.97,1000
16:08:50.238,17.53,-7.16,-112.82,-0.18,-0.06,-0.3,0.13,0.31,0.97,1000
16:08:50.238,17.53,-7.16,-112.82,-0.18,-0.18,-0.3,0.13,0.31,0.98,1000
16:08:50.238,17.53,-7.16,-112.82,-0.24,-0.37,-0.37,0.13,0.31,0.97,1000
16:08:50.238,17.53,-7.16,-112.82,-0.24,-0.3,-0.24,0.13,0.31,0.97,1000
16:08:50.238,17.53,-7.16,-112.82,-0.18,0.0,-0.55,0.12,0.31,0.97,1000
16:08:50.238,17.53,-7.16,-112.82,-0.18,-0.06,-0.49,0.13,0.31,0.97,1000
16:08:50.238,17.53,-7.16,-112.82,-0.3,-0.24,-0.55,0.13,0.31,0.97,1000
16:08:50.238,17.53,-7.16,-112.82,-0.24,-0.24,-0.43,0.13,0.31,0.97,1000
16:08:50.238,17.53,-7.16,-112.82,-0.3,-0.3,-0.37,0.13,0.31,0.97,1000
16:08:50.240,17.53,-7.16,-112.82,-0.18,-0.24,-0.37,0.13,0.31,0.97,1000
16:08:50.242,17.53,-7.16,-112.82,-0.24,-0.24,-0.37,0.13,0.31,0.97,1000
16:08:50.244,17.53,-7.16,-112.82,-0.24,-0.12,-0.43,0.13,0.31,0.97,1000
16:08:50.246,17.53,-7.16,-112.82,-0.37,-0.18,-0.55,0.13,0.31,0.97,1000
16:08:50.248,17.53,-7.16,-112.82,-0.24,-0.06,-0.3,0.13,0.31,0.97,1000
16:08:50.249,17.53,-7.16,-112.83,-0.12,-0.37,-0.43,0.13,0.31,0.97,1000
16:08:50.251,17.53,-7.16,-112.83,-0.24,-0.12,-0.49,0.13,0.31,0.97,1000
16:08:50.253,17.53,-7.16,-112.83,-0.18,-0.3,-0.3,0.13,0.31,0.97,1000
16:08:50.256,17.53,-7.16,-112.83,-0.18,-0.18,-0.3,0.13,0.31,0.97,1000
16:08:50.257,17.53,-7.16,-112.83,-0.3,-0.18,-0.37,0.13,0.31,0.97,1000
16:08:50.260,17.53,-7.16,-112.83,-0.18,-0.3,-0.49,0.13,0.31,0.97,1000
16:08:50.262,17.53,-7.16,-112.83,-0.18,-0.3,-0.37,0.13,0.31,0.97,1000
16:08:50.266,17.53,-7.16,-112.83,-0.3,-0.3,-0.61,0.13,0.31,0.97,1000
16:08:50.266,17.53,-7.16,-112.83,-0.24,-0.37,-0.55,0.13,0.31,0.97,1000
16:08:50.267,17.53,-7.16,-112.83,-0.18,-0.3,-0.3,0.13,0.31,0.97,1000
16:08:50.269,17.53,-7.16,-112.83,-0.37,-0.24,-0.67,0.13,0.31,0.97,1000
16:08:50.271,17.53,-7.16,-112.83,-0.18,-0.37,-0.43,0.13,0.31,0.97,1000
16:08:50.273,17.53,-7.16,-112.83,-0.18,-0.37,-0.37,0.13,0.31,0.97,1000
16:08:50.276,17.53,-7.16,-112.83,-0.12,-0.24,-0.49,0.13,0.31,0.97,1000
16:08:50.278,17.53,-7.16,-112.83,-0.18,-0.3,-0.43,0.13,0.31,0.97,1000
16:08:50.279,17.53,-7.16,-112.83,-0.18,-0.24,-0.43,0.13,0.31,0.97,1000
16:08:50.282,17.53,-7.16,-112.84,-0.18,-0.18,-0.55,0.13,0.31,0.97,1000
16:08:50.284,17.53,-7.16,-112.84,-0.3,-0.06,-0.43,0.13,0.31,0.97,1000
16:08:50.286,17.53,-7.16,-112.84,-0.18,-0.24,-0.55,0.13,0.31,0.97,1000
16:08:50.287,17.53,-7.16,-112.84,-0.18,-0.12,-0.37,0.13,0.31,0.98,1000
16:08:50.289,17.53,-7.16,-112.84,-0.18,-0.12,-0.37,0.13,0.31,0.97,1000
16:08:50.292,17.53,-7.16,-112.84,-0.18,-0.24,-0.67,0.13,0.31,0.97,1000
16:08:50.293,17.53,-7.16,-112.84,-0.18,-0.18,-0.43,0.13,0.31,0.97,1000
16:08:50.296,17.53,-7.16,-112.84,-0.18,-0.18,-0.49,0.13,0.31,0.97,1000
16:08:50.298,17.53,-7.16,-112.84,-0.3,-0.18,-0.55,0.13,0.31,0.98,1000
16:08:50.300,17.53,-7.16,-112.84,-0.24,-0.3,-0.55,0.13,0.31,0.97,1000
16:08:50.301,17.53,-7.16,-112.84,-0.18,-0.24,-0.73,0.12,0.31,0.97,1000
16:08:50.304,17.53,-7.16,-112.84,-0.24,-0.18,-0.67,0.13,0.31,0.97,1000
16:08:50.306,17.53,-7.16,-112.84,-0.12,-0.3,-0.43,0.12,0.31,0.97,1000
16:08:50.307,17.53,-7.16,-112.84,-0.24,-0.24,-0.3,0.13,0.31,0.97,1000
16:08:50.309,17.53,-7.16,-112.84,-0.3,-0.24,-0.37,0.13,0.31,0.97,1000
16:08:50.311,17.53,-7.16,-112.84,-0.37,-0.24,-0.43,0.13,0.31,0.97,1000
16:08:50.315,17.53,-7.16,-112.85,-0.18,-0.12,-0.43,0.13,0.31,0.97,1000
16:08:50.315,17.53,-7.16,-112.85,-0.43,-0.12,-0.43,0.12,0.31,0.97,1000
16:08:50.317,17.53,-7.16,-112.85,-0.24,-0.24,-0.55,0.13,0.31,0.97,1000
16:08:50.319,17.53,-7.16,-112.85,-0.18,-0.18,-0.43,0.13,0.31,0.97,1000
16:08:50.322,17.53,-7.16,-112.85,-0.18,-0.3,-0.55,0.13,0.31,0.97,1000
16:08:50.330,17.53,-7.16,-112.85,-0.24,-0.24,-0.61,0.12,0.31,0.97,1000
16:08:50.331,17.53,-7.16,-112.85,-0.24,-0.24,-0.49,0.12,0.31,0.97,1000
16:08:50.331,17.53,-7.16,-112.85,-0.24,-0.18,-0.3,0.13,0.31,0.97,1000
16:08:50.331,17.53,-7.16,-112.85,-0.18,-0.43,-0.49,0.13,0.31,0.97,1000
16:08:50.343,17.53,-7.16,-112.85,-0.18,-0.3,-0.55,0.12,0.31,0.97,1000
16:08:50.343,17.53,-7.16,-112.85,-0.12,-0.3,-0.37,0.13,0.31,0.97,1000
16:08:50.343,17.53,-7.16,-112.85,-0.12,-0.18,-0.37,0.13,0.31,0.97,1000
16:08:50.343,17.53,-7.16,-112.85,-0.24,-0.06,-0.3,0.13,0.31,0.97,1000
16:08:50.343,17.53,-7.16,-112.85,-0.37,-0.12,-0.37,0.13,0.31,0.97,1000
16:08:50.343,17.53,-7.16,-112.85,-0.18,-0.24,-0.3,0.12,0.31,0.97,1000
16:08:50.344,17.53,-7.16,-112.85,-0.18,-0.24,-0.43,0.13,0.31,0.97,1000
16:08:50.345,17.53,-7.16,-112.85,-0.18,-0.06,-0.3,0.13,0.31,0.97,1000
16:08:50.348,17.53,-7.16,-112.86,-0.18,-0.12,-0.49,0.13,0.31,0.97,1000
16:08:50.349,17.53,-7.16,-112.86,-0.24,-0.18,-0.3,0.13,0.31,0.97,1000
16:08:50.351,17.53,-7.16,-112.86,-0.18,-0.24,-0.37,0.13,0.31,0.97,1000
16:08:50.353,17.53,-7.16,-112.86,-0.3,-0.3,-0.3,0.13,0.31,0.97,1000
16:08:50.355,17.53,-7.16,-112.86,-0.18,-0.06,-0.43,0.13,0.31,0.97,1000
16:08:50.357,17.53,-7.16,-112.86,-0.43,-0.18,-0.3,0.12,0.31,0.97,1000
16:08:50.359,17.53,-7.16,-112.86,-0.3,-0.18,-0.49,0.13,0.31,0.97,1000
16:08:50.361,17.53,-7.16,-112.86,-0.24,-0.06,-0.24,0.13,0.31,0.97,1000
16:08:50.363,17.53,-7.16,-112.86,-0.12,-0.3,-0.49,0.13,0.31,0.97,1000
16:08:50.365,17.53,-7.16,-112.86,-0.3,-0.18,-0.3,0.13,0.31,0.97,1000
16:08:50.368,17.53,-7.16,-112.86,-0.18,-0.18,-0.49,0.13,0.31,0.97,1000
16:08:50.371,17.53,-7.16,-112.86,-0.18,-0.3,-0.43,0.13,0.31,0.97,1000
16:08:50.371,17.53,-7.16,-112.86,-0.18,-0.3,-0.61,0.13,0.31,0.97,1000
16:08:50.373,17.53,-7.16,-112.86,-0.3,-0.3,-0.55,0.13,0.31,0.97,1000
16:08:50.375,17.53,-7.16,-112.86,-0.24,-0.12,-0.49,0.13,0.31,0.97,1000
16:08:50.377,17.53,-7.16,-112.86,-0.24,-0.24,-0.43,0.13,0.31,0.97,1000
16:08:50.380,17.53,-7.16,-112.86,-0.24,-0.37,-0.37,0.13,0.31,0.97,1000
16:08:50.381,17.53,-7.16,-112.87,-0.3,-0.24,-0.49,0.13,0.31,0.97,1000
16:08:50.383,17.53,-7.16,-112.87,-0.24,-0.18,-0.55,0.13,0.31,0.97,1000
16:08:50.385,17.53,-7.16,-112.87,-0.24,-0.37,-0.43,0.13,0.31,0.97,1000
16:08:50.388,17.53,-7.16,-112.87,-0.18,-0.37,-0.43,0.13,0.31,0.97,1000
16:08:50.390,17.53,-7.16,-112.87,-0.37,-0.24,-0.55,0.13,0.31,0.97,1000
16:08:50.392,17.53,-7.16,-112.87,-0.18,-0.37,-0.37,0.13,0.31,0.97,1000
16:08:50.394,17.53,-7.16,-112.87,-0.3,-0.24,-0.43,0.13,0.31,0.97,1000
16:08:50.395,17.53,-7.16,-112.87,-0.18,-0.18,-0.37,0.13,0.31,0.97,1000
16:08:50.398,17.53,-7.16,-112.87,-0.18,-0.12,-0.43,0.13,0.31,0.97,1000
16:08:50.400,17.53,-7.16,-112.87,-0.18,-0.3,-0.37,0.13,0.31,0.97,1000
16:08:50.401,17.53,-7.16,-112.87,-0.24,-0.18,-0.3,0.13,0.31,0.97,1000
16:08:50.404,17.53,-7.16,-112.87,-0.24,-0.18,-0.3,0.13,0.31,0.97,1000
16:08:50.405,17.53,-7.16,-112.87,-0.24,-0.24,-0.3,0.13,0.31,0.97,1000
16:08:50.409,17.53,-7.16,-112.87,-0.18,-0.37,-0.3,0.13,0.31,0.98,1000
16:08:50.410,17.53,-7.16,-112.87,-0.24,-0.24,-0.49,0.13,0.31,0.97,1000
16:08:50.411,17.53,-7.16,-112.87,-0.37,-0.24,-0.43,0.13,0.31,0.97,1000
16:08:50.414,17.53,-7.16,-112.87,-0.18,-0.12,-0.55,0.13,0.31,0.97,1000
16:08:50.418,17.53,-7.16,-112.88,-0.18,-0.18,-0.43,0.13,0.31,0.97,1000
16:08:50.418,17.53,-7.16,-112.88,-0.24,-0.37,-0.61,0.13,0.31,0.97,1000
16:08:50.422,17.53,-7.16,-112.88,-0.18,-0.24,-0.61,0.13,0.31,0.97,1000
16:08:50.422,17.53,-7.16,-112.88,-0.24,-0.3,-0.43,0.13,0.31,0.98,1000
16:08:50.423,17.53,-7.16,-112.88,-0.18,-0.3,-0.55,0.13,0.31,0.97,1000
16:08:50.425,17.53,-7.16,-112.88,-0.24,-0.24,-0.3,0.13,0.31,0.97,1000
16:08:50.443,17.53,-7.16,-112.88,-0.18,-0.06,-0.49,0.13,0.31,0.97,1000
16:08:50.444,17.53,-7.16,-112.88,-0.24,-0.24,-0.43,0.13,0.31,0.97,1000
16:08:50.444,17.53,-7.16,-112.88,-0.24,-0.24,-0.49,0.13,0.31,0.98,1000
16:08:50.444,17.53,-7.16,-112.88,-0.18,-0.3,-0.37,0.13,0.31,0.98,1000
16:08:50.444,17.53,-7.16,-112.88,-0.18,-0.12,-0.61,0.13,0.31,0.98,1000
16:08:50.444,17.53,-7.16,-112.88,-0.18,-0.12,-0.67,0.12,0.31,0.98,1000
16:08:50.444,17.53,-7.16,-112.88,-0.24,-0.18,-0.49,0.12,0.31,0.97,1000
16:08:50.444,17.53,-7.16,-112.88,-0.18,-0.24,-0.37,0.12,0.31,0.97,1000
16:08:50.444,17.53,-7.16,-112.88,-0.18,-0.12,-0.43,0.13,0.31,0.97,1000
16:08:50.445,17.53,-7.16,-112.89,-0.24,-0.37,-0.3,0.13,0.31,0.97,1000
16:08:50.449,17.53,-7.16,-112.89,-0.18,-0.18,-0.3,0.13,0.31,0.98,1000
16:08:50.449,17.53,-7.16,-112.89,-0.24,-0.24,-0.49,0.13,0.31,0.97,1000
16:08:50.451,17.53,-7.16,-112.89,-0.3,-0.3,-0.49,0.13,0.31,0.97,1000
16:08:50.453,17.53,-7.16,-112.89,-0.24,-0.18,-0.61,0.13,0.31,0.98,1000
16:08:50.455,17.53,-7.16,-112.89,-0.18,-0.24,-0.3,0.13,0.31,0.97,1000
16:08:50.457,17.53,-7.16,-112.89,-0.24,-0.37,-0.43,0.13,0.31,0.97,1000
16:08:50.459,17.53,-7.16,-112.89,-0.18,-0.06,-0.37,0.13,0.31,0.97,1000
16:08:50.462,17.53,-7.16,-112.89,-0.24,-0.3,-0.3,0.13,0.31,0.97,1000
16:08:50.464,17.53,-7.16,-112.89,-0.18,-0.24,-0.3,0.13,0.31,0.97,1000
16:08:50.467,17.53,-7.16,-112.89,-0.18,-0.24,-0.43,0.13,0.31,0.97,1000
16:08:50.467,17.53,-7.16,-112.89,-0.24,-0.18,-0.43,0.13,0.31,0.97,1000
16:08:50.470,17.53,-7.16,-112.89,-0.3,-0.12,-0.55,0.13,0.31,0.97,1000
16:08:50.474,17.53,-7.16,-112.89,-0.24,-0.06,-0.49,0.13,0.31,0.97,1000
16:08:50.474,17.53,-7.16,-112.89,-0.18,-0.06,-0.49,0.13,0.31,0.98,1000
16:08:50.476,17.53,-7.16,-112.9,-0.18,-0.18,-0.49,0.13,0.31,0.97,1000
16:08:50.477,17.53,-7.16,-112.9,-0.18,-0.24,-0.55,0.13,0.31,0.97,1000
16:08:50.479,17.53,-7.16,-112.9,-0.18,-0.24,-0.43,0.13,0.31,0.97,1000
16:08:50.481,17.53,-7.16,-112.9,-0.24,-0.06,-0.3,0.13,0.31,0.97,1000
16:08:50.483,17.53,-7.16,-112.9,-0.18,-0.12,-0.43,0.13,0.31,0.97,1000
16:08:50.485,17.53,-7.16,-112.9,-0.18,-0.18,-0.55,0.13,0.31,0.97,1000
16:08:50.487,17.53,-7.16,-112.9,-0.18,-0.06,-0.49,0.13,0.31,0.97,1000
16:08:50.491,17.53,-7.16,-112.9,-0.24,-0.18,-0.43,0.13,0.31,0.97,1000
16:08:50.491,17.53,-7.16,-112.9,-0.18,-0.37,-0.3,0.13,0.31,0.97,1000
16:08:50.494,17.53,-7.16,-112.9,-0.18,-0.3,-0.3,0.13,0.31,0.97,1000
16:08:50.495,17.53,-7.16,-112.9,-0.24,-0.3,-0.55,0.13,0.31,0.97,1000
16:08:50.497,17.53,-7.16,-112.9,-0.24,-0.24,-0.55,0.13,0.31,0.97,1000
16:08:50.501,17.53,-7.16,-112.9,-0.24,-0.24,-0.49,0.13,0.31,0.97,1000
16:08:50.502,17.53,-7.16,-112.9,-0.18,-0.3,-0.49,0.12,0.31,0.97,1000
16:08:50.503,17.53,-7.16,-112.9,-0.24,-0.18,-0.43,0.13,0.31,0.97,1000
16:08:50.505,17.53,-7.16,-112.9,-0.24,-0.3,-0.37,0.13,0.31,0.97,1000
16:08:50.508,17.53,-7.16,-112.91,-0.18,-0.18,-0.37,0.13,0.31,0.97,1000
16:08:50.509,17.53,-7.16,-112.91,-0.18,-0.24,-0.43,0.13,0.31,0.97,1000
16:08:50.511,17.53,-7.16,-112.91,-0.18,-0.12,-0.49,0.13,0.31,0.97,1000
16:08:50.513,17.53,-7.15,-112.91,-0.18,-0.06,-0.55,0.13,0.31,0.97,1000
16:08:50.515,17.53,-7.15,-112.91,-0.18,-0.12,-0.49,0.13,0.31,0.97,1000
16:08:50.517,17.53,-7.15,-112.91,-0.18,-0.3,-0.55,0.13,0.31,0.97,1000
16:08:50.520,17.53,-7.15,-112.91,-0.18,-0.37,-0.55,0.13,0.31,0.97,1000
16:08:50.521,17.53,-7.15,-112.91,-0.18,-0.24,-0.61,0.13,0.31,0.97,1000
16:08:50.524,17.53,-7.15,-112.91,-0.18,-0.18,-0.3,0.13,0.31,0.97,1000
16:08:50.526,17.53,-7.15,-112.91,-0.18,-0.18,-0.37,0.13,0.31,0.97,1000
16:08:50.527,17.53,-7.15,-112.91,-0.12,-0.37,-0.24,0.13,0.31,0.97,1000
16:08:50.537,17.53,-7.15,-112.91,-0.18,-0.06,-0.43,0.13,0.31,0.97,1000
16:08:50.544,17.53,-7.15,-112.91,-0.24,-0.12,-0.55,0.13,0.31,0.97,1000
16:08:50.544,17.53,-7.15,-112.91,-0.3,-0.24,-0.55,0.13,0.31,0.97,1000
16:08:50.544,17.53,-7.15,-112.91,-0.24,-0.43,-0.55,0.13,0.31,0.97,1000
16:08:50.544,17.53,-7.15,-112.91,-0.24,-0.24,-0.55,0.13,0.31,0.97,1000
16:08:50.544,17.53,-7.15,-112.92,-0.12,-0.3,-0.49,0.13,0.31,0.97,1000
16:08:50.544,17.53,-7.15,-112.92,0.0,-0.24,-0.37,0.13,0.31,0.97,1000
16:08:50.544,17.53,-7.15,-112.92,-0.06,-0.18,-0.3,0.13,0.31,0.97,1000
16:08:50.546,17.53,-7.15,-112.92,-0.24,-0.3,-0.55,0.13,0.31,0.97,1000
16:08:50.548,17.53,-7.15,-112.92,-0.18,-0.18,-0.61,0.13,0.31,0.97,1000
16:08:50.550,17.53,-7.15,-112.92,-0.18,-0.18,-0.61,0.13,0.31,0.97,1000
16:08:50.553,17.53,-7.15,-112.92,-0.18,-0.24,-0.49,0.13,0.31,0.97,1000
16:08:50.553,17.53,-7.15,-112.92,-0.18,-0.37,-0.43,0.13,0.31,0.97,1000
16:08:50.555,17.53,-7.15,-112.92,-0.24,-0.3,-0.55,0.13,0.31,0.97,1000
16:08:50.557,17.53,-7.15,-112.92,-0.37,-0.12,-0.55,0.13,0.31,0.97,1000
16:08:50.559,17.53,-7.16,-112.92,-0.37,-0.3,-0.43,0.13,0.31,0.97,1000
16:08:50.561,17.53,-7.16,-112.92,-0.3,-0.3,-0.37,0.13,0.31,0.97,1000
16:08:50.563,17.53,-7.16,-112.92,-0.24,-0.12,-0.55,0.13,0.31,0.97,1000
16:08:50.565,17.53,-7.16,-112.93,-0.12,-0.24,-0.37,0.13,0.31,0.97,1000
16:08:50.567,17.53,-7.16,-112.93,-0.18,-0.24,-0.55,0.13,0.31,0.97,1000
16:08:50.569,17.53,-7.16,-112.93,-0.18,-0.3,-0.43,0.13,0.31,0.98,1000
16:08:50.573,17.53,-7.16,-112.93,-0.24,-0.18,-0.55,0.13,0.31,0.97,1000
16:08:50.573,17.53,-7.16,-112.93,-0.24,-0.24,-0.55,0.13,0.31,0.97,1000
16:08:50.577,17.53,-7.16,-112.93,-0.18,-0.3,-0.3,0.13,0.31,0.97,1000
16:08:50.578,17.53,-7.16,-112.93,-0.24,-0.24,-0.55,0.13,0.31,0.97,1000
16:08:50.579,17.53,-7.16,-112.93,-0.18,-0.37,-0.3,0.13,0.31,0.97,1000
16:08:50.581,17.53,-7.16,-112.93,-0.24,-0.18,-0.49,0.13,0.31,0.98,1000
16:08:50.584,17.53,-7.16,-112.93,-0.18,-0.06,-0.37,0.13,0.31,0.97,1000
16:08:50.586,17.53,-7.16,-112.93,-0.24,-0.24,-0.43,0.13,0.31,0.97,1000
16:08:50.587,17.53,-7.16,-112.93,-0.12,-0.12,-0.43,0.13,0.31,0.97,1000
16:08:50.589,17.53,-7.16,-112.93,-0.12,-0.3,-0.3,0.13,0.31,0.97,1000
16:08:50.591,17.53,-7.16,-112.93,-0.24,-0.12,-0.3,0.13,0.31,0.98,1000
16:08:50.593,17.53,-7.16,-112.93,-0.18,-0.24,-0.37,0.13,0.31,0.97,1000
16:08:50.595,17.53,-7.16,-112.93,-0.3,-0.3,-0.43,0.13,0.31,0.98,1000
16:08:50.597,17.53,-7.16,-112.93,-0.3,-0.18,-0.49,0.13,0.31,0.97,1000
16:08:50.599,17.53,-7.16,-112.94,-0.06,-0.18,-0.43,0.13,0.31,0.97,1000
16:08:50.603,17.53,-7.16,-112.94,-0.24,-0.12,-0.61,0.13,0.31,0.97,1000
16:08:50.604,17.53,-7.16,-112.94,-0.3,-0.18,-0.61,0.13,0.31,0.97,1000
16:08:50.605,17.53,-7.16,-112.94,-0.18,-0.3,-0.43,0.13,0.31,0.97,1000
16:08:50.607,17.53,-7.16,-112.94,-0.24,-0.24,-0.55,0.13,0.31,0.97,1000
16:08:50.609,17.53,-7.16,-112.94,-0.18,-0.24,-0.43,0.13,0.31,0.97,1000
16:08:50.612,17.53,-7.16,-112.94,-0.18,-0.18,-0.55,0.13,0.31,0.97,1000
16:08:50.613,17.53,-7.16,-112.94,-0.12,-0.24,-0.61,0.13,0.31,0.97,1000
16:08:50.616,17.53,-7.16,-112.94,-0.12,-0.18,-0.43,0.13,0.31,0.97,1000
16:08:50.617,17.53,-7.16,-112.94,-0.24,-0.18,-0.49,0.13,0.31,0.97,1000
16:08:50.621,17.53,-7.16,-112.94,-0.18,-0.3,-0.55,0.13,0.31,0.98,1000
16:08:50.622,17.53,-7.16,-112.94,-0.24,-0.3,-0.3,0.13,0.31,0.97,1000
16:08:50.623,17.53,-7.16,-112.94,-0.18,-0.3,-0.37,0.13,0.31,0.98,1000
16:08:50.625,17.53,-7.16,-112.94,-0.3,-0.37,-0.43,0.13,0.31,0.97,1000
16:08:50.627,17.53,-7.16,-112.94,-0.18,-0.12,-0.37,0.13,0.31,0.97,1000
16:08:50.630,17.53,-7.16,-112.94,-0.18,-0.24,-0.49,0.13,0.31,0.97,1000
16:08:50.646,17.53,-7.16,-112.94,-0.3,-0.18,-0.3,0.13,0.31,0.97,1000
16:08:50.646,17.53,-7.16,-112.94,-0.18,-0.24,-0.3,0.13,0.31,0.98,1000
16:08:50.646,17.53,-7.16,-112.95,-0.18,-0.3,-0.43,0.13,0.31,0.97,1000
16:08:50.646,17.53,-7.16,-112.95,-0.24,-0.3,-0.3,0.13,0.31,0.97,1000
16:08:50.646,17.53,-7.16,-112.95,-0.24,-0.18,-0.3,0.13,0.31,0.97,1000
16:08:50.646,17.53,-7.16,-112.95,-0.18,-0.24,-0.55,0.13,0.31,0.97,1000
16:08:50.646,17.53,-7.16,-112.95,-0.18,-0.24,-0.61,0.13,0.31,0.97,1000
16:08:50.646,17.53,-7.16,-112.95,-0.18,-0.3,-0.61,0.13,0.31,0.97,1000
16:08:50.648,17.53,-7.16,-112.95,-0.18,-0.18,-0.43,0.13,0.31,0.97,1000
16:08:50.649,17.53,-7.16,-112.95,-0.12,-0.37,-0.49,0.13,0.31,0.97,1000
16:08:50.651,17.53,-7.16,-112.95,-0.24,-0.24,-0.55,0.13,0.31,0.97,1000
16:08:50.656,17.53,-7.16,-112.95,-0.24,-0.3,-0.3,0.13,0.31,0.97,1000
16:08:50.656,17.53,-7.16,-112.95,-0.24,-0.24,-0.37,0.13,0.31,0.97,1000
16:08:50.657,17.53,-7.16,-112.95,-0.18,-0.37,-0.37,0.13,0.31,0.97,1000
16:08:50.659,17.53,-7.16,-112.95,-0.18,-0.3,-0.43,0.13,0.31,0.97,1000
16:08:50.661,17.53,-7.16,-112.95,-0.24,-0.24,-0.49,0.13,0.31,0.97,1000
16:08:50.663,17.53,-7.16,-112.95,-0.18,-0.18,-0.3,0.13,0.31,0.97,1000
16:08:50.666,17.53,-7.16,-112.95,-0.24,-0.3,-0.3,0.13,0.31,0.97,1000
16:08:50.669,17.53,-7.16,-112.95,-0.18,-0.18,-0.37,0.13,0.31,0.97,1000
16:08:50.669,17.53,-7.16,-112.96,-0.18,-0.12,-0.3,0.13,0.31,0.97,1000
16:08:50.671,17.53,-7.16,-112.96,-0.3,-0.37,-0.37,0.13,0.31,0.97,1000
16:08:50.679,17.53,-7.16,-112.96,-0.37,-0.12,-0.43,0.13,0.31,0.97,1000
16:08:50.679,17.53,-7.16,-112.96,-0.18,-0.18,-0.67,0.13,0.31,0.97,1000
16:08:50.679,17.53,-7.16,-112.96,-0.18,-0.18,-0.37,0.13,0.31,0.97,1000
16:08:50.679,17.53,-7.16,-112.96,-0.3,-0.24,-0.3,0.13,0.31,0.97,1000
16:08:50.682,17.53,-7.16,-112.96,-0.18,-0.12,-0.43,0.13,0.31,0.97,1000
16:08:50.683,17.53,-7.16,-112.96,-0.3,-0.12,-0.49,0.13,0.31,0.97,1000
16:08:50.685,17.53,-7.16,-112.96,-0.18,-0.12,-0.49,0.13,0.31,0.97,1000
16:08:50.689,17.53,-7.16,-112.96,-0.24,-0.12,-0.37,0.13,0.31,0.97,1000
16:08:50.690,17.53,-7.16,-112.96,-0.24,-0.18,-0.37,0.13,0.31,0.97,1000
16:08:50.691,17.53,-7.16,-112.96,-0.24,-0.18,-0.37,0.13,0.31,0.97,1000
16:08:50.693,17.53,-7.16,-112.96,-0.24,-0.3,-0.3,0.13,0.31,0.97,1000
16:08:50.696,17.53,-7.16,-112.96,-0.24,-0.24,-0.43,0.13,0.31,0.97,1000
16:08:50.698,17.53,-7.16,-112.96,-0.18,-0.3,-0.67,0.13,0.31,0.98,1000
16:08:50.699,17.53,-7.16,-112.96,-0.24,-0.43,-0.49,0.13,0.31,0.97,1000
16:08:50.701,17.53,-7.16,-112.97,-0.24,-0.3,-0.49,0.13,0.31,0.97,1000
16:08:50.705,17.53,-7.16,-112.97,-0.18,-0.18,-0.55,0.13,0.31,0.97,1000
16:08:50.706,17.53,-7.16,-112.97,-0.3,-0.18,-0.3,0.13,0.31,0.97,1000
16:08:50.707,17.53,-7.16,-112.97,-0.18,-0.37,-0.55,0.13,0.31,0.97,1000
16:08:50.709,17.53,-7.16,-112.97,-0.18,-0.37,-0.43,0.13,0.31,0.97,1000
16:08:50.711,17.53,-7.16,-112.97,-0.18,-0.18,-0.73,0.13,0.31,0.97,1000
16:08:50.714,17.53,-7.16,-112.97,-0.24,-0.18,-0.43,0.13,0.31,0.97,1000
16:08:50.716,17.53,-7.16,-112.97,-0.24,-0.06,-0.43,0.13,0.31,0.97,1000
16:08:50.717,17.53,-7.16,-112.97,-0.24,-0.24,-0.49,0.13,0.31,0.97,1000
16:08:50.719,17.53,-7.16,-112.97,-0.18,-0.24,-0.43,0.13,0.31,0.97,1000
16:08:50.724,17.53,-7.16,-112.97,-0.24,-0.18,-0.43,0.13,0.31,0.97,1000
16:08:50.724,17.53,-7.16,-112.97,-0.3,-0.24,-0.43,0.13,0.31,0.97,1000
16:08:50.727,17.53,-7.16,-112.97,-0.37,-0.18,-0.49,0.13,0.31,0.97,1000
16:08:50.727,17.53,-7.16,-112.97,-0.3,-0.37,-0.37,0.13,0.31,0.97,1000
16:08:50.730,17.52,-7.16,-112.97,-0.3,-0.3,-0.55,0.13,0.31,0.97,1000
16:08:50.732,17.53,-7.16,-112.98,-0.18,-0.24,-0.43,0.13,0.31,0.97,1000
16:08:50.748,17.53,-7.16,-112.98,-0.24,-0.24,-0.43,0.13,0.31,0.97,1000
16:08:50.749,17.53,-7.16,-112.98,-0.18,-0.24,-0.43,0.13,0.31,0.97,1000
16:08:50.749,17.53,-7.16,-112.98,-0.18,-0.3,-0.3,0.13,0.31,0.97,1000
16:08:50.749,17.53,-7.16,-112.98,-0.18,-0.18,-0.43,0.13,0.31,0.98,1000
16:08:50.749,17.53,-7.16,-112.98,-0.18,-0.37,-0.49,0.13,0.31,0.97,1000
16:08:50.749,17.53,-7.16,-112.98,-0.18,-0.12,-0.49,0.13,0.31,0.97,1000
16:08:50.749,17.53,-7.16,-112.98,-0.24,-0.12,-0.55,0.13,0.31,0.97,1000
16:08:50.749,17.53,-7.16,-112.98,-0.3,-0.18,-0.49,0.13,0.31,0.97,1000
16:08:50.750,17.53,-7.16,-112.98,-0.18,-0.24,-0.61,0.13,0.31,0.97,1000
16:08:50.751,17.53,-7.16,-112.98,-0.3,-0.37,-0.49,0.13,0.31,0.97,1000
16:08:50.753,17.53,-7.17,-112.98,-0.24,-0.43,-0.61,0.13,0.31,0.97,1000
16:08:50.756,17.53,-7.17,-112.98,-0.24,-0.18,-0.55,0.13,0.31,0.97,1000
16:08:50.758,17.53,-7.17,-112.98,-0.18,-0.18,-0.43,0.12,0.31,0.97,1000
16:08:50.759,17.53,-7.17,-112.98,-0.24,-0.3,-0.43,0.13,0.31,0.97,1000
16:08:50.762,17.53,-7.17,-112.99,-0.3,-0.18,-0.55,0.13,0.31,0.97,1000
16:08:50.764,17.53,-7.17,-112.99,-0.24,-0.12,-0.49,0.13,0.31,0.97,1000
16:08:50.765,17.53,-7.17,-112.99,-0.12,-0.24,-0.49,0.13,0.31,0.97,1000
16:08:50.767,17.53,-7.17,-112.99,-0.18,-0.3,-0.55,0.13,0.31,0.97,1000
16:08:50.769,17.53,-7.17,-112.99,-0.18,-0.18,-0.49,0.13,0.31,0.97,1000
16:08:50.772,17.53,-7.17,-112.99,-0.18,-0.18,-0.49,0.13,0.31,0.97,1000
16:08:50.773,17.53,-7.17,-112.99,-0.18,-0.06,-0.55,0.13,0.31,0.97,1000
16:08:50.775,17.53,-7.16,-112.99,-0.12,-0.24,-0.61,0.13,0.31,0.97,1000
16:08:50.777,17.53,-7.16,-112.99,-0.24,-0.12,-0.43,0.13,0.31,0.97,1000
16:08:50.781,17.53,-7.16,-112.99,-0.24,-0.18,-0.55,0.13,0.31,0.97,1000
16:08:50.784,17.53,-7.16,-112.99,-0.24,-0.24,-0.55,0.13,0.31,0.97,1000
16:08:50.784,17.53,-7.16,-112.99,-0.24,-0.12,-0.37,0.13,0.31,0.97,1000
16:08:50.785,17.53,-7.16,-112.99,-0.24,-0.06,-0.37,0.13,0.31,0.98,1000
16:08:50.788,17.53,-7.16,-113.0,-0.24,-0.18,-0.43,0.13,0.31,0.97,1000
16:08:50.789,17.53,-7.16,-113.0,-0.12,-0.18,-0.3,0.13,0.31,0.97,1000
16:08:50.791,17.53,-7.16,-113.0,-0.18,-0.18,-0.37,0.13,0.31,0.97,1000
16:08:50.793,17.53,-7.16,-113.0,-0.24,-0.18,-0.55,0.13,0.31,0.97,1000
16:08:50.796,17.53,-7.16,-113.0,-0.18,-0.24,-0.49,0.13,0.31,0.97,1000
16:08:50.798,17.53,-7.16,-113.0,-0.24,-0.3,-0.43,0.13,0.31,0.97,1000
16:08:50.799,17.53,-7.16,-113.0,-0.18,-0.24,-0.37,0.13,0.31,0.97,1000
16:08:50.801,17.53,-7.16,-113.0,-0.12,-0.24,-0.43,0.13,0.31,0.97,1000
16:08:50.803,17.53,-7.16,-113.0,-0.18,-0.18,-0.3,0.13,0.31,0.97,1000
16:08:50.805,17.53,-7.16,-113.0,-0.18,-0.06,-0.37,0.13,0.31,0.97,1000
16:08:50.808,17.53,-7.16,-113.0,-0.24,-0.24,-0.43,0.13,0.31,0.97,1000
16:08:50.810,17.53,-7.16,-113.0,-0.24,-0.18,-0.55,0.13,0.31,0.97,1000
16:08:50.811,17.53,-7.16,-113.0,-0.24,-0.18,-0.43,0.13,0.31,0.97,1000
16:08:50.813,17.53,-7.17,-113.0,-0.3,-0.24,-0.55,0.13,0.31,0.97,1000
16:08:50.816,17.53,-7.17,-113.0,-0.18,-0.24,-0.37,0.13,0.31,0.97,1000
16:08:50.820,17.53,-7.17,-113.0,-0.3,-0.18,-0.24,0.13,0.31,0.97,1000
16:08:50.821,17.53,-7.17,-113.0,-0.3,-0.18,-0.43,0.12,0.31,0.97,1000
16:08:50.823,17.53,-7.17,-113.0,-0.24,-0.18,-0.37,0.13,0.31,0.97,1000
16:08:50.823,17.53,-7.17,-113.0,-0.18,-0.18,-0.37,0.13,0.31,0.97,1000
16:08:50.826,17.53,-7.17,-113.01,-0.18,-0.24,-0.43,0.13,0.31,0.97,1000
16:08:50.827,17.53,-7.17,-113.01,-0.24,-0.3,-0.55,0.13,0.31,0.97,1000
16:08:50.829,17.53,-7.17,-113.01,-0.18,-0.3,-0.55,0.13,0.31,0.97,1000
16:08:50.831,17.53,-7.17,-113.01,-0.18,-0.3,-0.24,0.13,0.31,0.97,1000
16:08:50.833,17.53,-7.17,-113.01,-0.18,-0.24,-0.37,0.13,0.31,0.97,1000
16:08:50.835,17.53,-7.17,-113.01,-0.24,-0.24,-0.67,0.13,0.31,0.97,1000
16:08:50.839,17.53,-7.17,-113.01,-0.18,-0.24,-0.43,0.13,0.31,0.98,1000
16:08:50.842,17.53,-7.17,-113.01,-0.24,-0.3,-0.55,0.13,0.31,0.98,1000
16:08:50.842,17.53,-7.17,-113.01,-0.37,-0.18,-0.3,0.13,0.31,0.97,1000
16:08:50.844,17.53,-7.17,-113.01,-0.18,-0.3,-0.43,0.13,0.31,0.97,1000
16:08:50.855,17.53,-7.17,-113.01,-0.24,-0.3,-0.55,0.13,0.31,0.97,1000
16:08:50.856,17.53,-7.17,-113.01,-0.24,-0.24,-0.49,0.13,0.31,0.97,1000
16:08:50.856,17.53,-7.17,-113.01,-0.18,-0.12,-0.49,0.13,0.31,0.97,1000
16:08:50.856,17.53,-7.17,-113.01,-0.3,-0.24,-0.49,0.13,0.31,0.97,1000
16:08:50.856,17.53,-7.17,-113.02,-0.18,-0.3,-0.37,0.13,0.31,0.97,1000
16:08:50.856,17.53,-7.17,-113.02,-0.18,-0.12,-0.55,0.13,0.31,0.97,1000
16:08:50.858,17.53,-7.17,-113.02,-0.24,-0.06,-0.55,0.13,0.31,0.97,1000
16:08:50.860,17.53,-7.17,-113.02,-0.18,-0.37,-0.61,0.13,0.31,0.97,1000
16:08:50.861,17.53,-7.17,-113.02,-0.06,-0.37,-0.55,0.13,0.31,0.97,1000
16:08:50.863,17.53,-7.17,-113.02,-0.18,-0.18,-0.43,0.13,0.31,0.97,1000
16:08:50.866,17.53,-7.17,-113.02,-0.24,-0.18,-0.37,0.13,0.31,0.97,1000
16:08:50.867,17.53,-7.17,-113.02,-0.24,-0.24,-0.24,0.13,0.31,0.97,1000
16:08:50.869,17.53,-7.17,-113.02,-0.24,-0.24,-0.55,0.13,0.31,0.97,1000
16:08:50.871,17.53,-7.17,-113.02,-0.18,-0.24,-0.49,0.13,0.31,0.97,1000
16:08:50.873,17.53,-7.17,-113.02,-0.18,-0.3,-0.43,0.13,0.31,0.97,1000
16:08:50.875,17.53,-7.17,-113.02,-0.18,-0.24,-0.49,0.13,0.31,0.97,1000
16:08:50.877,17.53,-7.17,-113.02,-0.18,-0.24,-0.37,0.13,0.31,0.97,1000
16:08:50.880,17.53,-7.17,-113.02,-0.3,-0.24,-0.37,0.13,0.31,0.97,1000
16:08:50.884,17.53,-7.17,-113.02,-0.18,-0.3,-0.43,0.13,0.31,0.97,1000
16:08:50.885,17.53,-7.17,-113.03,-0.12,-0.37,-0.37,0.13,0.31,0.97,1000
16:08:50.886,17.53,-7.17,-113.03,-0.18,-0.3,-0.3,0.13,0.31,0.97,1000
16:08:50.887,17.53,-7.17,-113.03,-0.18,-0.3,-0.61,0.13,0.31,0.97,1000
16:08:50.889,17.53,-7.17,-113.03,-0.24,-0.3,-0.55,0.13,0.31,0.97,1000
16:08:50.893,17.53,-7.17,-113.03,-0.24,-0.3,-0.37,0.13,0.31,0.97,1000
16:08:50.893,17.53,-7.17,-113.03,-0.24,0.0,-0.55,0.13,0.31,0.98,1000
16:08:50.895,17.53,-7.17,-113.03,-0.18,-0.06,-0.61,0.13,0.31,0.97,1000
16:08:50.898,17.53,-7.17,-113.03,-0.24,-0.24,-0.55,0.13,0.31,0.97,1000
16:08:50.900,17.53,-7.17,-113.03,-0.18,-0.3,-0.67,0.13,0.31,0.97,1000
16:08:50.901,17.53,-7.17,-113.03,-0.3,-0.18,-0.49,0.13,0.31,0.97,1000
16:08:50.904,17.53,-7.17,-113.03,-0.24,-0.3,-0.43,0.13,0.31,0.97,1000
16:08:50.907,17.53,-7.17,-113.03,-0.24,-0.18,-0.43,0.13,0.31,0.97,1000
16:08:50.908,17.53,-7.17,-113.03,-0.06,-0.24,-0.37,0.13,0.31,0.97,1000
16:08:50.910,17.53,-7.17,-113.03,-0.06,-0.18,-0.37,0.13,0.31,0.97,1000
16:08:50.912,17.53,-7.17,-113.03,-0.18,-0.12,-0.43,0.13,0.31,0.97,1000
16:08:50.913,17.53,-7.17,-113.04,-0.06,-0.18,-0.55,0.13,0.31,0.97,1000
16:08:50.916,17.53,-7.17,-113.04,-0.18,-0.3,-0.37,0.13,0.31,0.97,1000
16:08:50.919,17.53,-7.17,-113.04,-0.12,-0.12,-0.37,0.13,0.31,0.97,1000
16:08:50.919,17.53,-7.17,-113.04,0.0,-0.24,-0.49,0.13,0.31,0.97,1000
16:08:50.921,17.53,-7.17,-113.04,-0.3,-0.06,-0.43,0.13,0.31,0.97,1000
16:08:50.923,17.53,-7.17,-113.04,-0.24,-0.18,-0.37,0.12,0.31,0.97,1000
16:08:50.929,17.53,-7.17,-113.04,-0.18,-0.3,-0.61,0.13,0.31,0.98,1000
16:08:50.929,17.53,-7.17,-113.04,-0.12,-0.12,-0.49,0.13,0.31,0.97,1000
16:08:50.930,17.53,-7.17,-113.04,-0.18,-0.24,-0.37,0.13,0.31,0.97,1000
16:08:50.931,17.53,-7.17,-113.04,-0.06,-0.24,-0.49,0.13,0.31,0.97,1000
16:08:50.933,17.53,-7.17,-113.04,-0.3,-0.24,-0.3,0.13,0.31,0.97,1000
16:08:50.935,17.53,-7.17,-113.04,-0.3,-0.3,-0.37,0.13,0.31,0.97,1000
16:08:50.937,17.53,-7.17,-113.04,-0.24,-0.3,-0.37,0.13,0.31,0.97,1000
16:08:50.945,17.53,-7.17,-113.04,-0.37,-0.12,-0.49,0.13,0.31,0.97,1000
16:08:50.945,17.53,-7.17,-113.04,-0.06,-0.18,-0.3,0.13,0.31,0.97,1000
16:08:50.945,17.53,-7.17,-113.04,-0.12,-0.18,-0.43,0.13,0.31,0.97,1000
16:08:50.945,17.53,-7.17,-113.05,-0.18,-0.3,-0.43,0.13,0.31,0.97,1000
16:08:50.957,17.53,-7.17,-113.05,-0.37,-0.3,-0.3,0.13,0.31,0.97,1000
16:08:50.958,17.53,-7.17,-113.05,-0.3,-0.3,-0.43,0.13,0.31,0.97,1000
16:08:50.958,17.53,-7.17,-113.05,-0.18,-0.18,-0.37,0.13,0.31,0.97,1000
16:08:50.958,17.53,-7.17,-113.05,-0.18,-0.24,-0.37,0.13,0.31,0.97,1000
16:08:50.958,17.53,-7.17,-113.05,-0.12,-0.18,-0.37,0.13,0.31,0.97,1000
16:08:50.958,17.53,-7.17,-113.05,-0.06,-0.24,-0.43,0.13,0.31,0.97,1000
16:08:50.959,17.53,-7.17,-113.05,-0.12,-0.3,-0.37,0.13,0.31,0.97,1000
16:08:50.961,17.53,-7.17,-113.05,-0.18,-0.12,-0.3,0.13,0.31,0.97,1000
16:08:50.963,17.53,-7.17,-113.05,-0.24,-0.24,-0.3,0.13,0.31,0.97,1000
16:08:50.965,17.53,-7.17,-113.05,-0.12,-0.24,-0.37,0.13,0.31,0.97,1000
16:08:50.967,17.53,-7.17,-113.05,-0.3,-0.37,-0.55,0.13,0.31,0.97,1000
16:08:50.969,17.53,-7.17,-113.05,-0.3,-0.06,-0.43,0.13,0.31,0.97,1000
16:08:50.971,17.53,-7.17,-113.05,-0.37,-0.24,-0.3,0.13,0.31,0.97,1000
16:08:50.973,17.53,-7.17,-113.05,-0.18,-0.3,-0.49,0.13,0.31,0.97,1000
16:08:50.975,17.53,-7.17,-113.05,-0.3,-0.24,-0.49,0.13,0.31,0.97,1000
16:08:50.977,17.53,-7.17,-113.05,-0.12,-0.06,-0.55,0.13,0.31,0.97,1000
16:08:50.979,17.53,-7.17,-113.06,-0.18,-0.3,-0.55,0.13,0.31,0.97,1000
16:08:50.983,17.53,-7.17,-113.06,-0.24,-0.3,-0.43,0.13,0.31,0.97,1000
16:08:50.983,17.53,-7.17,-113.06,-0.24,-0.3,-0.43,0.13,0.31,0.98,1000
16:08:50.986,17.53,-7.17,-113.06,-0.37,-0.24,-0.49,0.13,0.31,0.97,1000
16:08:50.987,17.53,-7.17,-113.06,-0.18,-0.24,-0.3,0.13,0.31,0.97,1000
16:08:50.989,17.53,-7.17,-113.06,-0.18,-0.12,-0.37,0.13,0.31,0.97,1000
16:08:50.991,17.53,-7.17,-113.06,-0.24,-0.18,-0.43,0.12,0.31,0.97,1000
16:08:50.994,17.53,-7.17,-113.06,-0.18,-0.37,-0.43,0.12,0.31,0.97,1000
16:08:50.996,17.53,-7.17,-113.06,-0.37,-0.3,-0.37,0.13,0.31,0.97,1000
16:08:50.997,17.53,-7.17,-113.06,-0.18,-0.37,-0.37,0.13,0.31,0.97,1000
16:08:50.999,17.53,-7.17,-113.06,-0.24,-0.3,-0.49,0.13,0.31,0.97,1000
16:08:51.001,17.53,-7.17,-113.06,-0.3,-0.3,-0.49,0.13,0.31,0.97,1000
16:08:51.004,17.53,-7.17,-113.06,-0.24,-0.18,-0.49,0.13,0.31,0.97,1000
16:08:51.005,17.53,-7.17,-113.06,-0.06,-0.12,-0.3,0.13,0.31,0.97,1000
16:08:51.007,17.53,-7.17,-113.06,-0.12,-0.12,-0.3,0.13,0.31,0.97,1000
16:08:51.009,17.53,-7.17,-113.06,-0.18,-0.3,-0.3,0.13,0.31,0.97,1000
16:08:51.015,17.53,-7.17,-113.06,-0.18,-0.3,-0.49,0.13,0.31,0.97,1000
16:08:51.015,17.53,-7.17,-113.07,-0.06,-0.3,-0.3,0.13,0.31,0.98,1000
16:08:51.016,17.53,-7.17,-113.07,-0.24,-0.18,-0.49,0.13,0.31,0.97,1000
16:08:51.017,17.53,-7.17,-113.07,-0.3,-0.12,-0.3,0.13,0.31,0.97,1000
16:08:51.020,17.53,-7.17,-113.07,-0.18,-0.3,-0.37,0.13,0.31,0.97,1000
16:08:51.021,17.53,-7.17,-113.07,-0.12,-0.18,-0.55,0.13,0.31,0.97,1000
16:08:51.023,17.53,-7.17,-113.07,-0.37,-0.24,-0.37,0.13,0.31,0.97,1000
16:08:51.025,17.53,-7.17,-113.07,-0.24,-0.3,-0.24,0.13,0.31,0.97,1000
16:08:51.028,17.53,-7.17,-113.07,-0.3,-0.24,-0.49,0.13,0.31,0.97,1000
16:08:51.030,17.53,-7.17,-113.07,-0.3,-0.24,-0.55,0.13,0.31,0.97,1000
16:08:51.033,17.53,-7.17,-113.07,-0.24,-0.18,-0.37,0.13,0.31,0.97,1000
16:08:51.033,17.53,-7.17,-113.07,-0.18,-0.12,-0.3,0.13,0.31,0.97,1000
16:08:51.035,17.53,-7.17,-113.07,-0.18,-0.3,-0.3,0.13,0.31,0.97,1000
16:08:51.037,17.53,-7.17,-113.07,-0.24,-0.12,-0.61,0.13,0.31,0.97,1000
16:08:51.039,17.53,-7.17,-113.07,-0.18,-0.3,-0.55,0.13,0.31,0.97,1000
16:08:51.044,17.53,-7.17,-113.07,-0.18,-0.24,-0.49,0.13,0.31,0.97,1000
16:08:51.059,17.53,-7.17,-113.07,-0.3,-0.3,-0.43,0.13,0.31,0.97,1000
16:08:51.059,17.53,-7.17,-113.07,-0.18,-0.12,-0.3,0.13,0.31,0.97,1000
16:08:51.059,17.53,-7.17,-113.07,-0.18,-0.18,-0.43,0.13,0.31,0.97,1000
16:08:51.059,17.53,-7.17,-113.08,-0.24,-0.24,-0.37,0.13,0.31,0.97,1000
16:08:51.059,17.53,-7.17,-113.08,-0.12,-0.3,-0.3,0.13,0.31,0.97,1000
16:08:51.059,17.53,-7.17,-113.08,-0.3,-0.3,-0.55,0.13,0.31,0.97,1000
16:08:51.059,17.53,-7.17,-113.08,-0.18,-0.37,-0.37,0.13,0.31,0.98,1000
16:08:51.059,17.53,-7.17,-113.08,-0.24,-0.18,-0.49,0.13,0.31,0.97,1000
16:08:51.060,17.53,-7.17,-113.08,-0.24,-0.06,-0.49,0.12,0.31,0.97,1000
16:08:51.061,17.53,-7.17,-113.08,-0.18,-0.24,-0.37,0.13,0.31,0.97,1000
16:08:51.067,17.53,-7.17,-113.08,-0.24,-0.12,-0.37,0.13,0.31,0.97,1000
16:08:51.067,17.53,-7.17,-113.08,-0.12,-0.3,-0.49,0.12,0.31,0.97,1000
16:08:51.068,17.53,-7.17,-113.08,-0.24,-0.12,-0.43,0.13,0.31,0.97,1000
16:08:51.069,17.53,-7.17,-113.08,-0.18,-0.3,-0.3,0.12,0.32,0.97,1000
16:08:51.071,17.53,-7.17,-113.08,-0.12,-0.3,-0.43,0.12,0.31,0.97,1000
16:08:51.074,17.53,-7.17,-113.08,0.06,-0.43,-0.37,0.13,0.31,0.97,1000
16:08:51.076,17.53,-7.17,-113.08,-0.18,-0.24,-0.43,0.13,0.31,0.97,1000
16:08:51.077,17.53,-7.17,-113.08,-0.18,-0.24,-0.55,0.13,0.31,0.97,1000
