Timestamp,Roll,Pitch,Yaw,Gyro_X,Gyro_Y,Gyro_Z,Accel_X,Accel_Y,Accel_Z,Throttle
16:16:30.591,15.77,-8.16,-236.87,-0.06,-0.06,-0.43,0.14,0.28,0.98,1000
16:16:30.591,15.77,-8.16,-236.87,-0.06,-0.06,-0.61,0.14,0.28,0.98,1000
16:16:30.593,15.77,-8.16,-236.87,0.0,-0.18,-0.55,0.14,0.28,0.98,1000
16:16:30.595,15.77,-8.16,-236.87,-0.12,-0.3,-0.37,0.14,0.28,0.98,1000
16:16:30.597,15.77,-8.16,-236.87,-0.06,-0.12,-0.37,0.14,0.28,0.98,1000
16:16:30.600,15.77,-8.16,-236.87,-0.12,-0.3,-0.3,0.14,0.28,0.98,1000
16:16:30.601,15.77,-8.16,-236.88,-0.12,-0.3,-0.61,0.14,0.28,0.98,1000
16:16:30.603,15.77,-8.16,-236.88,-0.18,-0.3,-0.37,0.14,0.28,0.98,1000
16:16:30.605,15.77,-8.16,-236.88,-0.06,-0.24,-0.37,0.14,0.28,0.98,1000
16:16:30.608,15.77,-8.15,-236.88,-0.06,-0.18,-0.49,0.14,0.28,0.98,1000
16:16:30.608,15.77,-8.15,-236.88,-0.18,-0.37,-0.43,0.14,0.28,0.98,1000
16:16:30.610,15.77,-8.15,-236.88,-0.18,-0.24,-0.43,0.14,0.28,0.98,1000
16:16:30.626,15.77,-8.15,-236.88,-0.3,-0.37,-0.37,0.14,0.28,0.98,1000
16:16:30.626,15.77,-8.15,-236.88,-0.37,-0.37,-0.37,0.14,0.28,0.98,1000
16:16:30.626,15.77,-8.15,-236.88,-0.37,-0.37,-0.49,0.14,0.28,0.98,1000
16:16:30.626,15.77,-8.15,-236.88,-0.49,-0.3,-0.37,0.14,0.28,0.98,1000
16:16:30.626,15.77,-8.15,-236.88,-0.61,-0.24,-0.37,0.14,0.28,0.98,1000
16:16:30.626,15.77,-8.15,-236.88,-0.37,-0.49,-0.18,0.14,0.28,0.98,1000
16:16:30.626,15.77,-8.15,-236.88,-0.49,-0.18,-0.37,0.14,0.28,0.98,1000
16:16:30.628,15.77,-8.15,-236.88,-0.43,-0.37,-0.37,0.14,0.28,0.98,1000
16:16:30.628,15.77,-8.15,-236.88,-0.37,-0.43,-0.37,0.14,0.28,0.98,1000
16:16:30.630,15.77,-8.15,-236.88,-0.37,-0.49,-0.37,0.14,0.28,0.98,1000
16:16:30.632,15.77,-8.15,-236.88,-0.24,-0.37,-0.43,0.14,0.28,0.98,1000
16:16:30.634,15.77,-8.15,-236.88,-0.43,-0.43,-0.37,0.15,0.28,0.98,1000
16:16:30.636,15.77,-8.15,-236.88,-0.43,-0.37,-0.37,0.14,0.28,0.98,1000
16:16:30.638,15.77,-8.15,-236.89,-0.3,-0.55,-0.55,0.15,0.28,0.98,1000
16:16:30.640,15.77,-8.15,-236.89,-0.49,-0.37,-0.43,0.15,0.27,0.98,1000
16:16:30.642,15.77,-8.15,-236.89,-0.3,-0.37,-0.43,0.14,0.28,0.98,1000
16:16:30.644,15.77,-8.15,-236.89,-0.37,-0.37,-0.37,0.15,0.27,0.98,1000
16:16:30.646,15.76,-8.15,-236.89,-0.3,-0.3,-0.37,0.15,0.28,0.98,1000
16:16:30.648,15.76,-8.15,-236.89,-0.3,-0.3,-0.43,0.15,0.28,0.98,1000
16:16:30.651,15.76,-8.15,-236.89,-0.3,-0.3,-0.37,0.14,0.27,0.98,1000
16:16:30.652,15.76,-8.15,-236.89,-0.24,-0.3,-0.37,0.15,0.28,0.98,1000
16:16:30.654,15.76,-8.15,-236.89,-0.24,-0.24,-0.37,0.14,0.28,0.98,1000
16:16:30.657,15.76,-8.15,-236.89,-0.18,-0.12,-0.37,0.15,0.28,0.98,1000
16:16:30.658,15.76,-8.15,-236.89,-0.18,-0.12,-0.43,0.15,0.28,0.98,1000
16:16:30.660,15.76,-8.15,-236.89,-0.18,-0.12,-0.37,0.15,0.28,0.98,1000
16:16:30.662,15.76,-8.15,-236.89,-0.06,-0.24,-0.49,0.15,0.28,0.98,1000
16:16:30.664,15.76,-8.15,-236.89,-0.12,-0.06,-0.43,0.15,0.28,0.98,1000
16:16:30.668,15.76,-8.15,-236.89,0.06,-0.06,-0.55,0.15,0.28,0.98,1000
16:16:30.668,15.76,-8.15,-236.89,0.12,0.0,-0.49,0.15,0.28,0.98,1000
16:16:30.670,15.76,-8.15,-236.89,0.06,0.0,-0.37,0.14,0.28,0.98,1000
16:16:30.672,15.76,-8.15,-236.89,0.12,-0.06,-0.55,0.14,0.28,0.98,1000
16:16:30.674,15.76,-8.15,-236.9,0.24,-0.06,-0.55,0.14,0.28,0.98,1000
16:16:30.676,15.76,-8.15,-236.9,0.06,-0.06,-0.49,0.14,0.29,0.98,1000
16:16:30.678,15.76,-8.15,-236.9,-0.06,-0.12,-0.37,0.15,0.28,0.98,1000
16:16:30.680,15.76,-8.15,-236.9,-0.06,-0.12,-0.43,0.15,0.28,0.98,1000
16:16:30.682,15.76,-8.15,-236.9,-0.18,-0.06,-0.49,0.14,0.28,0.98,1000
16:16:30.684,15.76,-8.15,-236.9,-0.24,-0.24,-0.67,0.15,0.28,0.98,1000
16:16:30.688,15.76,-8.15,-236.9,-0.18,-0.18,-0.49,0.14,0.28,0.98,1000
16:16:30.688,15.76,-8.15,-236.9,-0.3,-0.18,-0.43,0.14,0.28,0.98,1000
16:16:30.694,15.76,-8.15,-236.9,-0.24,-0.3,-0.37,0.15,0.28,0.98,1000
16:16:30.694,15.76,-8.15,-236.9,-0.24,-0.3,-0.43,0.15,0.28,0.98,1000
16:16:30.694,15.76,-8.15,-236.9,-0.24,-0.3,-0.49,0.15,0.28,0.98,1000
16:16:30.696,15.76,-8.15,-236.9,-0.24,-0.3,-0.43,0.14,0.28,0.98,1000
16:16:30.698,15.76,-8.15,-236.9,-0.37,-0.12,-0.49,0.14,0.28,0.98,1000
16:16:30.700,15.76,-8.15,-236.9,-0.24,-0.3,-0.49,0.14,0.28,0.98,1000
16:16:30.702,15.76,-8.15,-236.9,-0.24,-0.43,-0.49,0.14,0.28,0.98,1000
16:16:30.704,15.76,-8.15,-236.9,-0.3,-0.3,-0.37,0.14,0.28,0.98,1000
16:16:30.706,15.76,-8.15,-236.91,-0.24,-0.37,-0.49,0.15,0.29,0.98,1000
16:16:30.708,15.76,-8.15,-236.91,-0.3,-0.43,-0.43,0.14,0.28,0.98,1000
16:16:30.710,15.76,-8.15,-236.91,-0.3,-0.37,-0.43,0.15,0.28,0.98,1000
16:16:30.727,15.76,-8.15,-236.91,-0.43,-0.37,-0.49,0.14,0.28,0.98,1000
16:16:30.728,15.76,-8.15,-236.91,-0.37,-0.24,-0.43,0.14,0.28,0.98,1000
16:16:30.728,15.76,-8.15,-236.91,-0.43,-0.3,-0.49,0.14,0.28,0.98,1000
16:16:30.728,15.76,-8.15,-236.91,-0.43,-0.3,-0.61,0.15,0.28,0.98,1000
16:16:30.728,15.76,-8.15,-236.91,-0.43,-0.3,-0.37,0.14,0.28,0.98,1000
16:16:30.729,15.76,-8.15,-236.91,-0.18,-0.43,-0.43,0.14,0.28,0.98,1000
16:16:30.729,15.76,-8.15,-236.91,-0.18,-0.37,-0.49,0.14,0.28,0.98,1000
16:16:30.729,15.76,-8.15,-236.91,-0.24,-0.49,-0.49,0.14,0.28,0.98,1000
16:16:30.729,15.76,-8.15,-236.91,-0.43,-0.37,-0.49,0.14,0.28,0.98,1000
16:16:30.730,15.76,-8.15,-236.91,-0.18,-0.43,-0.61,0.15,0.28,0.98,1000
16:16:30.732,15.76,-8.15,-236.91,-0.37,-0.49,-0.43,0.15,0.28,0.98,1000
16:16:30.734,15.76,-8.15,-236.91,-0.24,-0.43,-0.37,0.14,0.28,0.98,1000
16:16:30.737,15.76,-8.15,-236.91,-0.24,-0.24,-0.37,0.14,0.28,0.98,1000
16:16:30.739,15.76,-8.15,-236.91,-0.37,-0.24,-0.37,0.15,0.28,0.98,1000
16:16:30.740,15.76,-8.15,-236.92,-0.3,-0.37,-0.49,0.14,0.28,0.98,1000
16:16:30.742,15.76,-8.15,-236.92,-0.18,-0.24,-0.37,0.14,0.28,0.98,1000
16:16:30.744,15.76,-8.15,-236.92,-0.3,-0.3,-0.49,0.15,0.28,0.98,1000
16:16:30.746,15.76,-8.15,-236.92,-0.24,-0.3,-0.55,0.14,0.28,0.98,1000
16:16:30.748,15.76,-8.15,-236.92,-0.12,-0.37,-0.37,0.15,0.28,0.98,1000
16:16:30.752,15.76,-8.15,-236.92,-0.18,-0.3,-0.37,0.15,0.28,0.98,1000
16:16:30.753,15.76,-8.15,-236.92,-0.12,-0.3,-0.37,0.15,0.28,0.98,1000
16:16:30.754,15.76,-8.15,-236.92,-0.24,-0.18,-0.37,0.15,0.28,0.98,1000
16:16:30.756,15.76,-8.15,-236.92,-0.18,-0.24,-0.43,0.14,0.28,0.98,1000
16:16:30.758,15.76,-8.15,-236.92,-0.24,-0.3,-0.3,0.14,0.28,0.98,1000
16:16:30.762,15.76,-8.15,-236.92,-0.12,-0.18,-0.43,0.15,0.28,0.98,1000
16:16:30.762,15.76,-8.15,-236.92,-0.12,-0.37,-0.49,0.14,0.28,0.98,1000
16:16:30.764,15.76,-8.15,-236.92,-0.18,-0.24,-0.55,0.15,0.28,0.98,1000
16:16:30.766,15.76,-8.15,-236.92,-0.18,-0.3,-0.49,0.15,0.28,0.98,1000
16:16:30.768,15.76,-8.15,-236.92,-0.06,-0.3,-0.55,0.14,0.28,0.98,1000
16:16:30.770,15.76,-8.15,-236.92,-0.12,-0.18,-0.37,0.14,0.28,0.98,1000
16:16:30.774,15.76,-8.15,-236.92,-0.12,-0.12,-0.43,0.14,0.28,0.98,1000
16:16:30.774,15.76,-8.15,-236.92,-0.3,-0.18,-0.37,0.14,0.28,0.98,1000
16:16:30.776,15.76,-8.15,-236.93,-0.18,-0.06,-0.37,0.14,0.28,0.98,1000
16:16:30.781,15.76,-8.15,-236.93,-0.18,-0.18,-0.37,0.14,0.28,0.98,1000
16:16:30.781,15.76,-8.15,-236.93,-0.12,-0.37,-0.43,0.14,0.28,0.98,1000
16:16:30.783,15.76,-8.15,-236.93,-0.24,-0.37,-0.37,0.14,0.28,0.98,1000
16:16:30.784,15.76,-8.15,-236.93,-0.18,-0.43,-0.49,0.14,0.28,0.98,1000
16:16:30.786,15.76,-8.14,-236.93,-0.24,-0.18,-0.55,0.14,0.28,0.98,1000
16:16:30.790,15.76,-8.14,-236.93,-0.37,-0.37,-0.43,0.14,0.28,0.98,1000
16:16:30.790,15.76,-8.14,-236.93,-0.3,-0.3,-0.43,0.14,0.28,0.98,1000
16:16:30.792,15.76,-8.14,-236.93,-0.18,-0.3,-0.49,0.14,0.28,0.98,1000
16:16:30.795,15.76,-8.14,-236.93,-0.3,-0.3,-0.55,0.15,0.28,0.98,1000
16:16:30.796,15.76,-8.14,-236.93,-0.18,-0.37,-0.37,0.14,0.28,0.98,1000
16:16:30.800,15.76,-8.14,-236.93,-0.18,-0.18,-0.43,0.14,0.28,0.98,1000
16:16:30.800,15.76,-8.14,-236.93,-0.12,-0.37,-0.37,0.14,0.29,0.98,1000
16:16:30.802,15.76,-8.14,-236.93,-0.24,-0.37,-0.43,0.14,0.28,0.98,1000
16:16:30.804,15.76,-8.14,-236.93,-0.18,-0.37,-0.55,0.14,0.28,0.98,1000
16:16:30.807,15.76,-8.14,-236.94,-0.3,-0.24,-0.43,0.14,0.28,0.98,1000
16:16:30.808,15.76,-8.14,-236.94,-0.37,-0.12,-0.55,0.15,0.28,0.98,1000
16:16:30.810,15.76,-8.14,-236.94,-0.18,-0.3,-0.55,0.15,0.28,0.98,1000
16:16:30.812,15.76,-8.14,-236.94,-0.37,-0.24,-0.43,0.15,0.28,0.98,1000
16:16:30.814,15.76,-8.14,-236.94,-0.37,-0.37,-0.49,0.14,0.28,0.98,1000
16:16:30.816,15.76,-8.14,-236.94,-0.24,-0.37,-0.55,0.14,0.28,0.98,1000
16:16:30.818,15.76,-8.14,-236.94,-0.24,-0.24,-0.49,0.15,0.28,0.98,1000
16:16:30.820,15.76,-8.14,-236.94,-0.18,-0.3,-0.37,0.15,0.28,0.98,1000
16:16:30.822,15.76,-8.14,-236.94,-0.3,-0.3,-0.49,0.14,0.28,0.98,1000
16:16:30.824,15.76,-8.14,-236.94,-0.24,-0.24,-0.55,0.15,0.28,0.98,1000
16:16:30.826,15.76,-8.14,-236.94,-0.24,-0.24,-0.43,0.15,0.28,0.98,1000
16:16:30.828,15.76,-8.14,-236.94,-0.3,-0.24,-0.43,0.14,0.28,0.98,1000
16:16:30.830,15.76,-8.14,-236.94,-0.24,-0.24,-0.37,0.15,0.28,0.98,1000
16:16:30.832,15.76,-8.14,-236.94,-0.18,-0.24,-0.49,0.15,0.28,0.98,1000
16:16:30.834,15.76,-8.14,-236.95,-0.37,-0.3,-0.37,0.15,0.28,0.98,1000
16:16:30.838,15.76,-8.14,-236.95,-0.24,-0.06,-0.43,0.15,0.28,0.98,1000
16:16:30.838,15.76,-8.14,-236.95,-0.37,-0.37,-0.43,0.14,0.28,0.98,1000
16:16:30.840,15.76,-8.14,-236.95,-0.18,-0.24,-0.37,0.15,0.28,0.98,1000
16:16:30.842,15.76,-8.14,-236.95,-0.18,-0.37,-0.55,0.15,0.28,0.98,1000
16:16:30.844,15.76,-8.14,-236.95,-0.18,-0.18,-0.61,0.14,0.28,0.98,1000
16:16:30.846,15.76,-8.14,-236.95,-0.3,-0.24,-0.37,0.15,0.28,0.98,1000
16:16:30.848,15.76,-8.14,-236.95,-0.24,-0.3,-0.37,0.14,0.28,0.98,1000
16:16:30.850,15.76,-8.14,-236.95,-0.18,-0.43,-0.61,0.15,0.28,0.98,1000
16:16:30.853,15.76,-8.14,-236.95,-0.12,-0.37,-0.37,0.15,0.28,0.98,1000
16:16:30.855,15.76,-8.14,-236.95,-0.24,-0.18,-0.43,0.15,0.28,0.98,1000
16:16:30.856,15.76,-8.14,-236.95,-0.06,-0.3,-0.37,0.15,0.28,0.98,1000
16:16:30.858,15.76,-8.14,-236.95,-0.18,-0.3,-0.37,0.14,0.28,0.98,1000
16:16:30.860,15.76,-8.15,-236.95,-0.24,-0.18,-0.61,0.15,0.28,0.98,1000
16:16:30.862,15.76,-8.15,-236.95,-0.24,-0.3,-0.43,0.14,0.28,0.98,1000
16:16:30.864,15.76,-8.15,-236.96,-0.18,-0.18,-0.49,0.14,0.28,0.98,1000
16:16:30.866,15.76,-8.15,-236.96,-0.12,-0.12,-0.61,0.14,0.28,0.98,1000
16:16:30.868,15.76,-8.15,-236.96,-0.18,-0.12,-0.49,0.14,0.28,0.98,1000
16:16:30.870,15.76,-8.14,-236.96,-0.12,0.0,-0.43,0.14,0.28,0.98,1000
16:16:30.872,15.76,-8.14,-236.96,-0.24,-0.18,-0.37,0.14,0.28,0.98,1000
16:16:30.874,15.76,-8.14,-236.96,-0.06,-0.12,-0.37,0.14,0.28,0.98,1000
16:16:30.876,15.76,-8.14,-236.96,0.06,-0.24,-0.49,0.15,0.29,0.98,1000
16:16:30.878,15.76,-8.14,-236.96,-0.3,-0.12,-0.43,0.14,0.27,0.97,1000
16:16:30.881,15.76,-8.14,-236.96,0.0,-0.24,-0.3,0.15,0.3,0.98,1000
16:16:30.882,15.76,-8.14,-236.96,-0.18,-0.3,-0.49,0.13,0.27,1.0,1000
16:16:30.884,15.76,-8.14,-236.96,-0.3,-0.12,-0.67,0.15,0.27,0.96,1000
16:16:30.886,15.76,-8.14,-236.96,0.0,-0.61,-0.37,0.14,0.29,0.99,1000
16:16:30.888,15.76,-8.14,-236.96,-0.49,0.0,-0.49,0.14,0.28,0.98,1000
16:16:30.893,15.76,-8.14,-236.96,0.06,-0.43,-0.49,0.15,0.28,0.98,1000
16:16:30.893,15.76,-8.14,-236.96,-0.12,-0.37,-0.43,0.14,0.29,0.99,1000
16:16:30.897,15.76,-8.14,-236.96,-0.67,-0.24,-0.43,0.14,0.27,0.97,1000
16:16:30.898,15.76,-8.14,-236.97,0.12,-0.49,-0.37,0.15,0.29,0.98,1000
16:16:30.898,15.76,-8.14,-236.97,-0.37,0.12,-0.37,0.14,0.27,0.97,1000
16:16:30.900,15.76,-8.14,-236.97,-0.37,-0.49,-0.12,0.15,0.29,0.98,1000
16:16:30.902,15.76,-8.14,-236.97,-0.12,-0.67,-0.43,0.14,0.28,0.99,1000
16:16:30.904,15.76,-8.14,-236.97,-0.61,0.0,-0.61,0.15,0.28,0.96,1000
16:16:30.908,15.76,-8.14,-236.97,-0.18,-0.55,-0.49,0.14,0.28,0.99,1000
16:16:30.908,15.76,-8.14,-236.97,-0.43,-0.18,-0.61,0.14,0.27,0.97,1000
16:16:30.910,15.76,-8.14,-236.97,-0.24,-0.67,-0.3,0.15,0.29,0.98,1000
16:16:30.912,15.76,-8.14,-236.97,-0.43,-0.37,-0.49,0.15,0.28,0.98,1000
16:16:30.914,15.76,-8.14,-236.97,-0.24,-0.3,-0.43,0.14,0.28,0.98,1000
16:16:30.916,15.76,-8.14,-236.97,-0.12,-0.18,-0.37,0.15,0.28,0.98,1000
16:16:30.931,15.76,-8.14,-236.97,-0.43,-0.37,-0.49,0.14,0.28,0.98,1000
16:16:30.932,15.76,-8.14,-236.97,-0.37,-0.37,-0.43,0.14,0.28,0.98,1000
16:16:30.932,15.76,-8.14,-236.97,-0.12,-0.61,-0.49,0.15,0.28,0.98,1000
16:16:30.932,15.76,-8.14,-236.97,-0.43,-0.24,-0.49,0.14,0.28,0.98,1000
16:16:30.932,15.76,-8.14,-236.97,-0.24,-0.61,-0.49,0.15,0.29,0.98,1000
16:16:30.932,15.76,-8.14,-236.97,-0.3,-0.12,-0.37,0.14,0.28,0.98,1000
16:16:30.932,15.76,-8.14,-236.98,-0.37,-0.18,-0.79,0.15,0.28,0.98,1000
16:16:30.932,15.76,-8.14,-236.98,-0.18,-0.43,-0.61,0.15,0.28,0.98,1000
16:16:30.934,15.76,-8.14,-236.98,-0.37,-0.18,-0.67,0.14,0.27,0.98,1000
16:16:30.936,15.76,-8.15,-236.98,0.06,-0.49,-0.37,0.15,0.28,0.98,1000
16:16:30.938,15.76,-8.15,-236.98,-0.12,-0.37,-0.43,0.15,0.28,0.98,1000
16:16:30.940,15.76,-8.15,-236.98,-0.37,-0.24,-0.37,0.15,0.28,0.98,1000
16:16:30.942,15.76,-8.15,-236.98,-0.06,-0.37,-0.43,0.15,0.28,0.98,1000
16:16:30.944,15.76,-8.15,-236.98,-0.37,-0.3,-0.49,0.14,0.27,0.98,1000
16:16:30.946,15.76,-8.15,-236.98,-0.06,-0.37,-0.79,0.15,0.28,0.97,1000
16:16:30.948,15.76,-8.15,-236.98,-0.06,-0.43,-0.55,0.15,0.28,0.98,1000
16:16:30.950,15.76,-8.15,-236.98,-0.3,-0.12,-0.49,0.15,0.28,0.98,1000
16:16:30.952,15.76,-8.15,-236.98,-0.06,-0.37,-0.49,0.15,0.28,0.98,1000
16:16:30.954,15.76,-8.15,-236.98,-0.06,-0.24,-0.55,0.15,0.28,0.98,1000
16:16:30.956,15.76,-8.15,-236.99,-0.18,-0.06,-0.37,0.14,0.28,0.98,1000
16:16:30.958,15.76,-8.15,-236.99,0.0,-0.24,-0.37,0.15,0.28,0.98,1000
16:16:30.960,15.76,-8.15,-236.99,-0.24,-0.18,-0.55,0.15,0.28,0.98,1000
16:16:30.962,15.76,-8.15,-236.99,-0.18,-0.49,-0.55,0.15,0.28,0.98,1000
16:16:30.964,15.76,-8.15,-236.99,-0.12,-0.24,-0.55,0.15,0.28,0.98,1000
16:16:30.966,15.76,-8.15,-236.99,-0.3,-0.3,-0.43,0.14,0.28,0.98,1000
16:16:30.968,15.76,-8.15,-236.99,-0.18,-0.37,-0.49,0.15,0.28,0.98,1000
16:16:30.970,15.76,-8.15,-236.99,-0.24,-0.3,-0.49,0.15,0.28,0.98,1000
16:16:30.972,15.76,-8.15,-236.99,-0.24,-0.3,-0.37,0.15,0.28,0.98,1000
16:16:30.974,15.76,-8.15,-236.99,-0.06,-0.24,-0.43,0.14,0.28,0.98,1000
16:16:30.976,15.76,-8.15,-236.99,-0.18,-0.3,-0.61,0.14,0.28,0.97,1000
16:16:30.978,15.76,-8.15,-236.99,-0.37,-0.37,-0.55,0.14,0.28,0.98,1000
16:16:30.980,15.76,-8.15,-236.99,-0.37,-0.3,-0.43,0.14,0.28,0.98,1000
16:16:30.982,15.76,-8.15,-236.99,-0.06,-0.37,-0.49,0.14,0.28,0.98,1000
16:16:30.984,15.76,-8.15,-237.0,-0.06,-0.37,-0.49,0.14,0.28,0.98,1000
16:16:30.986,15.76,-8.15,-237.0,-0.3,-0.24,-0.43,0.14,0.28,0.98,1000
16:16:30.988,15.76,-8.15,-237.0,-0.12,-0.18,-0.67,0.14,0.28,0.98,1000
16:16:30.991,15.76,-8.15,-237.0,-0.3,-0.18,-0.43,0.14,0.28,0.98,1000
16:16:30.992,15.76,-8.15,-237.0,-0.24,-0.3,-0.37,0.14,0.28,0.98,1000
16:16:30.995,15.76,-8.15,-237.0,-0.3,-0.37,-0.37,0.14,0.28,0.98,1000
16:16:30.996,15.76,-8.15,-237.0,-0.37,-0.37,-0.43,0.14,0.28,0.98,1000
16:16:31.000,15.76,-8.15,-237.0,-0.43,-0.43,-0.49,0.14,0.28,0.98,1000
16:16:31.000,15.76,-8.15,-237.0,-0.43,-0.12,-0.37,0.14,0.28,0.98,1000
16:16:31.002,15.76,-8.15,-237.0,-0.3,-0.12,-0.37,0.14,0.28,0.98,1000
16:16:31.004,15.76,-8.15,-237.0,-0.18,-0.37,-0.37,0.14,0.28,0.98,1000
16:16:31.006,15.76,-8.15,-237.0,-0.37,-0.37,-0.43,0.14,0.28,0.98,1000
16:16:31.009,15.76,-8.15,-237.0,-0.37,-0.37,-0.37,0.14,0.28,0.98,1000
16:16:31.010,15.76,-8.15,-237.0,-0.18,-0.37,-0.43,0.14,0.28,0.98,1000
16:16:31.015,15.76,-8.15,-237.0,-0.37,-0.37,-0.55,0.14,0.28,0.98,1000
16:16:31.017,15.76,-8.15,-237.01,-0.24,-0.37,-0.55,0.14,0.28,0.98,1000
16:16:31.018,15.76,-8.15,-237.01,-0.18,-0.24,-0.3,0.15,0.28,0.98,1000
16:16:31.018,15.76,-8.15,-237.01,-0.12,-0.43,-0.37,0.14,0.28,0.98,1000
16:16:31.028,15.76,-8.15,-237.01,-0.18,-0.18,-0.3,0.14,0.28,0.98,1000
16:16:31.038,15.76,-8.15,-237.01,-0.3,-0.3,-0.43,0.15,0.28,0.98,1000
16:16:31.038,15.76,-8.15,-237.01,-0.37,-0.3,-0.55,0.14,0.28,0.98,1000
16:16:31.038,15.75,-8.15,-237.01,-0.18,-0.18,-0.61,0.15,0.28,0.98,1000
16:16:31.039,15.75,-8.15,-237.01,-0.24,-0.3,-0.61,0.15,0.28,0.98,1000
16:16:31.039,15.75,-8.15,-237.01,-0.37,-0.37,-0.49,0.15,0.28,0.98,1000
16:16:31.039,15.75,-8.15,-237.01,-0.24,-0.18,-0.3,0.14,0.28,0.98,1000
16:16:31.039,15.75,-8.15,-237.01,-0.12,-0.12,-0.43,0.15,0.28,0.98,1000
16:16:31.039,15.75,-8.15,-237.01,-0.18,-0.24,-0.55,0.15,0.28,0.98,1000
16:16:31.039,15.75,-8.15,-237.01,-0.3,-0.24,-0.43,0.14,0.28,0.98,1000
16:16:31.040,15.76,-8.15,-237.01,-0.24,-0.43,-0.24,0.15,0.28,0.98,1000
16:16:31.043,15.75,-8.15,-237.01,-0.3,-0.24,-0.43,0.15,0.28,0.98,1000
16:16:31.044,15.75,-8.15,-237.01,-0.12,-0.37,-0.37,0.15,0.28,0.98,1000
16:16:31.046,15.75,-8.15,-237.01,-0.12,-0.3,-0.49,0.15,0.28,0.98,1000
16:16:31.048,15.75,-8.15,-237.02,-0.24,-0.3,-0.43,0.14,0.28,0.98,1000
16:16:31.050,15.75,-8.15,-237.02,-0.18,-0.3,-0.49,0.14,0.28,0.98,1000
16:16:31.052,15.75,-8.15,-237.02,-0.06,-0.37,-0.37,0.14,0.28,0.98,1000
16:16:31.054,15.75,-8.15,-237.02,-0.18,-0.37,-0.43,0.14,0.28,0.98,1000
16:16:31.056,15.75,-8.15,-237.02,-0.3,-0.37,-0.55,0.14,0.28,0.98,1000
16:16:31.059,15.75,-8.15,-237.02,-0.24,-0.43,-0.67,0.15,0.28,0.98,1000
16:16:31.060,15.75,-8.15,-237.02,-0.12,-0.18,-0.55,0.15,0.28,0.98,1000
16:16:31.063,15.75,-8.15,-237.02,-0.18,-0.18,-0.55,0.14,0.28,0.98,1000
16:16:31.066,15.76,-8.15,-237.02,-0.18,-0.18,-0.43,0.14,0.28,0.98,1000
16:16:31.067,15.76,-8.15,-237.02,-0.18,-0.18,-0.43,0.14,0.28,0.98,1000
16:16:31.069,15.75,-8.15,-237.02,-0.37,-0.3,-0.43,0.14,0.28,0.98,1000
16:16:31.071,15.75,-8.15,-237.02,-0.12,-0.18,-0.49,0.15,0.28,0.98,1000
16:16:31.073,15.75,-8.15,-237.02,-0.37,-0.24,-0.55,0.14,0.28,0.98,1000
16:16:31.076,15.75,-8.15,-237.03,-0.18,-0.3,-0.3,0.15,0.28,0.98,1000
16:16:31.077,15.75,-8.15,-237.03,-0.12,-0.24,-0.55,0.15,0.28,0.98,1000
16:16:31.079,15.75,-8.15,-237.03,-0.24,-0.24,-0.49,0.14,0.28,0.98,1000
16:16:31.081,15.75,-8.15,-237.03,-0.18,-0.18,-0.43,0.14,0.28,0.98,1000
16:16:31.082,15.75,-8.15,-237.03,-0.18,-0.24,-0.55,0.14,0.28,0.98,1000
16:16:31.086,15.75,-8.15,-237.03,-0.24,-0.18,-0.43,0.14,0.28,0.98,1000
16:16:31.086,15.75,-8.15,-237.03,-0.24,-0.49,-0.43,0.15,0.28,0.98,1000
16:16:31.088,15.75,-8.15,-237.03,-0.18,-0.37,-0.49,0.14,0.28,0.98,1000
16:16:31.090,15.75,-8.15,-237.03,-0.37,-0.12,-0.37,0.15,0.28,0.98,1000
16:16:31.092,15.75,-8.15,-237.03,-0.18,-0.3,-0.43,0.14,0.28,0.98,1000
16:16:31.094,15.75,-8.15,-237.03,-0.24,-0.24,-0.3,0.15,0.28,0.98,1000
16:16:31.097,15.75,-8.15,-237.03,-0.06,-0.37,-0.12,0.15,0.28,0.98,1000
16:16:31.098,15.75,-8.15,-237.03,-0.24,-0.18,-0.37,0.14,0.28,0.98,1000
16:16:31.102,15.75,-8.15,-237.03,-0.18,-0.24,-0.43,0.14,0.28,0.98,1000
16:16:31.102,15.75,-8.15,-237.03,-0.24,-0.37,-0.37,0.15,0.28,0.98,1000
16:16:31.104,15.75,-8.15,-237.03,-0.3,-0.18,-0.43,0.15,0.28,0.98,1000
16:16:31.106,15.75,-8.15,-237.03,-0.37,-0.12,-0.43,0.15,0.28,0.98,1000
16:16:31.110,15.75,-8.15,-237.04,-0.12,-0.24,-0.55,0.14,0.28,0.98,1000
16:16:31.110,15.75,-8.15,-237.04,-0.18,-0.24,-0.18,0.14,0.28,0.98,1000
16:16:31.112,15.75,-8.15,-237.04,-0.12,-0.24,-0.37,0.14,0.28,0.98,1000
16:16:31.114,15.75,-8.15,-237.04,-0.18,-0.37,-0.37,0.15,0.28,0.98,1000
16:16:31.116,15.75,-8.15,-237.04,-0.12,-0.12,-0.43,0.15,0.28,0.98,1000
16:16:31.118,15.75,-8.15,-237.04,-0.24,-0.18,-0.3,0.14,0.28,0.98,1000
16:16:31.120,15.75,-8.15,-237.04,-0.18,-0.18,-0.49,0.14,0.28,0.98,1000
16:16:31.122,15.75,-8.15,-237.04,-0.18,-0.3,-0.37,0.14,0.28,0.98,1000
16:16:31.136,15.75,-8.15,-237.04,-0.12,-0.18,-0.43,0.14,0.28,0.98,1000
16:16:31.136,15.75,-8.15,-237.04,-0.18,-0.37,-0.43,0.15,0.28,0.98,1000
16:16:31.136,15.75,-8.15,-237.04,-0.18,-0.24,-0.55,0.14,0.28,0.98,1000
16:16:31.136,15.75,-8.15,-237.04,-0.18,-0.3,-0.43,0.14,0.28,0.98,1000
16:16:31.136,15.75,-8.15,-237.04,-0.24,-0.37,-0.61,0.14,0.28,0.98,1000
16:16:31.136,15.75,-8.15,-237.04,-0.18,-0.37,-0.43,0.14,0.28,0.98,1000
16:16:31.136,15.75,-8.15,-237.04,-0.24,-0.37,-0.43,0.14,0.28,0.98,1000
16:16:31.139,15.75,-8.15,-237.04,-0.43,-0.24,-0.43,0.14,0.28,0.98,1000
16:16:31.140,15.75,-8.15,-237.05,-0.24,-0.37,-0.49,0.14,0.28,0.98,1000
16:16:31.142,15.75,-8.15,-237.05,-0.3,-0.37,-0.24,0.15,0.28,0.98,1000
16:16:31.145,15.75,-8.15,-237.05,-0.24,-0.43,-0.12,0.15,0.28,0.98,1000
16:16:31.146,15.75,-8.15,-237.05,-0.24,-0.3,-0.37,0.14,0.28,0.98,1000
16:16:31.149,15.75,-8.15,-237.05,-0.24,-0.37,-0.43,0.14,0.28,0.98,1000
16:16:31.150,15.75,-8.15,-237.05,-0.3,-0.18,-0.43,0.15,0.28,0.98,1000
16:16:31.152,15.75,-8.15,-237.05,-0.12,-0.37,-0.49,0.14,0.28,0.98,1000
16:16:31.154,15.75,-8.15,-237.05,-0.3,-0.3,-0.43,0.14,0.28,0.98,1000
16:16:31.156,15.75,-8.15,-237.05,-0.3,-0.49,-0.3,0.15,0.28,0.98,1000
16:16:31.158,15.75,-8.15,-237.05,-0.24,-0.43,-0.43,0.14,0.28,0.98,1000
16:16:31.160,15.75,-8.15,-237.05,-0.3,-0.37,-0.3,0.14,0.28,0.98,1000
16:16:31.163,15.75,-8.15,-237.05,-0.24,-0.24,-0.43,0.15,0.28,0.98,1000
16:16:31.164,15.75,-8.15,-237.05,-0.37,-0.37,-0.37,0.15,0.28,0.98,1000
16:16:31.166,15.75,-8.15,-237.05,-0.43,-0.37,-0.49,0.14,0.28,0.98,1000
16:16:31.168,15.75,-8.15,-237.05,-0.37,-0.24,-0.43,0.15,0.28,0.98,1000
16:16:31.170,15.75,-8.15,-237.05,-0.37,-0.18,-0.37,0.15,0.28,0.98,1000
16:16:31.172,15.75,-8.15,-237.05,-0.37,-0.06,-0.3,0.15,0.28,0.98,1000
16:16:31.174,15.75,-8.15,-237.05,-0.06,-0.18,-0.3,0.15,0.28,0.98,1000
16:16:31.176,15.75,-8.15,-237.05,-0.18,-0.37,-0.49,0.15,0.28,0.98,1000
16:16:31.178,15.75,-8.15,-237.06,-0.18,-0.24,-0.3,0.15,0.28,0.98,1000
16:16:31.180,15.75,-8.15,-237.06,-0.18,-0.3,-0.49,0.15,0.28,0.98,1000
16:16:31.182,15.75,-8.15,-237.06,-0.18,-0.24,-0.43,0.14,0.28,0.98,1000
16:16:31.184,15.75,-8.15,-237.06,-0.18,-0.06,-0.43,0.15,0.28,0.98,1000
16:16:31.186,15.75,-8.15,-237.06,-0.3,-0.12,-0.43,0.15,0.28,0.98,1000
16:16:31.189,15.75,-8.15,-237.06,-0.18,-0.18,-0.43,0.14,0.28,0.98,1000
16:16:31.190,15.75,-8.15,-237.06,-0.18,-0.18,-0.49,0.14,0.28,0.98,1000
16:16:31.192,15.75,-8.15,-237.06,-0.24,-0.3,-0.43,0.15,0.28,0.98,1000
16:16:31.194,15.75,-8.15,-237.06,-0.18,-0.3,-0.37,0.14,0.28,0.98,1000
16:16:31.196,15.75,-8.15,-237.06,-0.24,-0.3,-0.37,0.14,0.28,0.98,1000
16:16:31.200,15.75,-8.15,-237.06,-0.06,-0.06,-0.37,0.14,0.28,0.98,1000
16:16:31.200,15.75,-8.15,-237.06,-0.06,-0.18,-0.43,0.14,0.28,0.98,1000
16:16:31.204,15.75,-8.15,-237.06,-0.06,-0.24,-0.49,0.14,0.28,0.98,1000
16:16:31.204,15.75,-8.15,-237.06,-0.06,-0.18,-0.49,0.14,0.28,0.98,1000
16:16:31.206,15.75,-8.15,-237.06,-0.12,-0.12,-0.49,0.14,0.28,0.98,1000
16:16:31.208,15.75,-8.15,-237.06,-0.12,-0.3,-0.37,0.14,0.28,0.98,1000
16:16:31.210,15.75,-8.15,-237.06,-0.12,-0.18,-0.37,0.14,0.28,0.98,1000
16:16:31.212,15.75,-8.15,-237.07,-0.24,-0.24,-0.43,0.15,0.28,0.98,1000
16:16:31.215,15.75,-8.15,-237.07,-0.3,-0.37,-0.55,0.14,0.28,0.98,1000
16:16:31.216,15.75,-8.15,-237.07,-0.24,-0.3,-0.43,0.14,0.28,0.98,1000
16:16:31.218,15.75,-8.15,-237.07,-0.24,-0.3,-0.55,0.14,0.28,0.98,1000
16:16:31.220,15.75,-8.15,-237.07,-0.3,-0.3,-0.43,0.14,0.28,0.98,1000
16:16:31.222,15.75,-8.15,-237.07,-0.3,-0.37,-0.37,0.14,0.28,0.98,1000
16:16:31.224,15.75,-8.15,-237.07,-0.18,-0.3,-0.49,0.14,0.28,0.98,1000
16:16:31.231,15.75,-8.15,-237.07,-0.24,-0.24,-0.49,0.14,0.28,0.98,1000
16:16:31.232,15.75,-8.15,-237.07,-0.37,-0.24,-0.61,0.15,0.28,0.98,1000
16:16:31.232,15.75,-8.15,-237.07,-0.18,-0.37,-0.49,0.14,0.28,0.98,1000
16:16:31.232,15.75,-8.15,-237.07,-0.18,-0.43,-0.37,0.14,0.28,0.98,1000
16:16:31.243,15.75,-8.15,-237.07,-0.24,-0.3,-0.49,0.14,0.28,0.98,1000
16:16:31.244,15.75,-8.15,-237.07,-0.24,-0.37,-0.37,0.14,0.28,0.98,1000
16:16:31.244,15.75,-8.15,-237.07,-0.37,-0.24,-0.43,0.14,0.28,0.98,1000
16:16:31.244,15.75,-8.15,-237.07,-0.3,-0.24,-0.37,0.14,0.28,0.98,1000
16:16:31.244,15.75,-8.14,-237.08,-0.37,-0.37,-0.43,0.15,0.28,0.98,1000
16:16:31.245,15.75,-8.14,-237.08,-0.24,-0.24,-0.43,0.15,0.28,0.98,1000
16:16:31.246,15.75,-8.14,-237.08,-0.37,-0.37,-0.67,0.15,0.28,0.98,1000
16:16:31.248,15.75,-8.14,-237.08,-0.12,-0.3,-0.55,0.15,0.28,0.98,1000
16:16:31.250,15.75,-8.14,-237.08,-0.18,-0.37,-0.37,0.14,0.28,0.98,1000
16:16:31.253,15.75,-8.14,-237.08,-0.18,-0.24,-0.43,0.14,0.28,0.98,1000
16:16:31.254,15.75,-8.14,-237.08,-0.24,-0.3,-0.3,0.14,0.28,0.98,1000
16:16:31.257,15.75,-8.14,-237.08,-0.3,-0.43,-0.55,0.14,0.28,0.98,1000
16:16:31.258,15.75,-8.14,-237.08,-0.24,-0.3,-0.37,0.14,0.28,0.98,1000
16:16:31.260,15.75,-8.15,-237.08,-0.24,-0.37,-0.49,0.15,0.28,0.98,1000
16:16:31.262,15.75,-8.15,-237.08,-0.18,-0.24,-0.49,0.14,0.28,0.98,1000
16:16:31.264,15.75,-8.15,-237.08,-0.18,-0.24,-0.43,0.14,0.28,0.98,1000
16:16:31.266,15.76,-8.15,-237.08,-0.12,-0.18,-0.49,0.14,0.28,0.98,1000
16:16:31.268,15.76,-8.14,-237.08,-0.12,-0.06,-0.37,0.15,0.28,0.98,1000
16:16:31.270,15.76,-8.14,-237.08,-0.3,-0.37,-0.37,0.14,0.28,0.98,1000
16:16:31.272,15.76,-8.14,-237.08,-0.06,-0.12,-0.49,0.14,0.28,0.98,1000
16:16:31.274,15.76,-8.14,-237.09,-0.18,-0.37,-0.55,0.14,0.28,0.98,1000
16:16:31.276,15.76,-8.14,-237.09,-0.3,-0.24,-0.43,0.14,0.28,0.98,1000
16:16:31.278,15.76,-8.14,-237.09,-0.18,-0.06,-0.37,0.14,0.28,0.98,1000
16:16:31.280,15.76,-8.14,-237.09,-0.18,-0.18,-0.49,0.14,0.28,0.98,1000
16:16:31.282,15.76,-8.14,-237.09,-0.18,-0.12,-0.43,0.14,0.28,0.98,1000
16:16:31.284,15.76,-8.14,-237.09,-0.18,-0.12,-0.43,0.15,0.28,0.98,1000
16:16:31.287,15.76,-8.14,-237.09,-0.24,-0.3,-0.55,0.14,0.28,0.98,1000
16:16:31.288,15.76,-8.14,-237.09,-0.24,-0.3,-0.37,0.14,0.28,0.98,1000
16:16:31.291,15.76,-8.14,-237.09,-0.3,-0.24,-0.37,0.15,0.28,0.98,1000
16:16:31.292,15.76,-8.14,-237.09,-0.37,-0.24,-0.43,0.14,0.28,0.98,1000
16:16:31.294,15.76,-8.14,-237.09,-0.24,-0.24,-0.37,0.14,0.28,0.98,1000
16:16:31.296,15.76,-8.14,-237.09,-0.24,-0.18,-0.49,0.14,0.28,0.98,1000
16:16:31.298,15.76,-8.14,-237.09,-0.24,-0.24,-0.49,0.15,0.28,0.98,1000
16:16:31.302,15.76,-8.14,-237.09,-0.18,-0.3,-0.37,0.15,0.28,0.98,1000
16:16:31.303,15.76,-8.14,-237.09,-0.18,-0.24,-0.43,0.14,0.28,0.98,1000
16:16:31.306,15.76,-8.14,-237.1,-0.24,-0.37,-0.37,0.14,0.28,0.98,1000
16:16:31.307,15.76,-8.14,-237.1,-0.24,-0.37,-0.55,0.14,0.28,0.98,1000
16:16:31.308,15.76,-8.14,-237.1,-0.18,-0.3,-0.43,0.14,0.28,0.98,1000
16:16:31.310,15.76,-8.14,-237.1,-0.3,-0.18,-0.37,0.15,0.28,0.98,1000
16:16:31.312,15.76,-8.14,-237.1,-0.3,-0.3,-0.37,0.15,0.28,0.98,1000
16:16:31.314,15.76,-8.14,-237.1,-0.24,-0.37,-0.37,0.15,0.28,0.98,1000
16:16:31.318,15.76,-8.15,-237.1,-0.24,-0.24,-0.49,0.15,0.28,0.98,1000
16:16:31.319,15.76,-8.15,-237.1,-0.24,-0.37,-0.49,0.14,0.28,0.98,1000
16:16:31.321,15.76,-8.15,-237.1,-0.18,-0.37,-0.37,0.14,0.28,0.98,1000
16:16:31.322,15.76,-8.15,-237.1,-0.3,-0.24,-0.55,0.14,0.28,0.98,1000
16:16:31.325,15.76,-8.15,-237.1,-0.24,-0.37,-0.43,0.14,0.28,0.98,1000
16:16:31.326,15.76,-8.15,-237.1,-0.24,-0.24,-0.37,0.14,0.28,0.98,1000
16:16:31.333,15.76,-8.15,-237.1,-0.12,-0.3,-0.24,0.14,0.28,0.98,1000
16:16:31.334,15.76,-8.15,-237.1,-0.18,-0.3,-0.37,0.14,0.28,0.98,1000
16:16:31.334,15.76,-8.15,-237.1,-0.24,-0.24,-0.49,0.15,0.28,0.98,1000
16:16:31.334,15.76,-8.15,-237.1,-0.18,-0.3,-0.55,0.14,0.28,0.98,1000
16:16:31.344,15.76,-8.15,-237.11,-0.24,-0.3,-0.49,0.14,0.28,0.98,1000
16:16:31.344,15.76,-8.15,-237.11,-0.18,-0.37,-0.49,0.15,0.28,0.98,1000
16:16:31.344,15.76,-8.15,-237.11,-0.24,-0.3,-0.3,0.14,0.28,0.98,1000
16:16:31.344,15.76,-8.15,-237.11,-0.18,-0.18,-0.43,0.15,0.28,0.98,1000
16:16:31.344,15.76,-8.15,-237.11,-0.18,-0.18,-0.37,0.14,0.28,0.98,1000
16:16:31.346,15.76,-8.15,-237.11,-0.24,-0.12,-0.55,0.14,0.28,0.98,1000
16:16:31.351,15.76,-8.15,-237.11,-0.06,-0.18,-0.49,0.14,0.28,0.98,1000
16:16:31.351,15.76,-8.15,-237.11,-0.24,-0.37,-0.37,0.14,0.28,0.98,1000
16:16:31.352,15.76,-8.15,-237.11,-0.3,-0.37,-0.37,0.14,0.28,0.98,1000
16:16:31.354,15.76,-8.15,-237.11,-0.24,-0.37,-0.37,0.15,0.28,0.98,1000
16:16:31.356,15.76,-8.15,-237.11,-0.43,-0.43,-0.37,0.14,0.28,0.98,1000
16:16:31.358,15.76,-8.15,-237.11,-0.18,-0.37,-0.37,0.14,0.28,0.98,1000
16:16:31.360,15.76,-8.15,-237.11,-0.3,-0.3,-0.37,0.15,0.28,0.98,1000
16:16:31.362,15.76,-8.15,-237.11,-0.3,-0.12,-0.37,0.15,0.28,0.98,1000
16:16:31.364,15.76,-8.15,-237.11,-0.3,-0.37,-0.61,0.14,0.28,0.98,1000
16:16:31.366,15.76,-8.15,-237.11,-0.3,-0.3,-0.55,0.14,0.28,0.98,1000
16:16:31.368,15.76,-8.15,-237.11,-0.18,-0.37,-0.37,0.15,0.28,0.98,1000
16:16:31.370,15.76,-8.15,-237.12,-0.24,-0.37,-0.49,0.15,0.28,0.98,1000
16:16:31.372,15.76,-8.15,-237.12,-0.18,-0.18,-0.55,0.14,0.28,0.98,1000
16:16:31.374,15.76,-8.15,-237.12,-0.18,-0.3,-0.61,0.15,0.28,0.98,1000
16:16:31.376,15.76,-8.15,-237.12,-0.24,-0.37,-0.3,0.15,0.28,0.98,1000
16:16:31.378,15.76,-8.15,-237.12,-0.18,-0.37,-0.43,0.15,0.28,0.98,1000
16:16:31.380,15.76,-8.15,-237.12,-0.18,-0.37,-0.49,0.14,0.28,0.98,1000
16:16:31.382,15.76,-8.15,-237.12,-0.24,-0.3,-0.37,0.15,0.28,0.98,1000
16:16:31.384,15.76,-8.15,-237.12,-0.24,-0.37,-0.43,0.15,0.28,0.98,1000
16:16:31.386,15.76,-8.15,-237.12,-0.37,-0.3,-0.3,0.15,0.28,0.98,1000
16:16:31.388,15.76,-8.15,-237.12,-0.18,-0.24,-0.37,0.15,0.28,0.98,1000
16:16:31.390,15.76,-8.15,-237.12,-0.24,-0.37,-0.49,0.14,0.28,0.98,1000
16:16:31.394,15.76,-8.15,-237.12,-0.24,-0.43,-0.49,0.15,0.28,0.98,1000
16:16:31.394,15.76,-8.15,-237.12,-0.24,-0.3,-0.49,0.14,0.28,0.98,1000
16:16:31.396,15.76,-8.15,-237.12,-0.18,-0.24,-0.43,0.15,0.28,0.98,1000
16:16:31.398,15.76,-8.15,-237.12,-0.37,-0.37,-0.37,0.15,0.28,0.98,1000
16:16:31.400,15.76,-8.15,-237.12,-0.18,-0.3,-0.37,0.15,0.28,0.98,1000
16:16:31.404,15.76,-8.15,-237.13,-0.24,-0.24,-0.43,0.15,0.28,0.98,1000
16:16:31.405,15.76,-8.15,-237.13,-0.12,-0.37,-0.43,0.15,0.28,0.98,1000
16:16:31.408,15.76,-8.15,-237.13,-0.18,-0.24,-0.37,0.15,0.28,0.98,1000
16:16:31.409,15.76,-8.15,-237.13,-0.12,-0.18,-0.3,0.15,0.28,0.98,1000
16:16:31.410,15.76,-8.15,-237.13,-0.24,-0.3,-0.37,0.14,0.28,0.98,1000
16:16:31.412,15.76,-8.15,-237.13,-0.18,-0.18,-0.37,0.14,0.28,0.98,1000
16:16:31.414,15.76,-8.15,-237.13,-0.24,-0.3,-0.43,0.14,0.28,0.98,1000
16:16:31.416,15.76,-8.15,-237.13,-0.18,-0.18,-0.43,0.14,0.28,0.98,1000
16:16:31.419,15.76,-8.15,-237.13,-0.12,-0.37,-0.55,0.14,0.28,0.98,1000
16:16:31.421,15.76,-8.15,-237.13,-0.24,-0.37,-0.43,0.14,0.28,0.98,1000
16:16:31.425,15.76,-8.15,-237.13,-0.12,-0.3,-0.37,0.14,0.28,0.98,1000
16:16:31.427,15.76,-8.15,-237.13,-0.12,-0.18,-0.37,0.14,0.28,0.98,1000
16:16:31.428,15.76,-8.15,-237.13,-0.24,-0.3,-0.37,0.14,0.28,0.98,1000
16:16:31.429,15.76,-8.15,-237.13,-0.12,-0.37,-0.37,0.15,0.28,0.98,1000
16:16:31.438,15.76,-8.15,-237.13,-0.3,-0.37,-0.43,0.14,0.28,0.98,1000
16:16:31.444,15.76,-8.15,-237.14,-0.24,-0.37,-0.49,0.14,0.28,0.98,1000
16:16:31.445,15.76,-8.15,-237.14,-0.18,-0.37,-0.3,0.14,0.28,0.98,1000
16:16:31.445,15.76,-8.15,-237.14,-0.18,-0.24,-0.37,0.14,0.28,0.98,1000
16:16:31.445,15.76,-8.15,-237.14,-0.18,-0.37,-0.37,0.14,0.28,0.98,1000
16:16:31.445,15.76,-8.15,-237.14,-0.12,-0.24,-0.49,0.14,0.28,0.98,1000
16:16:31.445,15.76,-8.15,-237.14,-0.3,-0.3,-0.43,0.14,0.28,0.98,1000
16:16:31.445,15.76,-8.15,-237.14,-0.3,-0.3,-0.43,0.14,0.28,0.98,1000
16:16:31.447,15.76,-8.15,-237.14,-0.24,-0.3,-0.37,0.15,0.28,0.98,1000
16:16:31.448,15.76,-8.15,-237.14,-0.37,-0.37,-0.37,0.15,0.28,0.98,1000
16:16:31.450,15.76,-8.15,-237.14,-0.24,-0.3,-0.49,0.14,0.28,0.98,1000
16:16:31.452,15.76,-8.15,-237.14,-0.18,-0.37,-0.43,0.15,0.28,0.98,1000
16:16:31.454,15.76,-8.15,-237.14,-0.18,-0.37,-0.43,0.14,0.28,0.98,1000
16:16:31.456,15.76,-8.15,-237.14,-0.18,-0.3,-0.55,0.14,0.28,0.98,1000
16:16:31.459,15.77,-8.15,-237.14,-0.24,-0.24,-0.61,0.14,0.28,0.98,1000
16:16:31.468,15.77,-8.15,-237.14,-0.3,-0.3,-0.49,0.14,0.28,0.98,1000
16:16:31.468,15.77,-8.15,-237.15,-0.24,-0.37,-0.43,0.14,0.28,0.98,1000
16:16:31.468,15.77,-8.15,-237.15,-0.24,-0.3,-0.49,0.14,0.28,0.98,1000
16:16:31.469,15.77,-8.15,-237.15,-0.18,-0.12,-0.37,0.15,0.28,0.98,1000
16:16:31.469,15.77,-8.15,-237.15,-0.18,-0.37,-0.43,0.14,0.28,0.98,1000
16:16:31.471,15.77,-8.15,-237.15,-0.12,-0.37,-0.37,0.15,0.28,0.98,1000
16:16:31.472,15.77,-8.15,-237.15,-0.18,-0.24,-0.55,0.15,0.28,0.98,1000
16:16:31.477,15.77,-8.15,-237.15,-0.18,-0.3,-0.43,0.15,0.28,0.98,1000
16:16:31.479,15.77,-8.15,-237.15,-0.18,-0.37,-0.55,0.15,0.28,0.98,1000
16:16:31.479,15.77,-8.15,-237.15,-0.3,-0.3,-0.49,0.15,0.28,0.98,1000
16:16:31.480,15.77,-8.15,-237.15,-0.37,-0.24,-0.37,0.14,0.28,0.98,1000
16:16:31.482,15.77,-8.15,-237.15,-0.12,-0.24,-0.37,0.15,0.28,0.98,1000
16:16:31.484,15.77,-8.15,-237.15,-0.24,-0.18,-0.43,0.15,0.28,0.98,1000
16:16:31.486,15.77,-8.15,-237.15,-0.18,-0.37,-0.37,0.15,0.28,0.98,1000
16:16:31.488,15.77,-8.15,-237.15,-0.18,-0.18,-0.49,0.15,0.28,0.98,1000
16:16:31.490,15.77,-8.15,-237.15,-0.3,-0.12,-0.49,0.15,0.28,0.98,1000
16:16:31.492,15.77,-8.15,-237.16,-0.37,-0.24,-0.37,0.15,0.28,0.98,1000
16:16:31.494,15.77,-8.15,-237.16,-0.24,-0.24,-0.37,0.15,0.28,0.98,1000
16:16:31.496,15.77,-8.15,-237.16,-0.24,-0.37,-0.49,0.15,0.28,0.98,1000
16:16:31.498,15.77,-8.15,-237.16,-0.3,-0.3,-0.55,0.15,0.28,0.98,1000
16:16:31.500,15.77,-8.15,-237.16,-0.18,-0.18,-0.49,0.15,0.28,0.98,1000
16:16:31.502,15.77,-8.15,-237.16,-0.18,-0.18,-0.49,0.15,0.28,0.98,1000
16:16:31.504,15.77,-8.15,-237.16,-0.18,-0.37,-0.37,0.15,0.28,0.98,1000
16:16:31.507,15.77,-8.15,-237.16,-0.3,-0.37,-0.37,0.14,0.28,0.98,1000
16:16:31.508,15.77,-8.15,-237.16,-0.18,-0.3,-0.55,0.15,0.28,0.98,1000
16:16:31.511,15.77,-8.15,-237.16,-0.18,-0.24,-0.43,0.15,0.28,0.98,1000
16:16:31.512,15.76,-8.15,-237.16,-0.18,-0.18,-0.43,0.15,0.28,0.98,1000
16:16:31.514,15.76,-8.15,-237.16,-0.24,-0.37,-0.49,0.15,0.28,0.98,1000
16:16:31.516,15.76,-8.15,-237.16,-0.18,-0.3,-0.37,0.15,0.28,0.98,1000
16:16:31.518,15.76,-8.15,-237.16,-0.24,-0.3,-0.37,0.15,0.28,0.98,1000
16:16:31.520,15.76,-8.15,-237.16,-0.18,-0.24,-0.37,0.15,0.28,0.98,1000
16:16:31.524,15.76,-8.15,-237.17,-0.24,-0.37,-0.43,0.15,0.28,0.98,1000
16:16:31.524,15.76,-8.15,-237.17,-0.37,-0.24,-0.43,0.15,0.28,0.98,1000
16:16:31.527,15.76,-8.15,-237.17,-0.24,-0.24,-0.43,0.14,0.28,0.98,1000
16:16:31.528,15.76,-8.15,-237.17,-0.37,-0.43,-0.43,0.14,0.28,0.98,1000
16:16:31.530,15.76,-8.15,-237.17,-0.18,-0.37,-0.49,0.14,0.28,0.98,1000
16:16:31.532,15.76,-8.15,-237.17,-0.18,-0.18,-0.43,0.14,0.28,0.98,1000
16:16:31.538,15.76,-8.15,-237.17,-0.18,-0.3,-0.61,0.14,0.28,0.98,1000
16:16:31.540,15.76,-8.15,-237.17,-0.06,-0.37,-0.37,0.14,0.28,0.98,1000
16:16:31.540,15.76,-8.15,-237.17,-0.18,-0.3,-0.37,0.14,0.28,0.98,1000
16:16:31.540,15.76,-8.15,-237.17,-0.24,-0.24,-0.49,0.14,0.28,0.98,1000
16:16:31.546,15.76,-8.15,-237.17,-0.18,-0.24,-0.49,0.14,0.28,0.98,1000
16:16:31.546,15.76,-8.15,-237.17,-0.12,-0.18,-0.49,0.14,0.28,0.98,1000
16:16:31.546,15.76,-8.15,-237.17,-0.18,-0.3,-0.37,0.14,0.28,0.98,1000
16:16:31.549,15.76,-8.15,-237.17,-0.24,-0.18,-0.37,0.14,0.28,0.98,1000
16:16:31.550,15.76,-8.15,-237.17,-0.18,-0.18,-0.3,0.15,0.28,0.98,1000
16:16:31.552,15.76,-8.15,-237.17,-0.18,-0.18,-0.49,0.14,0.28,0.98,1000
16:16:31.554,15.77,-8.15,-237.17,-0.24,-0.37,-0.43,0.14,0.28,0.98,1000
16:16:31.556,15.76,-8.15,-237.18,-0.12,-0.37,-0.37,0.14,0.28,0.98,1000
16:16:31.558,15.76,-8.15,-237.18,-0.24,-0.3,-0.37,0.14,0.28,0.98,1000
16:16:31.560,15.76,-8.15,-237.18,-0.18,-0.18,-0.37,0.14,0.28,0.98,1000
16:16:31.562,15.76,-8.15,-237.18,-0.18,-0.37,-0.43,0.15,0.28,0.98,1000
16:16:31.564,15.76,-8.15,-237.18,-0.37,-0.37,-0.37,0.14,0.28,0.98,1000
16:16:31.566,15.76,-8.15,-237.18,-0.18,-0.24,-0.43,0.14,0.28,0.98,1000
16:16:31.568,15.76,-8.15,-237.18,-0.3,-0.24,-0.43,0.14,0.28,0.98,1000
16:16:31.570,15.76,-8.15,-237.18,-0.18,-0.37,-0.3,0.14,0.28,0.98,1000
16:16:31.572,15.76,-8.15,-237.18,-0.24,-0.18,-0.43,0.15,0.28,0.98,1000
16:16:31.574,15.76,-8.15,-237.18,-0.3,-0.24,-0.49,0.14,0.28,0.98,1000
16:16:31.576,15.76,-8.15,-237.18,-0.3,-0.18,-0.43,0.14,0.28,0.98,1000
16:16:31.578,15.76,-8.15,-237.18,-0.3,-0.3,-0.43,0.14,0.28,0.98,1000
16:16:31.580,15.76,-8.15,-237.18,-0.18,-0.3,-0.43,0.15,0.28,0.98,1000
16:16:31.582,15.76,-8.15,-237.18,-0.37,-0.37,-0.3,0.14,0.28,0.98,1000
16:16:31.584,15.76,-8.15,-237.18,-0.18,-0.3,-0.37,0.15,0.28,0.98,1000
16:16:31.586,15.76,-8.15,-237.18,-0.3,-0.37,-0.37,0.15,0.28,0.98,1000
16:16:31.588,15.76,-8.15,-237.18,-0.3,-0.37,-0.37,0.14,0.28,0.98,1000
16:16:31.591,15.76,-8.15,-237.19,-0.3,-0.3,-0.43,0.14,0.28,0.98,1000
16:16:31.593,15.76,-8.15,-237.19,-0.18,-0.3,-0.67,0.14,0.28,0.98,1000
16:16:31.594,15.76,-8.15,-237.19,-0.18,-0.24,-0.43,0.15,0.28,0.98,1000
16:16:31.596,15.76,-8.15,-237.19,-0.18,-0.37,-0.55,0.14,0.28,0.98,1000
16:16:31.598,15.76,-8.15,-237.19,-0.06,-0.37,-0.37,0.15,0.28,0.98,1000
16:16:31.602,15.76,-8.15,-237.19,-0.12,-0.37,-0.37,0.15,0.28,0.98,1000
16:16:31.603,15.76,-8.15,-237.19,-0.18,-0.24,-0.55,0.15,0.28,0.98,1000
16:16:31.604,15.76,-8.15,-237.19,-0.24,-0.37,-0.49,0.15,0.28,0.98,1000
16:16:31.610,15.76,-8.15,-237.19,-0.18,-0.3,-0.37,0.15,0.28,0.98,1000
16:16:31.611,15.76,-8.15,-237.19,-0.06,-0.18,-0.24,0.15,0.28,0.98,1000
16:16:31.611,15.76,-8.15,-237.19,-0.18,-0.12,-0.43,0.14,0.28,0.98,1000
16:16:31.615,15.76,-8.15,-237.19,-0.24,-0.43,-0.37,0.14,0.28,0.98,1000
16:16:31.615,15.76,-8.15,-237.2,-0.18,-0.37,-0.37,0.15,0.28,0.98,1000
16:16:31.616,15.76,-8.15,-237.2,-0.12,-0.24,-0.49,0.15,0.28,0.98,1000
16:16:31.619,15.76,-8.15,-237.2,-0.18,-0.12,-0.43,0.14,0.28,0.98,1000
16:16:31.624,15.76,-8.15,-237.2,-0.12,-0.18,-0.61,0.14,0.28,0.98,1000
16:16:31.624,15.76,-8.15,-237.2,-0.12,-0.37,-0.55,0.14,0.28,0.98,1000
16:16:31.624,15.76,-8.15,-237.2,-0.24,-0.24,-0.49,0.15,0.28,0.98,1000
16:16:31.626,15.76,-8.15,-237.2,-0.18,-0.43,-0.3,0.14,0.28,0.98,1000
16:16:31.628,15.76,-8.15,-237.2,-0.12,-0.24,-0.18,0.14,0.28,0.98,1000
16:16:31.630,15.76,-8.15,-237.2,-0.24,-0.3,-0.55,0.14,0.28,0.98,1000
16:16:31.632,15.76,-8.15,-237.2,-0.37,-0.43,-0.49,0.14,0.28,0.98,1000
16:16:31.634,15.76,-8.15,-237.2,-0.18,-0.18,-0.49,0.14,0.28,0.98,1000
16:16:31.649,15.76,-8.15,-237.2,-0.37,-0.24,-0.43,0.14,0.28,0.98,1000
16:16:31.650,15.76,-8.15,-237.2,-0.18,-0.3,-0.55,0.14,0.28,0.98,1000
16:16:31.650,15.76,-8.15,-237.2,-0.18,-0.37,-0.37,0.14,0.28,0.98,1000
16:16:31.650,15.76,-8.15,-237.2,-0.24,-0.24,-0.49,0.14,0.28,0.98,1000
16:16:31.650,15.76,-8.15,-237.2,-0.3,-0.3,-0.67,0.14,0.28,0.98,1000
16:16:31.650,15.76,-8.15,-237.21,-0.24,-0.18,-0.43,0.14,0.28,0.98,1000
16:16:31.650,15.76,-8.15,-237.21,-0.12,-0.24,-0.49,0.14,0.28,0.98,1000
16:16:31.650,15.76,-8.15,-237.21,-0.3,-0.3,-0.43,0.15,0.28,0.98,1000
16:16:31.652,15.76,-8.15,-237.21,-0.37,-0.3,-0.55,0.14,0.28,0.98,1000
16:16:31.654,15.76,-8.15,-237.21,-0.49,-0.3,-0.49,0.15,0.28,0.98,1000
16:16:31.658,15.76,-8.15,-237.21,-0.18,-0.37,-0.55,0.14,0.28,0.98,1000
16:16:31.658,15.76,-8.15,-237.21,-0.37,-0.43,-0.49,0.14,0.28,0.98,1000
16:16:31.660,15.76,-8.15,-237.21,-0.3,-0.24,-0.55,0.14,0.28,0.98,1000
16:16:31.662,15.76,-8.15,-237.21,0.0,-0.43,-0.3,0.14,0.28,0.98,1000
16:16:31.664,15.76,-8.15,-237.21,-0.18,-0.37,-0.3,0.14,0.28,0.98,1000
16:16:31.666,15.76,-8.15,-237.21,-0.24,-0.18,-0.43,0.14,0.28,0.98,1000
16:16:31.668,15.76,-8.15,-237.21,-0.06,-0.3,-0.49,0.14,0.28,0.98,1000
16:16:31.670,15.76,-8.15,-237.21,-0.12,-0.24,-0.55,0.15,0.28,0.98,1000
16:16:31.672,15.76,-8.15,-237.21,-0.24,-0.37,-0.24,0.15,0.28,0.98,1000
16:16:31.674,15.76,-8.15,-237.21,-0.18,-0.37,-0.37,0.15,0.28,0.98,1000
16:16:31.676,15.76,-8.15,-237.21,-0.24,-0.37,-0.3,0.15,0.28,0.98,1000
16:16:31.678,15.76,-8.15,-237.21,-0.37,-0.24,-0.43,0.15,0.28,0.98,1000
16:16:31.680,15.76,-8.15,-237.22,-0.37,-0.18,-0.37,0.14,0.28,0.98,1000
16:16:31.683,15.76,-8.15,-237.22,-0.18,-0.18,-0.37,0.15,0.28,0.98,1000
16:16:31.684,15.76,-8.15,-237.22,-0.24,-0.18,-0.37,0.14,0.28,0.98,1000
16:16:31.687,15.76,-8.15,-237.22,-0.3,-0.12,-0.61,0.14,0.28,0.98,1000
16:16:31.688,15.76,-8.15,-237.22,-0.12,-0.18,-0.55,0.15,0.28,0.98,1000
16:16:31.690,15.76,-8.15,-237.22,-0.3,-0.37,-0.49,0.14,0.28,0.98,1000
16:16:31.692,15.76,-8.15,-237.22,-0.12,-0.37,-0.43,0.15,0.28,0.98,1000
16:16:31.694,15.76,-8.15,-237.22,-0.37,-0.37,-0.37,0.14,0.28,0.98,1000
16:16:31.697,15.76,-8.15,-237.22,-0.43,-0.18,-0.37,0.14,0.28,0.98,1000
16:16:31.698,15.76,-8.15,-237.22,-0.3,-0.12,-0.37,0.14,0.28,0.98,1000
16:16:31.700,15.76,-8.15,-237.22,-0.24,-0.24,-0.3,0.15,0.28,0.98,1000
16:16:31.702,15.76,-8.15,-237.22,-0.24,-0.43,-0.37,0.15,0.28,0.98,1000
16:16:31.704,15.76,-8.15,-237.22,-0.18,-0.43,-0.3,0.15,0.28,0.98,1000
16:16:31.706,15.76,-8.15,-237.22,-0.18,-0.3,-0.3,0.14,0.28,0.98,1000
16:16:31.708,15.76,-8.15,-237.22,-0.24,-0.18,-0.37,0.14,0.28,0.98,1000
16:16:31.712,15.76,-8.15,-237.22,-0.3,-0.37,-0.49,0.14,0.28,0.98,1000
16:16:31.712,15.76,-8.15,-237.22,-0.24,-0.18,-0.37,0.15,0.28,0.98,1000
16:16:31.715,15.76,-8.15,-237.23,-0.24,-0.18,-0.37,0.15,0.28,0.98,1000
16:16:31.717,15.76,-8.15,-237.23,-0.18,-0.24,-0.43,0.15,0.28,0.98,1000
16:16:31.718,15.76,-8.15,-237.23,-0.12,-0.3,-0.55,0.14,0.28,0.98,1000
16:16:31.720,15.76,-8.15,-237.23,-0.18,-0.3,-0.55,0.14,0.28,0.98,1000
16:16:31.722,15.76,-8.15,-237.23,-0.12,-0.37,-0.37,0.14,0.28,0.98,1000
16:16:31.724,15.76,-8.15,-237.23,-0.18,-0.3,-0.37,0.15,0.28,0.98,1000
16:16:31.727,15.76,-8.15,-237.23,-0.18,-0.37,-0.43,0.15,0.28,0.98,1000
16:16:31.728,15.76,-8.15,-237.23,-0.12,-0.24,-0.49,0.15,0.28,0.98,1000
16:16:31.730,15.76,-8.15,-237.23,-0.24,-0.37,-0.49,0.14,0.28,0.98,1000
16:16:31.732,15.76,-8.15,-237.23,-0.24,-0.24,-0.43,0.14,0.28,0.98,1000
16:16:31.734,15.76,-8.15,-237.23,-0.18,-0.24,-0.55,0.14,0.28,0.98,1000
16:16:31.750,15.76,-8.15,-237.23,-0.18,-0.24,-0.43,0.15,0.28,0.98,1000
16:16:31.751,15.76,-8.15,-237.23,-0.24,-0.18,-0.37,0.14,0.28,0.98,1000
16:16:31.751,15.76,-8.15,-237.23,-0.18,-0.3,-0.37,0.14,0.28,0.98,1000
16:16:31.751,15.76,-8.15,-237.23,-0.18,-0.24,-0.49,0.14,0.28,0.98,1000
16:16:31.751,15.76,-8.15,-237.23,-0.18,-0.37,-0.24,0.14,0.28,0.98,1000
16:16:31.751,15.76,-8.15,-237.23,-0.3,-0.18,-0.37,0.14,0.28,0.98,1000
16:16:31.751,15.76,-8.15,-237.24,-0.12,-0.12,-0.43,0.15,0.28,0.98,1000
16:16:31.751,15.76,-8.15,-237.24,-0.06,-0.37,-0.55,0.14,0.28,0.98,1000
16:16:31.752,15.76,-8.15,-237.24,-0.12,-0.3,-0.49,0.15,0.28,0.98,1000
16:16:31.755,15.76,-8.15,-237.24,-0.24,-0.3,-0.49,0.15,0.28,0.98,1000
16:16:31.756,15.76,-8.15,-237.24,-0.24,-0.37,-0.55,0.14,0.28,0.98,1000
16:16:31.759,15.76,-8.15,-237.24,-0.24,-0.24,-0.37,0.14,0.28,0.98,1000
16:16:31.760,15.76,-8.15,-237.24,-0.24,-0.24,-0.55,0.15,0.28,0.98,1000
16:16:31.762,15.76,-8.15,-237.24,-0.24,-0.24,-0.55,0.15,0.28,0.98,1000
16:16:31.764,15.76,-8.15,-237.24,-0.12,-0.24,-0.43,0.14,0.28,0.98,1000
16:16:31.766,15.76,-8.15,-237.24,-0.18,-0.24,-0.43,0.15,0.28,0.98,1000
16:16:31.768,15.76,-8.15,-237.24,-0.3,-0.3,-0.49,0.15,0.29,0.98,1000
16:16:31.770,15.76,-8.15,-237.24,-0.24,-0.37,-0.49,0.14,0.28,0.98,1000
16:16:31.772,15.76,-8.15,-237.24,-0.24,-0.37,-0.61,0.15,0.28,0.98,1000
16:16:31.774,15.76,-8.15,-237.24,-0.37,-0.3,-0.37,0.14,0.28,0.98,1000
16:16:31.776,15.76,-8.15,-237.25,-0.37,-0.3,-0.49,0.15,0.28,0.98,1000
16:16:31.778,15.76,-8.15,-237.25,-0.3,-0.3,-0.43,0.14,0.28,0.98,1000
16:16:31.780,15.76,-8.15,-237.25,-0.37,-0.18,-0.37,0.14,0.28,0.98,1000
16:16:31.782,15.76,-8.15,-237.25,-0.24,-0.24,-0.37,0.15,0.28,0.98,1000
16:16:31.786,15.76,-8.15,-237.25,-0.18,-0.37,-0.55,0.15,0.28,0.98,1000
16:16:31.787,15.76,-8.15,-237.25,-0.3,-0.49,-0.37,0.14,0.28,0.98,1000
16:16:31.788,15.76,-8.15,-237.25,-0.24,-0.37,-0.37,0.14,0.28,0.98,1000
16:16:31.790,15.76,-8.15,-237.25,-0.24,-0.37,-0.55,0.15,0.28,0.98,1000
16:16:31.792,15.76,-8.15,-237.25,-0.24,-0.3,-0.37,0.14,0.28,0.98,1000
16:16:31.794,15.76,-8.15,-237.25,-0.24,-0.24,-0.3,0.14,0.28,0.98,1000
16:16:31.796,15.76,-8.15,-237.25,-0.24,-0.37,-0.43,0.14,0.28,0.98,1000
16:16:31.798,15.76,-8.15,-237.25,-0.3,-0.18,-0.37,0.14,0.28,0.98,1000
16:16:31.800,15.76,-8.15,-237.25,-0.18,-0.18,-0.37,0.14,0.28,0.98,1000
16:16:31.803,15.76,-8.15,-237.25,-0.3,-0.43,-0.24,0.15,0.28,0.98,1000
16:16:31.804,15.76,-8.15,-237.25,-0.18,-0.3,-0.37,0.14,0.28,0.98,1000
16:16:31.806,15.76,-8.15,-237.25,-0.12,-0.24,-0.37,0.15,0.28,0.98,1000
16:16:31.808,15.76,-8.15,-237.25,-0.12,-0.37,-0.61,0.14,0.28,0.98,1000
16:16:31.810,15.76,-8.15,-237.25,-0.18,-0.24,-0.24,0.15,0.28,0.98,1000
16:16:31.814,15.76,-8.15,-237.26,-0.24,-0.37,-0.37,0.15,0.28,0.98,1000
16:16:31.819,15.76,-8.15,-237.26,-0.18,-0.18,-0.3,0.15,0.28,0.98,1000
16:16:31.819,15.76,-8.15,-237.26,-0.12,-0.3,-0.37,0.15,0.28,0.98,1000
16:16:31.820,15.76,-8.15,-237.26,-0.24,-0.18,-0.43,0.15,0.28,0.98,1000
16:16:31.823,15.76,-8.15,-237.26,-0.3,-0.24,-0.55,0.14,0.28,0.98,1000
16:16:31.823,15.76,-8.15,-237.26,-0.37,-0.24,-0.61,0.14,0.28,0.98,1000
16:16:31.827,15.76,-8.15,-237.26,-0.3,-0.37,-0.55,0.15,0.28,0.98,1000
16:16:31.827,15.76,-8.15,-237.26,-0.18,-0.24,-0.37,0.15,0.28,0.98,1000
16:16:31.828,15.76,-8.15,-237.26,-0.18,-0.12,-0.24,0.15,0.28,0.98,1000
16:16:31.830,15.76,-8.15,-237.26,-0.12,-0.3,-0.12,0.15,0.28,0.98,1000
16:16:31.832,15.76,-8.15,-237.26,-0.24,-0.3,-0.49,0.14,0.28,0.98,1000
16:16:31.834,15.76,-8.15,-237.26,-0.24,-0.24,-0.49,0.15,0.28,0.98,1000
16:16:31.837,15.76,-8.15,-237.26,-0.18,-0.37,-0.49,0.15,0.28,0.98,1000
16:16:31.838,15.76,-8.15,-237.26,-0.3,-0.3,-0.43,0.14,0.28,0.98,1000
16:16:31.852,15.76,-8.15,-237.26,-0.18,-0.37,-0.61,0.14,0.28,0.98,1000
16:16:31.853,15.76,-8.15,-237.26,-0.24,-0.37,-0.49,0.14,0.28,0.98,1000
16:16:31.853,15.76,-8.15,-237.26,-0.18,-0.3,-0.43,0.15,0.28,0.98,1000
16:16:31.853,15.76,-8.15,-237.26,-0.3,-0.37,-0.3,0.15,0.28,0.98,1000
16:16:31.853,15.76,-8.16,-237.27,-0.3,-0.24,-0.24,0.15,0.28,0.98,1000
16:16:31.853,15.76,-8.16,-237.27,-0.37,-0.3,-0.37,0.14,0.28,0.98,1000
16:16:31.853,15.76,-8.16,-237.27,-0.37,-0.18,-0.55,0.14,0.28,0.98,1000
16:16:31.854,15.76,-8.16,-237.27,-0.18,-0.18,-0.55,0.15,0.28,0.98,1000
16:16:31.857,15.76,-8.16,-237.27,-0.18,-0.18,-0.37,0.14,0.28,0.98,1000
16:16:31.858,15.76,-8.15,-237.27,-0.3,-0.18,-0.37,0.15,0.28,0.98,1000
16:16:31.862,15.76,-8.16,-237.27,-0.3,-0.37,-0.43,0.15,0.28,0.98,1000
16:16:31.862,15.76,-8.16,-237.27,-0.24,-0.24,-0.61,0.14,0.28,0.98,1000
16:16:31.864,15.76,-8.16,-237.27,-0.3,-0.24,-0.37,0.14,0.28,0.98,1000
16:16:31.866,15.76,-8.16,-237.27,-0.37,-0.3,-0.37,0.15,0.28,0.98,1000
16:16:31.868,15.76,-8.16,-237.27,-0.3,-0.24,-0.37,0.15,0.28,0.98,1000
16:16:31.870,15.76,-8.16,-237.27,-0.18,-0.3,-0.24,0.14,0.28,0.98,1000
16:16:31.872,15.76,-8.16,-237.27,-0.18,-0.37,-0.37,0.14,0.28,0.98,1000
16:16:31.874,15.76,-8.16,-237.27,-0.3,-0.3,-0.37,0.15,0.28,0.98,1000
16:16:31.876,15.76,-8.16,-237.27,-0.18,-0.3,-0.37,0.14,0.28,0.98,1000
16:16:31.878,15.76,-8.16,-237.27,-0.3,-0.3,-0.43,0.14,0.28,0.98,1000
16:16:31.880,15.76,-8.16,-237.27,-0.37,-0.18,-0.37,0.14,0.28,0.98,1000
16:16:31.884,15.76,-8.16,-237.28,-0.3,-0.24,-0.37,0.15,0.28,0.98,1000
16:16:31.884,15.76,-8.16,-237.28,-0.18,-0.24,-0.37,0.14,0.28,0.98,1000
16:16:31.886,15.76,-8.16,-237.28,-0.37,-0.24,-0.55,0.14,0.28,0.98,1000
16:16:31.888,15.76,-8.16,-237.28,-0.24,-0.3,-0.49,0.14,0.28,0.98,1000
16:16:31.892,15.76,-8.16,-237.28,-0.37,-0.24,-0.37,0.15,0.28,0.98,1000
16:16:31.892,15.76,-8.16,-237.28,-0.3,-0.37,-0.37,0.14,0.28,0.98,1000
16:16:31.894,15.76,-8.16,-237.28,-0.3,-0.37,-0.3,0.15,0.28,0.98,1000
16:16:31.896,15.76,-8.16,-237.28,-0.3,-0.3,-0.49,0.14,0.28,0.98,1000
16:16:31.898,15.76,-8.16,-237.28,-0.3,-0.43,-0.43,0.15,0.28,0.98,1000
16:16:31.900,15.76,-8.16,-237.28,-0.37,-0.3,-0.43,0.15,0.28,0.98,1000
16:16:31.902,15.76,-8.16,-237.28,-0.24,-0.37,-0.55,0.14,0.28,0.98,1000
16:16:31.905,15.76,-8.16,-237.28,-0.18,-0.37,-0.43,0.15,0.28,0.98,1000
16:16:31.906,15.76,-8.16,-237.28,-0.24,-0.37,-0.37,0.15,0.28,0.98,1000
16:16:31.908,15.76,-8.16,-237.28,-0.24,-0.37,-0.37,0.15,0.28,0.98,1000
16:16:31.910,15.76,-8.16,-237.28,-0.18,-0.3,-0.37,0.15,0.28,0.98,1000
16:16:31.912,15.76,-8.16,-237.28,-0.24,-0.37,-0.55,0.15,0.28,0.98,1000
16:16:31.914,15.76,-8.16,-237.29,-0.24,-0.3,-0.37,0.15,0.28,0.98,1000
16:16:31.916,15.76,-8.16,-237.29,-0.18,-0.37,-0.61,0.14,0.28,0.98,1000
16:16:31.918,15.76,-8.16,-237.29,-0.37,-0.37,-0.37,0.14,0.28,0.98,1000
16:16:31.921,15.76,-8.16,-237.29,-0.24,-0.3,-0.3,0.14,0.28,0.98,1000
16:16:31.922,15.76,-8.16,-237.29,-0.12,-0.37,-0.24,0.15,0.28,0.98,1000
16:16:31.924,15.76,-8.16,-237.29,-0.24,-0.24,-0.43,0.15,0.28,0.98,1000
16:16:31.926,15.76,-8.16,-237.29,-0.37,-0.24,-0.37,0.15,0.28,0.98,1000
16:16:31.928,15.76,-8.16,-237.29,-0.12,-0.37,-0.37,0.15,0.28,0.98,1000
16:16:31.930,15.76,-8.16,-237.29,-0.24,-0.3,-0.3,0.15,0.28,0.98,1000
16:16:31.932,15.76,-8.16,-237.29,-0.06,-0.37,-0.37,0.15,0.28,0.98,1000
16:16:31.937,15.76,-8.16,-237.29,-0.18,-0.18,-0.43,0.15,0.28,0.98,1000
16:16:31.940,15.76,-8.16,-237.29,-0.24,-0.3,-0.43,0.15,0.28,0.98,1000
16:16:31.940,15.76,-8.16,-237.29,-0.12,-0.3,-0.3,0.15,0.28,0.98,1000
16:16:31.940,15.76,-8.16,-237.29,-0.24,-0.37,-0.37,0.15,0.28,0.98,1000
16:16:31.942,15.76,-8.16,-237.29,-0.18,-0.37,-0.37,0.15,0.28,0.98,1000
16:16:31.947,15.76,-8.16,-237.29,-0.18,-0.43,-0.43,0.14,0.28,0.98,1000
16:16:31.948,15.76,-8.16,-237.29,-0.3,-0.3,-0.43,0.14,0.28,0.98,1000
16:16:31.948,15.76,-8.16,-237.3,-0.12,-0.3,-0.24,0.15,0.28,0.98,1000
16:16:31.953,15.76,-8.16,-237.3,-0.12,-0.12,-0.55,0.14,0.28,0.98,1000
16:16:31.962,15.76,-8.16,-237.3,-0.18,-0.24,-0.43,0.15,0.28,0.98,1000
16:16:31.962,15.76,-8.16,-237.3,-0.12,-0.37,-0.49,0.15,0.28,0.98,1000
16:16:31.962,15.76,-8.16,-237.3,-0.12,-0.06,-0.37,0.14,0.28,0.98,1000
16:16:31.962,15.76,-8.16,-237.3,-0.18,-0.18,-0.43,0.14,0.28,0.98,1000
16:16:31.962,15.76,-8.16,-237.3,-0.18,-0.3,-0.43,0.14,0.28,0.98,1000
16:16:31.962,15.76,-8.16,-237.3,-0.37,-0.18,-0.37,0.14,0.28,0.98,1000
16:16:31.964,15.76,-8.16,-237.3,-0.18,0.0,-0.49,0.15,0.28,0.98,1000
16:16:31.966,15.76,-8.16,-237.3,-0.18,-0.37,-0.37,0.14,0.28,0.98,1000
16:16:31.968,15.76,-8.16,-237.3,-0.12,-0.49,-0.37,0.15,0.28,0.98,1000
16:16:31.970,15.76,-8.16,-237.3,-0.3,-0.37,-0.61,0.15,0.28,0.98,1000
16:16:31.972,15.76,-8.16,-237.3,-0.18,-0.24,-0.55,0.14,0.28,0.98,1000
16:16:31.974,15.76,-8.16,-237.3,-0.37,-0.37,-0.49,0.14,0.28,0.98,1000
16:16:31.977,15.76,-8.16,-237.3,-0.37,-0.37,-0.49,0.14,0.28,0.98,1000
16:16:31.979,15.76,-8.16,-237.3,-0.18,-0.37,-0.37,0.14,0.28,0.98,1000
16:16:31.982,15.76,-8.16,-237.3,-0.37,-0.43,-0.49,0.14,0.28,0.98,1000
16:16:31.984,15.76,-8.16,-237.31,-0.24,-0.3,-0.43,0.14,0.28,0.98,1000
16:16:31.987,15.76,-8.16,-237.31,-0.18,-0.3,-0.43,0.14,0.28,0.98,1000
16:16:31.990,15.76,-8.16,-237.31,-0.3,-0.3,-0.37,0.15,0.28,0.98,1000
16:16:31.991,15.76,-8.16,-237.31,-0.37,-0.18,-0.37,0.14,0.28,0.98,1000
16:16:31.993,15.76,-8.16,-237.31,-0.3,-0.37,-0.43,0.14,0.28,0.98,1000
16:16:31.994,15.76,-8.16,-237.31,-0.37,-0.18,-0.3,0.14,0.28,0.98,1000
16:16:31.997,15.76,-8.16,-237.31,-0.37,-0.18,-0.37,0.14,0.28,0.98,1000
16:16:31.998,15.76,-8.16,-237.31,-0.3,-0.3,-0.3,0.14,0.28,0.98,1000
16:16:32.000,15.76,-8.16,-237.31,-0.37,-0.18,-0.3,0.15,0.28,0.98,1000
16:16:32.004,15.76,-8.16,-237.31,-0.3,-0.37,-0.3,0.14,0.28,0.98,1000
16:16:32.004,15.76,-8.16,-237.31,-0.18,-0.3,-0.43,0.14,0.28,0.98,1000
16:16:32.008,15.76,-8.16,-237.31,-0.3,-0.37,-0.3,0.15,0.28,0.98,1000
16:16:32.008,15.76,-8.16,-237.31,-0.3,-0.18,-0.55,0.15,0.28,0.98,1000
16:16:32.010,15.76,-8.16,-237.31,-0.18,-0.37,-0.55,0.14,0.28,0.98,1000
16:16:32.012,15.76,-8.16,-237.31,-0.18,-0.24,-0.49,0.15,0.28,0.98,1000
16:16:32.014,15.76,-8.16,-237.32,-0.37,-0.24,-0.37,0.14,0.28,0.98,1000
16:16:32.016,15.76,-8.16,-237.32,-0.12,-0.24,-0.3,0.14,0.28,0.98,1000
16:16:32.019,15.76,-8.16,-237.32,-0.3,-0.18,-0.43,0.14,0.28,0.98,1000
16:16:32.020,15.76,-8.16,-237.32,-0.24,-0.24,-0.49,0.15,0.28,0.98,1000
16:16:32.023,15.76,-8.16,-237.32,-0.18,-0.3,-0.37,0.15,0.28,0.98,1000
16:16:32.024,15.76,-8.16,-237.32,-0.24,-0.37,-0.43,0.14,0.28,0.98,1000
16:16:32.026,15.76,-8.16,-237.32,-0.06,-0.18,-0.37,0.14,0.28,0.98,1000
16:16:32.028,15.76,-8.16,-237.32,-0.12,-0.12,-0.37,0.14,0.28,0.98,1000
16:16:32.030,15.76,-8.16,-237.32,-0.12,-0.24,-0.37,0.14,0.28,0.98,1000
16:16:32.032,15.76,-8.16,-237.32,-0.18,-0.12,-0.37,0.14,0.28,0.98,1000
16:16:32.034,15.76,-8.16,-237.32,-0.12,-0.24,-0.43,0.15,0.28,0.98,1000
16:16:32.037,15.76,-8.16,-237.32,-0.18,-0.06,-0.49,0.14,0.28,0.98,1000
16:16:32.038,15.76,-8.16,-237.32,-0.24,-0.18,-0.43,0.14,0.28,0.98,1000
16:16:32.042,15.76,-8.16,-237.32,-0.24,-0.3,-0.49,0.14,0.28,0.98,1000
16:16:32.042,15.76,-8.16,-237.32,-0.24,-0.24,-0.37,0.14,0.28,0.98,1000
16:16:32.059,15.76,-8.16,-237.32,-0.24,-0.12,-0.37,0.15,0.28,0.98,1000
16:16:32.059,15.76,-8.16,-237.33,-0.24,-0.3,-0.43,0.14,0.28,0.98,1000
16:16:32.060,15.76,-8.16,-237.33,-0.18,-0.43,-0.43,0.14,0.28,0.98,1000
16:16:32.060,15.76,-8.16,-237.33,-0.24,-0.3,-0.49,0.14,0.28,0.98,1000
16:16:32.060,15.76,-8.16,-237.33,-0.18,-0.37,-0.3,0.14,0.28,0.98,1000
16:16:32.060,15.76,-8.16,-237.33,-0.37,-0.37,-0.37,0.14,0.28,0.98,1000
16:16:32.060,15.76,-8.16,-237.33,-0.18,-0.24,-0.55,0.15,0.28,0.98,1000
16:16:32.060,15.76,-8.16,-237.33,-0.18,-0.24,-0.43,0.15,0.28,0.98,1000
16:16:32.060,15.76,-8.16,-237.33,-0.3,-0.37,-0.37,0.15,0.28,0.98,1000
16:16:32.062,15.76,-8.16,-237.33,-0.24,-0.18,-0.37,0.15,0.28,0.98,1000
16:16:32.064,15.76,-8.16,-237.33,-0.3,-0.24,-0.37,0.15,0.28,0.98,1000
16:16:32.067,15.76,-8.16,-237.33,-0.12,-0.37,-0.49,0.15,0.28,0.98,1000
16:16:32.068,15.76,-8.16,-237.33,-0.18,-0.37,-0.43,0.15,0.28,0.98,1000
16:16:32.070,15.76,-8.16,-237.33,-0.24,-0.18,-0.61,0.14,0.28,0.98,1000
16:16:32.072,15.76,-8.16,-237.33,-0.3,-0.12,-0.49,0.15,0.28,0.98,1000
16:16:32.074,15.76,-8.16,-237.33,-0.3,-0.18,-0.37,0.14,0.28,0.98,1000
16:16:32.076,15.76,-8.16,-237.33,-0.24,-0.18,-0.3,0.14,0.28,0.98,1000
16:16:32.078,15.76,-8.16,-237.34,-0.18,-0.18,-0.37,0.14,0.28,0.98,1000
16:16:32.080,15.76,-8.16,-237.34,-0.24,-0.37,-0.3,0.14,0.28,0.98,1000
16:16:32.082,15.76,-8.16,-237.34,-0.18,-0.37,-0.37,0.15,0.28,0.98,1000
16:16:32.084,15.76,-8.16,-237.34,-0.18,-0.3,-0.37,0.14,0.28,0.98,1000
16:16:32.086,15.76,-8.16,-237.34,-0.18,-0.3,-0.43,0.14,0.28,0.98,1000
16:16:32.088,15.76,-8.16,-237.34,-0.24,-0.24,-0.43,0.15,0.28,0.98,1000
16:16:32.090,15.76,-8.16,-237.34,-0.18,-0.24,-0.43,0.14,0.28,0.98,1000
16:16:32.092,15.76,-8.16,-237.34,-0.18,-0.37,-0.43,0.14,0.28,0.98,1000
16:16:32.094,15.76,-8.16,-237.34,-0.18,-0.3,-0.49,0.15,0.28,0.98,1000
16:16:32.096,15.76,-8.16,-237.34,-0.12,-0.18,-0.37,0.14,0.28,0.98,1000
16:16:32.098,15.76,-8.16,-237.34,-0.3,-0.3,-0.49,0.14,0.28,0.98,1000
16:16:32.100,15.76,-8.16,-237.34,-0.18,-0.37,-0.49,0.14,0.28,0.98,1000
16:16:32.102,15.76,-8.16,-237.34,-0.18,-0.37,-0.37,0.14,0.28,0.98,1000
16:16:32.104,15.76,-8.16,-237.34,-0.18,-0.18,-0.37,0.14,0.28,0.98,1000
16:16:32.106,15.76,-8.16,-237.34,-0.24,-0.24,-0.43,0.14,0.28,0.98,1000
16:16:32.108,15.76,-8.16,-237.34,-0.18,-0.24,-0.49,0.14,0.28,0.98,1000
16:16:32.110,15.76,-8.16,-237.34,-0.24,-0.3,-0.61,0.15,0.28,0.98,1000
16:16:32.112,15.76,-8.16,-237.35,-0.18,-0.3,-0.49,0.15,0.28,0.98,1000
16:16:32.114,15.76,-8.16,-237.35,-0.18,-0.37,-0.49,0.14,0.28,0.98,1000
16:16:32.116,15.76,-8.16,-237.35,-0.18,-0.43,-0.37,0.15,0.28,0.98,1000
16:16:32.118,15.76,-8.16,-237.35,-0.3,-0.24,-0.61,0.14,0.28,0.98,1000
16:16:32.121,15.76,-8.16,-237.35,-0.37,-0.18,-0.37,0.14,0.28,0.98,1000
16:16:32.124,15.76,-8.16,-237.35,-0.24,-0.3,-0.37,0.15,0.28,0.98,1000
16:16:32.124,15.76,-8.16,-237.35,-0.3,-0.3,-0.37,0.15,0.28,0.98,1000
16:16:32.126,15.76,-8.16,-237.35,-0.18,-0.24,-0.3,0.15,0.28,0.98,1000
16:16:32.130,15.76,-8.16,-237.35,-0.18,-0.12,-0.3,0.14,0.28,0.98,1000
16:16:32.130,15.76,-8.16,-237.35,-0.18,-0.37,-0.55,0.14,0.28,0.98,1000
16:16:32.134,15.76,-8.16,-237.35,-0.3,-0.37,-0.61,0.15,0.28,0.98,1000
16:16:32.134,15.76,-8.16,-237.35,-0.24,-0.3,-0.37,0.14,0.28,0.98,1000
16:16:32.136,15.76,-8.16,-237.35,-0.18,-0.12,-0.37,0.15,0.28,0.98,1000
16:16:32.138,15.76,-8.16,-237.35,-0.24,-0.18,-0.43,0.15,0.28,0.98,1000
16:16:32.140,15.76,-8.16,-237.35,-0.3,-0.18,-0.49,0.15,0.28,0.98,1000
16:16:32.142,15.76,-8.16,-237.36,-0.18,-0.37,-0.55,0.15,0.28,0.98,1000
16:16:32.144,15.76,-8.16,-237.36,-0.12,-0.3,-0.55,0.15,0.28,0.98,1000
16:16:32.146,15.76,-8.16,-237.36,-0.18,-0.3,-0.37,0.15,0.28,0.98,1000
16:16:32.148,15.76,-8.16,-237.36,-0.24,-0.37,-0.37,0.14,0.28,0.98,1000
16:16:32.162,15.76,-8.16,-237.36,-0.3,-0.24,-0.43,0.14,0.28,0.98,1000
16:16:32.165,15.76,-8.16,-237.36,-0.24,-0.3,-0.3,0.15,0.28,0.98,1000
16:16:32.165,15.76,-8.16,-237.36,-0.12,-0.18,-0.43,0.15,0.28,0.98,1000
16:16:32.165,15.76,-8.16,-237.36,-0.24,-0.24,-0.49,0.15,0.28,0.98,1000
16:16:32.165,15.76,-8.16,-237.36,0.0,-0.24,-0.61,0.15,0.28,0.98,1000
16:16:32.166,15.76,-8.16,-237.36,-0.18,-0.43,-0.37,0.15,0.28,0.98,1000
16:16:32.166,15.76,-8.16,-237.36,-0.12,-0.37,-0.55,0.15,0.28,0.98,1000
16:16:32.166,15.76,-8.16,-237.36,-0.24,-0.3,-0.43,0.15,0.28,0.98,1000
16:16:32.166,15.76,-8.16,-237.36,-0.24,-0.3,-0.49,0.14,0.28,0.98,1000
16:16:32.168,15.76,-8.16,-237.36,-0.3,-0.3,-0.43,0.15,0.28,0.98,1000
16:16:32.171,15.76,-8.16,-237.36,-0.24,-0.24,-0.43,0.14,0.28,0.98,1000
16:16:32.173,15.76,-8.16,-237.36,-0.18,-0.37,-0.24,0.15,0.28,0.98,1000
16:16:32.174,15.76,-8.16,-237.37,-0.18,-0.18,-0.43,0.14,0.28,0.98,1000
16:16:32.177,15.76,-8.16,-237.37,-0.24,-0.3,-0.43,0.14,0.28,0.98,1000
16:16:32.179,15.76,-8.16,-237.37,-0.37,-0.3,-0.43,0.14,0.28,0.98,1000
16:16:32.180,15.76,-8.16,-237.37,-0.18,-0.37,-0.37,0.14,0.28,0.98,1000
16:16:32.182,15.76,-8.16,-237.37,-0.18,-0.37,-0.43,0.14,0.28,0.98,1000
16:16:32.184,15.76,-8.16,-237.37,-0.12,-0.37,-0.49,0.14,0.28,0.98,1000
16:16:32.186,15.76,-8.16,-237.37,-0.12,-0.18,-0.37,0.15,0.28,0.98,1000
16:16:32.188,15.76,-8.16,-237.37,-0.06,-0.37,-0.49,0.14,0.28,0.98,1000
16:16:32.190,15.76,-8.16,-237.37,-0.12,-0.3,-0.49,0.15,0.28,0.98,1000
16:16:32.192,15.76,-8.16,-237.37,-0.24,-0.37,-0.43,0.15,0.28,0.98,1000
16:16:32.195,15.76,-8.16,-237.37,-0.12,-0.24,-0.55,0.14,0.28,0.98,1000
16:16:32.196,15.76,-8.16,-237.37,-0.24,-0.37,-0.49,0.14,0.28,0.98,1000
16:16:32.198,15.76,-8.16,-237.37,-0.24,-0.12,-0.37,0.14,0.28,0.98,1000
16:16:32.200,15.76,-8.16,-237.37,-0.24,-0.37,-0.37,0.14,0.28,0.97,1000
16:16:32.202,15.76,-8.16,-237.37,-0.37,-0.43,-0.43,0.15,0.28,0.98,1000
16:16:32.204,15.76,-8.16,-237.37,-0.12,-0.24,-0.37,0.14,0.28,0.98,1000
16:16:32.206,15.76,-8.16,-237.38,-0.24,-0.37,-0.37,0.14,0.28,0.98,1000
16:16:32.208,15.76,-8.16,-237.38,-0.3,-0.3,-0.3,0.14,0.28,0.98,1000
16:16:32.210,15.76,-8.16,-237.38,-0.3,-0.37,-0.43,0.14,0.28,0.98,1000
16:16:32.212,15.76,-8.16,-237.38,-0.18,-0.3,-0.37,0.15,0.28,0.98,1000
16:16:32.214,15.76,-8.16,-237.38,-0.37,-0.43,-0.43,0.15,0.28,0.98,1000
16:16:32.217,15.76,-8.16,-237.38,-0.3,-0.18,-0.37,0.14,0.28,0.98,1000
16:16:32.218,15.76,-8.16,-237.38,-0.24,-0.18,-0.49,0.14,0.28,0.98,1000
16:16:32.220,15.76,-8.16,-237.38,-0.18,-0.3,-0.49,0.15,0.28,0.98,1000
16:16:32.224,15.76,-8.16,-237.38,-0.24,-0.18,-0.55,0.14,0.28,0.98,1000
16:16:32.224,15.76,-8.16,-237.38,-0.24,-0.3,-0.37,0.14,0.28,0.98,1000
16:16:32.230,15.76,-8.16,-237.38,-0.18,-0.18,-0.37,0.15,0.28,0.98,1000
16:16:32.230,15.76,-8.16,-237.38,-0.18,0.0,-0.55,0.14,0.28,0.98,1000
16:16:32.230,15.76,-8.16,-237.38,-0.18,-0.24,-0.49,0.15,0.28,0.98,1000
16:16:32.232,15.76,-8.16,-237.38,-0.24,-0.3,-0.49,0.15,0.28,0.98,1000
16:16:32.234,15.76,-8.16,-237.38,-0.3,-0.24,-0.43,0.14,0.28,0.98,1000
16:16:32.236,15.76,-8.16,-237.38,-0.18,-0.3,-0.37,0.14,0.28,0.98,1000
16:16:32.239,15.76,-8.16,-237.38,-0.18,-0.18,-0.24,0.14,0.28,0.98,1000
16:16:32.240,15.76,-8.16,-237.38,-0.18,-0.18,-0.37,0.14,0.28,0.98,1000
16:16:32.242,15.76,-8.16,-237.38,-0.18,-0.3,-0.43,0.15,0.28,0.98,1000
16:16:32.244,15.76,-8.16,-237.38,-0.24,-0.3,-0.55,0.14,0.28,0.98,1000
16:16:32.247,15.76,-8.16,-237.39,-0.24,-0.3,-0.49,0.15,0.28,0.98,1000
16:16:32.262,15.76,-8.16,-237.39,-0.18,-0.24,-0.43,0.15,0.28,0.98,1000
16:16:32.263,15.76,-8.16,-237.39,-0.06,-0.18,-0.55,0.15,0.28,0.98,1000
16:16:32.263,15.76,-8.16,-237.39,-0.12,-0.37,-0.37,0.15,0.28,0.98,1000
16:16:32.263,15.76,-8.16,-237.39,-0.18,-0.24,-0.43,0.14,0.28,0.98,1000
16:16:32.263,15.76,-8.16,-237.39,-0.3,-0.18,-0.49,0.15,0.28,0.98,1000
16:16:32.263,15.76,-8.16,-237.39,-0.3,-0.37,-0.37,0.14,0.28,0.98,1000
16:16:32.263,15.76,-8.16,-237.39,-0.18,-0.37,-0.43,0.14,0.28,0.98,1000
16:16:32.263,15.76,-8.16,-237.39,-0.18,-0.37,-0.43,0.14,0.28,0.98,1000
16:16:32.265,15.76,-8.16,-237.39,-0.24,-0.3,-0.49,0.15,0.28,0.98,1000
16:16:32.266,15.76,-8.16,-237.39,-0.3,-0.24,-0.43,0.15,0.28,0.98,1000
