Timestamp,Roll,Pitch,Yaw,Gyro_X,Gyro_Y,Gyro_Z,Accel_X,Accel_Y,Accel_Z,Throttle
17:13:41.142,-1.66,-1.71,10.36,-0.12,-1.4,3.78,0.05,-0.04,1.02,1000
17:13:41.151,-1.73,-1.93,10.41,0.85,-1.1,4.39,0.06,-0.04,1.04,1000
17:13:41.162,-1.78,-2.17,10.46,1.65,-0.3,3.41,0.05,-0.04,1.03,1000
17:13:41.175,-1.83,-2.28,10.48,1.95,0.43,1.22,0.04,-0.05,1.04,1000
17:13:41.184,-1.87,-2.29,10.48,2.07,0.73,-1.1,0.03,-0.03,1.03,1000
17:13:41.196,-1.87,-2.21,10.46,1.04,0.49,-2.56,0.03,-0.04,1.03,1000
17:13:41.206,-1.93,-2.15,10.43,-0.3,0.0,-2.62,0.05,-0.03,1.02,1000
17:13:41.221,-1.9,-2.19,10.41,-1.89,-0.91,-0.85,0.04,-0.02,1.03,1000
17:13:41.229,-1.85,-2.23,10.41,-3.84,-2.5,0.3,0.04,-0.05,1.02,1000
17:13:41.240,-1.91,-2.31,10.42,-4.39,-3.41,2.26,0.06,-0.02,1.03,1000
17:13:41.250,-1.87,-2.48,10.45,-4.51,-3.48,3.54,0.05,-0.03,1.03,1000
17:13:41.272,-1.86,-2.57,10.49,-4.02,-2.74,3.17,0.04,-0.04,1.04,1000
17:13:41.275,-1.89,-2.58,10.52,-2.93,-1.59,1.77,0.04,-0.04,1.03,1000
17:13:41.284,-1.94,-2.55,10.53,-2.32,-0.43,1.1,0.04,-0.04,1.04,1000
17:13:41.296,-2.03,-2.54,10.55,-0.98,0.12,1.59,0.06,-0.05,1.03,1000
17:13:41.305,-2.13,-2.64,10.56,0.0,0.3,2.56,0.06,-0.03,1.05,1000
17:13:41.321,-2.11,-2.77,10.6,1.59,0.3,2.74,0.06,-0.05,1.04,1000
17:13:41.327,-2.18,-2.88,10.63,3.84,0.55,2.5,0.07,-0.05,1.06,1000
17:13:41.342,-2.2,-3.0,10.65,5.61,0.67,0.79,0.05,-0.02,1.05,1000
17:13:41.349,-2.07,-2.99,10.64,6.89,0.85,-2.2,0.03,-0.05,1.05,1000
17:13:41.402,-2.05,-2.86,10.6,6.89,0.67,-5.06,0.03,-0.05,1.02,1000
17:13:41.402,-2.09,-2.72,10.54,6.95,0.37,-5.79,0.07,-0.05,1.03,1000
17:13:41.402,-2.21,-2.83,10.48,8.05,0.0,-3.11,0.11,-0.07,1.04,1000
17:13:41.402,-2.25,-3.22,10.46,8.6,-0.55,-1.83,0.1,-0.01,1.08,1000
17:13:41.405,-2.08,-3.47,10.43,9.57,-1.28,-3.41,0.07,-0.03,1.07,1000
17:13:41.428,-1.85,-3.58,10.37,11.95,-1.77,-7.56,0.04,-0.03,1.07,1000
17:13:41.428,-1.65,-3.43,10.27,14.27,-2.13,-12.38,0.02,-0.02,1.03,1000
17:13:41.437,-1.47,-3.11,10.12,14.82,-2.2,-16.4,0.01,-0.02,1.02,1000
17:13:41.448,-1.26,-2.66,9.91,12.93,-1.71,-16.83,0.03,-0.02,0.98,1000
17:13:41.459,-1.08,-2.54,9.75,8.48,-1.04,-12.74,0.07,0.0,1.01,1000
17:13:41.470,-0.74,-2.71,9.63,4.82,0.12,-7.44,0.07,0.01,0.99,1000
17:13:41.481,-0.46,-2.92,9.58,1.83,1.77,-2.62,0.06,0.0,1.02,1000
17:13:41.492,-0.22,-3.0,9.56,0.0,2.8,-0.18,0.04,0.01,1.01,1000
17:13:41.507,-0.1,-2.92,9.56,-0.06,3.66,-0.12,0.03,-0.01,1.03,1000
17:13:41.515,-0.07,-2.69,9.55,0.73,4.82,-2.07,0.01,-0.0,1.01,1000
17:13:41.527,-0.07,-2.29,9.52,2.32,5.18,-3.84,0.01,-0.01,1.01,1000
17:13:41.536,-0.1,-1.94,9.48,3.66,5.37,-3.9,0.03,-0.0,0.99,1000
17:13:41.547,-0.04,-1.81,9.44,4.88,4.45,-1.83,0.05,0.0,1.02,1000
17:13:41.558,0.05,-1.88,9.43,5.98,3.54,0.49,0.04,0.0,1.02,1000
17:13:41.569,0.15,-1.89,9.44,6.65,1.89,0.98,0.01,0.0,1.03,1000
17:13:41.580,0.2,-1.76,9.45,6.04,0.61,-0.43,0.0,-0.02,1.02,1000
17:13:41.591,0.13,-1.45,9.43,4.09,-0.91,-2.2,-0.01,-0.0,1.02,1000
17:13:41.602,0.02,-1.12,9.41,1.34,-2.01,-2.74,0.01,-0.02,1.0,1000
17:13:41.630,-0.1,-1.01,9.38,-1.95,-2.93,-1.28,0.03,0.02,1.01,1000
17:13:41.633,-0.04,-1.06,9.38,-5.18,-3.41,0.67,0.02,0.01,1.0,1000
17:13:41.635,0.03,-1.13,9.39,-6.77,-3.66,2.38,0.02,0.01,1.01,1000
17:13:41.646,0.04,-1.26,9.43,-7.44,-3.48,4.7,0.05,0.01,1.01,1000
17:13:41.657,0.05,-1.48,9.49,-6.89,-3.17,5.55,0.04,-0.0,1.02,1000
17:13:41.670,-0.02,-1.65,9.55,-6.95,-3.05,5.12,0.03,-0.02,1.03,1000
17:13:41.679,-0.14,-1.7,9.59,-6.04,-2.8,3.29,0.03,-0.01,1.02,1000
17:13:41.698,-0.3,-1.73,9.63,-5.24,-2.87,2.01,0.04,-0.02,1.03,1000
17:13:41.705,-0.43,-1.78,9.65,-4.7,-2.8,2.07,0.05,-0.02,1.02,1000
17:13:41.714,-0.56,-1.91,9.67,-3.96,-2.74,2.87,0.05,-0.02,1.04,1000
17:13:41.735,-0.71,-2.15,9.71,-2.8,-2.56,4.15,0.07,-0.02,1.03,1000
17:13:41.735,-0.86,-2.53,9.76,-1.04,-2.01,5.43,0.08,-0.02,1.05,1000
17:13:41.745,-0.89,-2.8,9.82,-0.55,-1.46,4.33,0.05,-0.01,1.05,1000
17:13:41.756,-0.91,-2.93,9.85,-0.18,-0.73,2.01,0.05,-0.02,1.04,1000
17:13:41.767,-0.98,-2.98,9.87,-0.12,-0.24,0.49,0.06,-0.02,1.04,1000
17:13:41.778,-1.02,-3.05,9.87,0.67,0.12,-0.55,0.08,-0.05,1.02,1000
17:13:41.789,-1.17,-3.26,9.87,1.34,0.24,-0.18,0.09,-0.02,1.04,1000
17:13:41.800,-1.19,-3.58,9.87,2.74,0.43,-0.12,0.09,-0.0,1.05,1000
17:13:41.815,-1.04,-3.88,9.86,3.35,0.67,-1.16,0.08,-0.0,1.07,1000
17:13:41.822,-0.91,-3.97,9.84,3.35,0.3,-3.9,0.06,-0.02,1.05,1000
17:13:41.842,-0.83,-3.9,9.78,3.05,-0.24,-6.83,0.03,-0.02,1.05,1000
17:13:41.845,-0.81,-3.64,9.69,1.28,-0.79,-9.09,0.03,-0.01,1.03,1000
17:13:41.855,-0.71,-3.32,9.59,-2.01,-1.28,-9.45,0.02,0.03,1.02,1000
17:13:41.866,-0.56,-3.01,9.49,-5.49,-2.13,-7.56,0.03,-0.01,0.99,1000
17:13:41.877,-0.51,-2.79,9.43,-8.05,-2.2,-3.66,0.04,-0.01,0.99,1000
17:13:41.888,-0.55,-2.76,9.41,-9.76,-2.5,1.71,0.09,-0.01,1.0,1000
17:13:41.899,-0.58,-3.11,9.47,-9.51,-2.07,7.62,0.08,0.01,1.03,1000
17:13:41.910,-0.5,-3.37,9.56,-8.41,-0.85,7.68,0.05,-0.02,1.04,1000
17:13:41.921,-0.55,-3.38,9.63,-5.91,0.37,4.39,0.04,-0.02,1.04,1000
17:13:41.941,-0.67,-3.16,9.65,-2.93,1.59,-0.98,0.02,-0.02,1.04,1000
17:13:41.943,-0.85,-2.76,9.61,-1.46,1.77,-6.34,0.01,-0.03,1.04,1000
17:13:41.954,-1.0,-2.36,9.53,-1.83,1.22,-9.09,0.02,-0.01,1.03,1000
17:13:41.965,-1.02,-2.14,9.43,-2.87,-0.55,-8.23,0.04,-0.02,1.01,1000
17:13:41.976,-1.09,-2.14,9.36,-3.48,-2.26,-4.33,0.07,-0.03,1.0,1000
17:13:41.987,-1.13,-2.39,9.33,-4.39,-3.17,0.43,0.08,0.01,1.03,1000
17:13:42.002,-1.06,-2.72,9.36,-4.57,-3.11,3.23,0.06,-0.03,1.04,1000
17:13:42.024,-1.11,-2.86,9.39,-4.39,-2.01,2.68,0.04,-0.02,1.05,1000
17:13:42.024,-1.14,-2.83,9.4,-3.72,-0.37,-0.61,0.03,-0.03,1.04,1000
17:13:42.039,-1.21,-2.68,9.38,-2.99,1.16,-4.09,0.02,-0.04,1.05,1000
17:13:42.044,-1.33,-2.45,9.33,-2.5,1.16,-5.67,0.03,-0.05,1.01,1000
17:13:42.054,-1.51,-2.44,9.27,-1.4,0.73,-3.35,0.09,-0.01,1.05,1000
17:13:42.064,-1.47,-2.66,9.25,0.49,0.98,-1.16,0.07,-0.01,1.03,1000
17:13:42.076,-1.38,-2.9,9.24,1.04,1.04,-0.18,0.05,-0.03,1.07,1000
17:13:42.088,-1.31,-2.93,9.24,1.71,1.52,-1.22,0.04,-0.03,1.03,1000
17:13:42.098,-1.31,-2.87,9.22,1.95,1.83,-2.01,0.04,-0.03,1.06,1000
17:13:42.108,-1.34,-2.72,9.2,1.22,2.07,-2.62,0.03,-0.02,1.02,1000
17:13:42.121,-1.31,-2.51,9.17,-0.61,1.34,-2.68,0.02,-0.02,1.04,1000
17:13:42.142,-1.3,-2.3,9.14,-1.95,0.61,-1.4,0.04,-0.03,0.99,1000
17:13:42.144,-1.31,-2.2,9.14,-2.93,-0.3,1.1,0.04,-0.01,1.03,1000
17:13:42.152,-1.27,-2.21,9.17,-2.93,-1.34,3.72,0.06,-0.02,1.01,1000
17:13:42.163,-1.16,-2.38,9.22,-2.44,-1.77,5.24,0.05,0.0,1.05,1000
17:13:42.175,-1.02,-2.45,9.27,-2.01,-2.01,4.27,0.04,-0.03,1.03,1000
17:13:42.185,-1.03,-2.44,9.31,-0.55,-1.71,1.65,0.03,-0.02,1.04,1000
17:13:42.197,-1.07,-2.37,9.31,-0.73,-1.83,-1.34,0.03,-0.04,1.03,1000
17:13:42.207,-1.17,-2.25,9.28,-0.91,-1.83,-3.23,0.04,-0.03,1.03,1000
17:13:42.218,-1.27,-2.22,9.25,-1.71,-2.2,-3.48,0.05,-0.02,1.03,1000
17:13:42.229,-1.3,-2.33,9.21,-0.98,-2.38,-2.38,0.07,-0.04,1.01,1000
17:13:42.241,-1.44,-2.72,9.2,1.71,-2.2,0.3,0.11,-0.05,1.02,1000
17:13:42.251,-1.53,-3.27,9.21,5.18,-1.04,1.65,0.12,-0.02,1.05,1000
17:13:42.267,-1.44,-3.89,9.22,8.23,0.55,0.24,0.11,-0.02,1.08,1000
17:13:42.273,-1.33,-4.24,9.21,10.79,2.5,-3.72,0.08,-0.04,1.08,1000
17:13:42.284,-1.31,-4.25,9.14,13.29,4.33,-9.21,0.05,-0.05,1.06,1000
17:13:42.295,-1.38,-4.04,9.03,14.82,5.55,-13.78,0.05,-0.05,1.05,1000
17:13:42.307,-1.42,-3.77,8.84,16.1,6.46,-16.4,0.06,-0.02,1.02,1000
17:13:42.317,-1.35,-3.59,8.67,15.73,7.26,-15.43,0.07,-0.03,1.02,1000
17:13:42.328,-1.17,-3.53,8.51,12.99,8.05,-12.13,0.06,0.01,1.02,1000
17:13:42.339,-0.75,-3.4,8.39,9.09,8.48,-9.57,0.03,0.01,1.01,1000
17:13:42.352,-0.43,-3.05,8.29,4.7,8.35,-7.74,0.02,0.0,0.99,1000
17:13:42.362,-0.25,-2.7,8.22,0.85,7.62,-5.61,0.03,0.01,1.0,1000
17:13:42.372,-0.09,-2.42,8.17,-2.99,6.28,-4.09,0.02,0.02,1.0,1000
17:13:42.383,0.1,-2.09,8.12,-5.98,4.51,-3.96,0.01,0.03,1.0,1000
17:13:42.394,0.31,-1.73,8.08,-7.62,2.62,-4.45,0.0,0.02,1.0,1000
17:13:42.405,0.39,-1.43,8.03,-7.56,1.34,-4.82,0.01,0.01,1.01,1000
17:13:42.416,0.39,-1.2,7.98,-6.65,-0.06,-4.21,0.01,0.0,1.02,1000
17:13:42.428,0.31,-1.06,7.94,-5.49,-1.59,-3.05,0.02,-0.01,1.02,1000
17:13:42.456,0.17,-1.04,7.91,-4.27,-2.13,-1.71,0.02,0.0,1.03,1000
17:13:42.456,0.1,-1.02,7.89,-2.8,-2.2,-1.71,-0.0,-0.01,1.03,1000
17:13:42.460,-0.07,-0.87,7.87,-2.07,-1.95,-2.68,-0.0,-0.02,1.04,1000
17:13:42.471,-0.23,-0.69,7.84,-2.26,-1.59,-3.05,0.0,-0.01,1.02,1000
17:13:42.485,-0.36,-0.54,7.8,-3.05,-1.16,-2.93,0.0,-0.01,1.03,1000
17:13:42.493,-0.43,-0.43,7.77,-4.7,-1.1,-2.38,0.0,-0.01,1.01,1000
17:13:42.505,-0.45,-0.34,7.75,-6.46,-0.55,-1.04,0.01,0.0,1.02,1000
17:13:42.515,-0.42,-0.3,7.75,-8.17,0.06,1.28,0.01,0.01,1.01,1000
17:13:42.527,-0.39,-0.31,7.78,-9.45,0.12,3.78,0.02,-0.01,1.02,1000
17:13:42.537,-0.44,-0.4,7.83,-10.91,-0.37,6.22,0.01,-0.0,1.02,1000
17:13:42.548,-0.48,-0.45,7.91,-11.95,-0.85,7.07,0.01,-0.01,1.03,1000
17:13:42.560,-0.58,-0.5,7.99,-11.95,-1.4,7.26,0.01,-0.01,1.02,1000
17:13:42.572,-0.68,-0.55,8.07,-11.4,-2.01,6.89,0.02,-0.02,1.03,1000
17:13:42.581,-0.85,-0.65,8.14,-10.37,-2.32,6.59,0.03,-0.03,1.03,1000
17:13:42.593,-1.07,-0.89,8.21,-8.9,-2.44,6.28,0.05,-0.03,1.04,1000
17:13:42.603,-1.23,-1.17,8.27,-7.26,-2.2,5.91,0.05,-0.04,1.04,1000
17:13:42.617,-1.41,-1.53,8.33,-5.12,-1.83,5.0,0.06,-0.04,1.06,1000
17:13:42.626,-1.55,-1.8,8.38,-2.74,-1.16,2.93,0.04,-0.04,1.05,1000
17:13:42.662,-1.71,-1.98,8.4,-1.22,-0.85,1.1,0.04,-0.05,1.06,1000
17:13:42.662,-1.86,-2.07,8.41,-0.37,-0.91,-0.3,0.04,-0.05,1.04,1000
17:13:42.662,-2.04,-2.19,8.4,0.37,-0.91,0.06,0.07,-0.05,1.04,1000
17:13:42.670,-2.12,-2.45,8.41,0.61,-0.49,1.65,0.08,-0.03,1.04,1000
17:13:42.681,-2.09,-2.76,8.44,0.18,0.18,2.2,0.07,-0.04,1.05,1000
17:13:42.692,-2.08,-2.97,8.46,1.16,1.46,1.4,0.07,-0.04,1.04,1000
17:13:42.702,-2.07,-3.13,8.46,1.83,2.68,-0.24,0.07,-0.02,1.05,1000
17:13:42.717,-1.96,-3.21,8.45,2.56,3.17,-2.38,0.05,-0.03,1.03,1000
17:13:42.724,-1.88,-3.18,8.42,2.5,2.32,-3.96,0.04,-0.03,1.05,1000
17:13:42.735,-1.8,-3.03,8.37,1.71,0.67,-4.94,0.04,-0.03,1.02,1000
17:13:42.767,-1.8,-2.93,8.31,1.71,-0.91,-4.39,0.06,-0.05,1.02,1000
17:13:42.767,-1.83,-3.04,8.28,2.5,-1.28,-2.13,0.09,-0.03,1.01,1000
17:13:42.768,-1.82,-3.34,8.26,4.88,-0.85,0.18,0.1,-0.03,1.06,1000
17:13:42.779,-1.67,-3.7,8.27,7.87,0.67,-0.3,0.07,0.0,1.07,1000
17:13:42.790,-1.5,-3.77,8.25,9.76,2.74,-3.9,0.04,-0.05,1.07,1000
17:13:42.801,-1.52,-3.43,8.18,10.61,4.76,-9.02,0.0,-0.03,1.04,1000
17:13:42.812,-1.5,-2.92,8.06,10.55,5.98,-12.44,0.02,-0.04,1.02,1000
17:13:42.823,-1.52,-2.51,7.92,8.84,6.77,-12.26,0.04,-0.02,1.01,1000
17:13:42.838,-1.44,-2.31,7.8,6.22,6.65,-9.57,0.05,0.0,1.01,1000
17:13:42.855,-1.25,-2.26,7.71,2.99,5.98,-6.65,0.02,0.01,1.01,1000
17:13:42.865,-0.98,-2.06,7.65,0.0,4.63,-5.37,0.01,-0.01,1.0,1000
17:13:42.871,-0.8,-1.73,7.59,-1.4,3.41,-4.57,-0.0,-0.0,1.0,1000
17:13:42.878,-0.69,-1.43,7.54,-2.2,2.01,-3.72,0.01,-0.01,0.99,1000
17:13:42.890,-0.64,-1.21,7.51,-2.38,0.79,-2.62,0.02,0.01,1.01,1000
17:13:42.900,-0.55,-1.07,7.48,-1.77,0.06,-2.32,0.01,-0.01,1.02,1000
17:13:42.911,-0.5,-0.98,7.46,-1.22,0.0,-1.77,0.01,-0.01,1.02,1000
17:13:42.925,-0.49,-0.88,7.44,-0.85,0.18,-2.13,0.01,-0.01,1.03,1000
17:13:42.933,-0.51,-0.75,7.41,-0.85,0.43,-2.56,-0.0,-0.02,1.03,1000
17:13:42.944,-0.61,-0.59,7.38,-1.4,0.3,-2.68,0.0,-0.01,1.02,1000
17:13:42.956,-0.7,-0.47,7.36,-1.83,0.37,-2.01,0.01,-0.03,1.02,1000
17:13:42.966,-0.8,-0.44,7.34,-3.17,0.18,-0.49,0.02,-0.01,1.03,1000
17:13:42.977,-0.81,-0.46,7.34,-3.72,-0.06,0.12,0.0,-0.01,1.02,1000
17:13:42.988,-0.79,-0.43,7.34,-4.88,-0.43,0.18,0.01,-0.01,1.03,1000
17:13:43.000,-0.76,-0.42,7.34,-5.49,-0.91,0.3,0.01,-0.01,1.01,1000
17:13:43.010,-0.74,-0.45,7.35,-5.79,-1.65,0.91,0.01,-0.01,1.03,1000
17:13:43.023,-0.76,-0.49,7.36,-6.28,-2.56,1.65,0.02,-0.03,1.01,1000
17:13:43.033,-0.87,-0.58,7.38,-6.83,-3.05,2.38,0.03,-0.01,1.04,1000
17:13:43.046,-0.94,-0.69,7.41,-7.07,-3.17,2.62,0.01,-0.02,1.02,1000
17:13:43.061,-1.07,-0.75,7.44,-7.2,-2.8,1.83,0.02,-0.02,1.04,1000
17:13:43.068,-1.18,-0.8,7.45,-7.13,-2.5,1.28,0.02,-0.03,1.02,1000
17:13:43.078,-1.3,-0.9,7.47,-7.44,-1.95,1.52,0.04,-0.02,1.04,1000
17:13:43.089,-1.37,-1.07,7.48,-7.44,-1.4,1.83,0.03,-0.03,1.02,1000
17:13:43.098,-1.5,-1.2,7.51,-6.59,-0.67,2.38,0.05,-0.05,1.03,1000
17:13:43.109,-1.69,-1.51,7.54,-5.91,-0.18,3.54,0.07,-0.02,1.04,1000
17:13:43.120,-1.69,-1.79,7.58,-4.63,0.12,3.05,0.04,-0.03,1.05,1000
17:13:43.131,-1.75,-1.9,7.6,-3.05,-0.18,1.1,0.02,-0.04,1.04,1000
17:13:43.146,-1.81,-1.89,7.6,-1.46,-0.61,-0.79,0.03,-0.04,1.04,1000
17:13:43.153,-1.87,-1.87,7.59,-1.1,-1.16,-1.95,0.03,-0.04,1.04,1000
17:13:43.168,-1.96,-1.86,7.57,0.12,-1.89,-1.83,0.05,-0.05,1.02,1000
17:13:43.178,-2.03,-2.01,7.56,0.61,-1.65,-0.12,0.06,-0.02,1.04,1000
17:13:43.186,-1.94,-2.16,7.56,0.55,-1.22,0.55,0.03,-0.02,1.03,1000
17:13:43.197,-1.84,-2.17,7.57,-0.55,-1.22,0.67,0.03,-0.04,1.04,1000
17:13:43.208,-1.86,-2.11,7.57,-1.83,-1.46,0.49,0.04,-0.03,1.02,1000
17:13:43.219,-1.85,-2.07,7.57,-2.93,-1.83,0.24,0.03,-0.03,1.04,1000
17:13:43.230,-1.87,-2.01,7.57,-4.39,-2.38,-0.24,0.02,-0.03,1.02,1000
17:13:43.241,-1.87,-1.93,7.57,-4.82,-3.05,-0.67,0.03,-0.02,1.03,1000
17:13:43.262,-1.81,-1.88,7.57,-5.49,-3.48,-0.12,0.03,-0.02,1.02,1000
17:13:43.267,-1.79,-1.84,7.57,-6.4,-3.54,0.55,0.03,-0.03,1.02,1000
17:13:43.274,-1.82,-1.8,7.58,-7.2,-3.23,1.52,0.03,-0.04,1.01,1000
17:13:43.285,-1.94,-1.85,7.6,-6.77,-2.93,2.87,0.05,-0.05,1.02,1000
17:13:43.297,-2.09,-2.04,7.64,-5.79,-1.95,4.02,0.07,-0.04,1.03,1000
17:13:43.307,-2.14,-2.29,7.68,-3.17,-0.06,3.35,0.06,-0.04,1.04,1000
17:13:43.317,-2.2,-2.43,7.71,-0.67,1.71,1.22,0.04,-0.05,1.05,1000
17:13:43.332,-2.27,-2.38,7.71,1.4,2.74,-2.01,0.02,-0.05,1.04,1000
17:13:43.341,-2.36,-2.19,7.68,2.56,2.74,-4.15,0.03,-0.06,1.04,1000
17:13:43.351,-2.45,-2.04,7.63,2.56,1.89,-4.45,0.03,-0.04,1.03,1000
17:13:43.376,-2.46,-1.96,7.58,2.01,0.67,-3.05,0.04,-0.05,1.03,1000
17:13:43.377,-2.47,-1.97,7.56,1.16,-0.61,-1.04,0.04,-0.05,1.02,1000
17:13:43.385,-2.45,-2.07,7.56,0.12,-0.98,1.22,0.06,-0.03,1.04,1000
17:13:43.395,-2.35,-2.17,7.58,-0.55,-0.85,1.34,0.03,-0.03,1.04,1000
17:13:43.406,-2.27,-2.13,7.58,-1.46,-0.49,-0.37,0.02,-0.04,1.04,1000
17:13:43.417,-2.28,-1.92,7.57,-2.56,-0.3,-2.62,0.02,-0.04,1.02,1000
17:13:43.432,-2.32,-1.78,7.54,-3.54,-0.3,-3.05,0.03,-0.04,1.03,1000
17:13:43.444,-2.35,-1.72,7.51,-4.02,-0.91,-2.13,0.04,-0.05,1.02,1000
17:13:43.454,-2.39,-1.77,7.49,-4.02,-1.34,-0.37,0.05,-0.03,1.04,1000
17:13:43.477,-2.36,-1.96,7.5,-2.8,-1.04,1.16,0.06,-0.03,1.04,1000
17:13:43.477,-2.29,-2.16,7.51,-1.46,0.37,1.1,0.05,-0.04,1.04,1000
17:13:43.483,-2.25,-2.24,7.52,-0.43,2.01,-0.61,0.04,-0.05,1.04,1000
17:13:43.494,-2.28,-2.2,7.5,0.0,2.99,-3.05,0.03,-0.05,1.04,1000
17:13:43.505,-2.39,-2.09,7.46,0.61,3.66,-4.39,0.04,-0.06,1.02,1000
17:13:43.518,-2.5,-2.07,7.41,1.16,3.78,-4.15,0.05,-0.04,1.03,1000
17:13:43.530,-2.49,-2.1,7.37,1.22,3.41,-3.78,0.04,-0.04,1.04,1000
17:13:43.540,-2.45,-2.07,7.33,1.34,2.56,-3.72,0.02,-0.04,1.03,1000
17:13:43.551,-2.4,-1.93,7.28,0.98,1.28,-3.9,0.02,-0.04,1.03,1000
17:13:43.560,-2.34,-1.8,7.24,0.12,-0.3,-3.41,0.02,-0.04,1.02,1000
17:13:43.580,-2.33,-1.7,7.21,-0.49,-1.59,-2.56,0.03,-0.05,1.02,1000
17:13:43.586,-2.33,-1.66,7.19,-1.34,-2.2,-1.4,0.03,-0.03,1.03,1000
17:13:43.593,-2.27,-1.64,7.18,-2.32,-2.5,-0.67,0.02,-0.04,1.02,1000
17:13:43.604,-2.25,-1.55,7.17,-2.87,-2.2,-0.49,0.01,-0.04,1.02,1000
17:13:43.615,-2.27,-1.44,7.17,-3.6,-1.83,0.3,0.03,-0.04,1.02,1000
17:13:43.626,-2.29,-1.42,7.17,-3.84,-1.1,1.04,0.03,-0.04,1.02,1000
17:13:43.638,-2.32,-1.43,7.18,-3.54,0.18,1.28,0.03,-0.05,1.01,1000
17:13:43.651,-2.39,-1.5,7.2,-2.62,1.16,1.52,0.04,-0.04,1.02,1000
17:13:43.665,-2.4,-1.61,7.21,-1.71,2.5,0.98,0.04,-0.04,1.03,1000
17:13:43.673,-2.4,-1.65,7.22,-0.73,2.87,-0.3,0.02,-0.05,1.03,1000
17:13:43.684,-2.45,-1.6,7.21,-0.24,2.38,-1.83,0.02,-0.05,1.02,1000
17:13:43.695,-2.5,-1.54,7.18,0.0,1.28,-2.07,0.02,-0.05,1.02,1000
17:13:43.706,-2.56,-1.51,7.16,-0.49,-0.3,-1.46,0.03,-0.05,1.02,1000
17:13:43.719,-2.61,-1.53,7.15,-0.55,-1.46,-0.37,0.04,-0.05,1.01,1000
17:13:43.725,-2.64,-1.65,7.15,-0.85,-1.77,1.52,0.05,-0.04,1.04,1000
17:13:43.736,-2.57,-1.84,7.17,-0.79,-1.46,1.77,0.04,-0.04,1.03,1000
17:13:43.751,-2.56,-1.94,7.19,-0.79,-0.18,0.55,0.03,-0.04,1.04,1000
17:13:43.760,-2.57,-1.95,7.19,-1.28,0.61,-1.16,0.03,-0.05,1.03,1000
17:13:43.770,-2.62,-1.88,7.17,-2.01,1.16,-2.62,0.03,-0.05,1.03,1000
17:13:43.793,-2.71,-1.79,7.13,-2.2,1.1,-3.54,0.04,-0.06,1.01,1000
17:13:43.793,-2.78,-1.8,7.09,-2.01,0.24,-2.8,0.04,-0.05,1.03,1000
17:13:43.802,-2.79,-1.88,7.07,-0.24,-0.67,-1.89,0.04,-0.06,1.02,1000
17:13:43.813,-2.77,-1.94,7.05,2.56,-2.13,-1.59,0.03,-0.04,1.04,1000
17:13:43.824,-2.64,-1.94,7.03,5.55,-3.78,-1.22,0.02,-0.03,1.04,1000
17:13:43.863,-2.45,-1.89,7.02,8.96,-6.04,-1.22,0.02,-0.05,1.04,1000
17:13:43.863,-2.32,-1.87,7.01,11.89,-8.17,-0.06,0.03,-0.05,1.06,1000
17:13:43.864,-2.2,-1.87,7.01,14.02,-9.7,0.98,0.02,-0.05,1.05,1000
17:13:43.894,-2.2,-1.82,7.03,15.18,-9.57,1.95,0.03,-0.07,1.05,1000
17:13:43.913,-2.24,-1.84,7.06,15.79,-8.17,3.6,0.04,-0.05,1.04,1000
17:13:43.914,-2.2,-1.95,7.11,14.76,-6.28,5.06,0.05,-0.05,1.05,1000
17:13:43.914,-2.12,-2.09,7.17,13.11,-3.78,5.79,0.05,-0.02,1.04,1000
17:13:43.915,-1.98,-2.25,7.23,12.01,-1.04,5.18,0.06,-0.04,1.03,1000
17:13:43.923,-1.82,-2.4,7.28,10.67,1.4,3.84,0.04,-0.0,1.03,1000
17:13:43.953,-1.55,-2.41,7.31,7.93,2.38,0.43,0.02,-0.02,1.02,1000
17:13:43.955,-1.33,-2.26,7.3,3.84,2.38,-2.32,0.02,-0.01,1.01,1000
17:13:43.956,-1.15,-2.08,7.26,-1.22,1.28,-4.63,0.02,0.0,1.0,1000
17:13:43.991,-1.02,-1.93,7.21,-5.24,-0.55,-4.82,0.04,-0.02,0.98,1000
17:13:44.002,-1.0,-2.02,7.17,-8.17,-2.26,-2.62,0.07,0.0,0.99,1000
17:13:44.003,-0.89,-2.34,7.15,-10.55,-3.23,-0.24,0.06,0.0,1.02,1000
17:13:44.004,-0.85,-2.57,7.15,-11.77,-3.35,-0.73,0.03,-0.02,1.02,1000
17:13:44.011,-0.94,-2.56,7.13,-11.95,-3.05,-2.74,0.03,-0.03,1.02,1000
17:13:44.022,-1.15,-2.4,7.09,-11.52,-2.26,-5.12,0.02,-0.04,1.02,1000
17:13:44.051,-1.44,-2.22,7.03,-10.67,-1.46,-6.28,0.03,-0.06,1.01,1000
17:13:44.051,-1.72,-2.18,6.96,-11.04,-0.67,-5.3,0.06,-0.03,1.03,1000
17:13:44.057,-1.9,-2.24,6.91,-10.73,-0.06,-3.72,0.04,-0.04,1.02,1000
17:13:44.066,-2.09,-2.29,6.88,-10.24,0.55,-2.5,0.05,-0.05,1.03,1000
17:13:44.092,-2.31,-2.41,6.85,-7.56,1.22,-0.91,0.06,-0.06,1.01,1000
17:13:44.093,-2.44,-2.61,6.85,-5.55,1.52,0.18,0.05,-0.04,1.05,1000
17:13:44.099,-2.44,-2.66,6.85,-3.78,1.59,-0.67,0.03,-0.05,1.02,1000
17:13:44.110,-2.48,-2.54,6.84,-2.32,1.65,-2.2,0.03,-0.05,1.04,1000
17:13:44.121,-2.55,-2.37,6.81,-1.65,1.04,-2.68,0.03,-0.05,1.02,1000
17:13:44.132,-2.58,-2.25,6.78,-2.2,0.3,-2.93,0.03,-0.04,1.04,1000
17:13:44.143,-2.6,-2.1,6.75,-3.54,0.06,-2.13,0.03,-0.04,1.01,1000
17:13:44.154,-2.6,-2.06,6.73,-4.45,0.37,-0.67,0.05,-0.04,1.02,1000
17:13:44.196,-2.58,-2.21,6.73,-4.88,1.77,1.34,0.07,-0.04,1.02,1000
17:13:44.208,-2.53,-2.35,6.75,-4.57,3.17,1.71,0.03,-0.03,1.04,1000
17:13:44.209,-2.5,-2.32,6.77,-4.27,3.6,0.43,0.03,-0.05,1.03,1000
17:13:44.209,-2.56,-2.18,6.76,-3.11,3.29,-1.22,0.03,-0.05,1.03,1000
17:13:44.210,-2.64,-2.06,6.75,-2.56,1.71,-2.01,0.03,-0.06,1.04,1000
17:13:44.221,-2.72,-1.94,6.72,-2.5,-0.43,-2.07,0.02,-0.05,1.03,1000
17:13:44.232,-2.81,-1.86,6.7,-1.95,-3.05,-1.34,0.04,-0.06,1.03,1000
17:13:44.243,-2.88,-1.92,6.7,-1.34,-5.55,0.49,0.04,-0.04,1.04,1000
17:13:44.275,-2.85,-2.05,6.71,-1.34,-7.44,1.59,0.04,-0.05,1.05,1000
17:13:44.307,-2.8,-2.16,6.72,-1.34,-7.74,0.73,0.03,-0.05,1.04,1000
17:13:44.313,-2.79,-2.16,6.72,-1.89,-7.01,-0.85,0.03,-0.06,1.03,1000
17:13:44.327,-2.84,-2.17,6.71,-2.32,-5.55,-1.95,0.05,-0.05,1.03,1000
17:13:44.340,-2.87,-2.24,6.68,-2.87,-3.66,-2.32,0.05,-0.05,1.03,1000
17:13:44.341,-2.86,-2.33,6.66,-3.6,-2.01,-2.26,0.05,-0.05,1.03,1000
17:13:44.343,-2.87,-2.38,6.63,-3.96,-0.85,-2.2,0.04,-0.04,1.03,1000
17:13:44.360,-2.86,-2.4,6.61,-3.41,-0.3,-1.89,0.04,-0.05,1.02,1000
17:13:44.360,-2.84,-2.41,6.59,-2.87,-0.18,-1.1,0.04,-0.05,1.02,1000
17:13:44.378,-2.83,-2.43,6.58,-2.01,-0.67,-0.55,0.05,-0.05,1.02,1000
17:13:44.403,-2.85,-2.46,6.58,-1.89,-0.3,0.18,0.05,-0.06,1.03,1000
17:13:44.411,-2.89,-2.51,6.58,-1.52,0.79,0.43,0.05,-0.05,1.03,1000
17:13:44.415,-2.92,-2.52,6.58,-1.22,1.59,0.0,0.03,-0.06,1.03,1000
17:13:44.425,-3.0,-2.45,6.58,-0.85,2.44,-0.49,0.04,-0.07,1.02,1000
17:13:44.425,-3.1,-2.46,6.58,-0.06,3.05,0.37,0.07,-0.06,1.02,1000
17:13:44.425,-3.11,-2.6,6.59,0.91,3.48,0.91,0.05,-0.04,1.04,1000
17:13:44.429,-3.05,-2.61,6.59,0.49,3.17,-0.49,0.03,-0.06,1.04,1000
17:13:44.440,-3.03,-2.45,6.58,0.06,1.83,-2.56,0.02,-0.05,1.03,1000
17:13:44.471,-3.03,-2.22,6.54,-0.85,-0.12,-3.6,0.02,-0.05,1.02,1000
17:13:44.473,-3.04,-2.03,6.5,-1.83,-2.68,-2.62,0.04,-0.06,1.01,1000
17:13:44.476,-3.01,-2.07,6.48,-2.5,-4.27,-0.79,0.05,-0.04,1.02,1000
17:13:44.514,-2.94,-2.18,6.48,-3.35,-4.45,0.24,0.05,-0.04,1.02,1000
17:13:44.514,-2.87,-2.26,6.49,-3.72,-3.66,0.49,0.03,-0.05,1.03,1000
17:13:44.529,-2.86,-2.22,6.49,-4.09,-2.38,0.0,0.03,-0.06,1.02,1000
17:13:44.548,-2.91,-2.18,6.49,-4.33,-0.91,0.43,0.04,-0.06,1.02,1000
17:13:44.583,-2.99,-2.21,6.5,-4.02,0.0,1.65,0.05,-0.06,1.02,1000
17:13:44.585,-3.08,-2.32,6.52,-2.5,0.43,3.05,0.06,-0.05,1.03,1000
17:13:44.585,-3.1,-2.41,6.56,-0.49,0.12,4.02,0.06,-0.06,1.04,1000
17:13:44.585,-3.15,-2.55,6.61,3.6,-0.24,4.02,0.06,-0.08,1.04,1000
17:13:44.585,-3.21,-2.71,6.65,7.8,-0.91,3.78,0.07,-0.05,1.06,1000
17:13:44.610,-3.17,-2.87,6.68,10.43,-1.34,2.26,0.05,-0.06,1.07,1000
17:13:44.610,-3.17,-2.93,6.7,12.32,-1.4,-0.06,0.06,-0.09,1.06,1000
17:13:44.619,-3.27,-3.06,6.69,14.82,-1.59,-1.28,0.08,-0.07,1.05,1000
17:13:44.619,-3.2,-3.27,6.68,17.32,-1.71,-1.95,0.08,-0.06,1.06,1000
17:13:44.627,-3.05,-3.43,6.65,20.0,-1.71,-3.11,0.06,-0.06,1.06,1000
17:13:44.640,-2.86,-3.46,6.61,21.16,-1.59,-4.57,0.05,-0.05,1.06,1000
17:13:44.649,-2.63,-3.35,6.55,20.49,-0.85,-6.52,0.02,-0.03,1.04,1000
17:13:44.675,-2.35,-3.02,6.47,17.87,0.3,-7.56,0.02,-0.03,1.02,1000
17:13:44.676,-2.08,-2.75,6.39,13.6,1.1,-6.46,0.03,-0.01,1.0,1000
17:13:44.710,-1.74,-2.54,6.33,7.87,1.22,-3.96,0.04,-0.0,0.99,1000
17:13:44.718,-1.45,-2.54,6.31,4.39,1.4,0.91,0.09,-0.01,0.98,1000
17:13:44.720,-1.15,-2.78,6.35,0.61,1.89,5.37,0.05,0.03,1.01,1000
17:13:44.720,-0.88,-2.85,6.41,-3.9,2.01,6.4,0.04,-0.02,1.01,1000
17:13:44.726,-0.81,-2.79,6.47,-5.43,2.2,5.55,0.02,-0.01,1.01,1000
17:13:44.737,-0.87,-2.56,6.53,-6.28,1.83,3.35,0.03,-0.04,1.02,1000
17:13:44.749,-1.03,-2.42,6.56,-6.59,1.28,1.52,0.03,-0.02,1.02,1000
17:13:44.759,-1.16,-2.26,6.56,-7.56,-0.06,-0.67,0.02,-0.03,1.03,1000
17:13:44.770,-1.27,-2.09,6.55,-7.74,-0.98,-2.26,0.03,-0.04,1.01,1000
17:13:44.812,-1.5,-2.08,6.52,-7.26,-1.52,-1.77,0.06,-0.02,1.02,1000
17:13:44.823,-1.57,-2.22,6.51,-5.98,-1.65,-0.98,0.05,-0.02,1.02,1000
17:13:44.834,-1.61,-2.32,6.5,-5.91,-1.71,-1.22,0.04,-0.05,1.03,1000
17:13:44.834,-1.77,-2.34,6.48,-5.0,-1.22,-1.95,0.05,-0.04,1.02,1000
17:13:44.856,-1.86,-2.41,6.46,-4.27,-0.43,-2.38,0.04,-0.03,1.04,1000
17:13:44.857,-1.94,-2.38,6.43,-3.9,0.37,-3.05,0.03,-0.05,1.02,1000
17:13:44.890,-2.09,-2.29,6.39,-4.02,0.98,-3.35,0.04,-0.04,1.02,1000
17:13:44.890,-2.16,-2.21,6.35,-4.63,0.98,-3.05,0.03,-0.04,1.02,1000
17:13:44.891,-2.2,-2.11,6.32,-5.49,0.79,-2.44,0.03,-0.03,1.02,1000
17:13:44.892,-2.23,-1.99,6.3,-6.77,-0.12,-0.55,0.04,-0.04,1.01,1000
17:13:44.892,-2.27,-2.02,6.31,-7.56,-1.1,1.95,0.06,-0.03,1.02,1000
17:13:44.906,-2.23,-2.17,6.34,-8.48,-1.28,3.84,0.04,-0.03,1.04,1000
17:13:44.914,-2.22,-2.21,6.39,-8.54,-1.16,3.29,0.03,-0.04,1.03,1000
17:13:44.924,-2.28,-2.16,6.42,-7.87,-0.24,2.32,0.03,-0.04,1.02,1000
17:13:44.935,-2.37,-2.1,6.44,-7.38,0.37,1.52,0.03,-0.05,1.02,1000
17:13:44.961,-2.48,-2.07,6.46,-7.5,0.24,1.4,0.04,-0.05,1.02,1000
17:13:44.961,-2.63,-2.13,6.48,-7.2,-0.12,2.62,0.06,-0.05,1.02,1000
17:13:44.989,-2.72,-2.27,6.51,-5.49,-0.55,4.15,0.07,-0.04,1.03,1000
17:13:44.992,-2.77,-2.54,6.56,-3.41,-1.59,4.82,0.07,-0.06,1.04,1000
17:13:45.018,-2.86,-2.77,6.62,-1.16,-2.44,4.76,0.06,-0.06,1.05,1000
17:13:45.018,-2.91,-2.89,6.66,0.79,-2.99,2.26,0.04,-0.07,1.05,1000
17:13:45.043,-3.03,-2.83,6.67,0.91,-3.41,-0.67,0.04,-0.07,1.05,1000
17:13:45.043,-3.14,-2.74,6.65,-0.24,-3.66,-2.74,0.04,-0.05,1.03,1000
17:13:45.068,-3.19,-2.72,6.62,-0.91,-3.6,-3.11,0.08,-0.08,1.01,1000
17:13:45.071,-3.23,-2.93,6.6,-2.01,-2.68,-0.98,0.09,-0.04,1.03,1000
17:13:45.073,-3.17,-3.33,6.59,-2.38,-0.24,-0.24,0.1,-0.06,1.03,1000
17:13:45.073,-3.16,-3.6,6.59,-1.71,2.44,-0.55,0.09,-0.04,1.05,1000
17:13:45.078,-3.07,-3.76,6.57,-1.16,5.3,-2.93,0.06,-0.06,1.04,1000
17:13:45.091,-3.1,-3.67,6.51,-0.24,6.89,-7.07,0.04,-0.07,1.04,1000
17:13:45.103,-3.21,-3.42,6.43,0.0,7.2,-9.39,0.04,-0.06,1.03,1000
17:13:45.117,-3.28,-3.17,6.32,0.73,6.28,-10.0,0.05,-0.06,1.03,1000
17:13:45.123,-3.32,-3.02,6.21,1.22,4.63,-8.41,0.05,-0.05,1.03,1000
17:13:45.135,-3.22,-2.88,6.13,1.34,3.17,-7.38,0.04,-0.04,1.04,1000
17:13:45.144,-3.08,-2.67,6.05,1.71,1.83,-5.79,0.02,-0.04,1.03,1000
17:13:45.170,-2.97,-2.42,5.99,2.32,1.1,-4.7,0.03,-0.05,1.03,1000
17:13:45.190,-2.87,-2.25,5.95,2.68,0.49,-2.8,0.02,-0.04,1.03,1000
17:13:45.190,-2.78,-2.04,5.93,1.77,-0.3,-1.46,0.02,-0.05,1.04,1000
17:13:45.238,-2.71,-1.85,5.92,1.46,-0.61,-0.24,0.02,-0.04,1.03,1000
17:13:45.238,-2.63,-1.68,5.92,1.28,-0.85,0.79,0.02,-0.05,1.02,1000
17:13:45.238,-2.58,-1.51,5.93,1.04,-1.16,1.71,0.02,-0.04,1.02,1000
17:13:45.249,-2.52,-1.37,5.96,1.04,-1.83,2.62,0.02,-0.04,1.03,1000
17:13:45.265,-2.48,-1.26,5.99,1.28,-2.68,3.29,0.02,-0.05,1.02,1000
17:13:45.265,-2.47,-1.24,6.03,0.73,-3.29,3.72,0.02,-0.04,1.03,1000
17:13:45.266,-2.43,-1.24,6.07,0.55,-3.54,3.9,0.03,-0.05,1.01,1000
17:13:45.267,-2.43,-1.32,6.11,0.06,-3.05,3.84,0.04,-0.04,1.03,1000
17:13:45.298,-2.42,-1.4,6.16,0.49,-1.95,3.6,0.04,-0.06,1.02,1000
17:13:45.340,-2.52,-1.6,6.19,2.56,-0.3,3.35,0.08,-0.06,1.04,1000
17:13:45.340,-2.58,-1.99,6.23,4.76,1.46,3.23,0.06,-0.04,1.05,1000
17:13:45.369,-2.49,-2.16,6.25,6.22,2.62,0.18,0.02,-0.07,1.06,1000
17:13:45.369,-2.58,-2.06,6.24,7.13,3.41,-2.87,0.02,-0.06,1.03,1000
17:13:45.392,-2.63,-1.9,6.2,6.65,3.66,-4.09,0.03,-0.04,1.04,1000
17:13:45.397,-2.58,-1.78,6.16,4.57,3.29,-3.29,0.03,-0.04,1.02,1000
17:13:45.398,-2.43,-1.65,6.13,1.34,2.01,-0.55,0.02,-0.03,1.01,1000
17:13:45.400,-2.28,-1.59,6.14,-1.65,0.67,2.13,0.03,-0.02,1.01,1000
17:13:45.429,-2.13,-1.52,6.18,-5.12,-1.22,5.73,0.02,-0.02,1.0,1000
17:13:45.452,-2.07,-1.45,6.26,-7.44,-3.54,8.84,0.03,-0.04,1.0,1000
17:13:45.452,-2.11,-1.48,6.37,-8.35,-5.37,11.46,0.04,-0.03,1.01,1000
17:13:45.476,-2.09,-1.64,6.51,-8.72,-6.95,12.99,0.05,-0.04,1.02,1000
17:13:45.476,-2.14,-1.89,6.65,-7.07,-7.44,12.74,0.07,-0.06,1.02,1000
17:13:45.492,-2.25,-2.18,6.78,-4.09,-6.22,11.22,0.07,-0.04,1.05,1000
17:13:45.510,-2.27,-2.47,6.88,-1.77,-3.84,7.93,0.06,-0.05,1.05,1000
17:13:45.510,-2.36,-2.66,6.95,0.37,-0.98,3.23,0.05,-0.07,1.05,1000
17:13:45.515,-2.55,-2.76,6.96,1.95,1.52,-0.67,0.06,-0.06,1.04,1000
17:13:45.515,-2.7,-2.84,6.94,2.62,2.38,-2.2,0.06,-0.06,1.03,1000
17:13:45.516,-2.83,-2.97,6.92,3.48,2.5,-1.83,0.09,-0.06,1.03,1000
17:13:45.516,-2.87,-3.21,6.91,4.27,1.95,-0.12,0.09,-0.04,1.05,1000
17:13:45.517,-2.76,-3.45,6.91,4.33,1.46,0.24,0.05,-0.04,1.03,1000
17:13:45.525,-2.67,-3.44,6.91,4.09,1.1,-1.04,0.04,-0.05,1.03,1000
17:13:45.529,-2.66,-3.33,6.89,3.41,0.18,-1.65,0.04,-0.06,1.02,1000
17:13:45.551,-2.67,-3.2,6.88,2.13,-0.91,-1.16,0.06,-0.05,1.02,1000
17:13:45.552,-2.64,-3.21,6.87,0.37,-1.89,0.24,0.06,-0.03,1.02,1000
17:13:45.562,-2.52,-3.24,6.88,-0.73,-2.26,1.1,0.05,-0.03,1.02,1000
17:13:45.573,-2.43,-3.24,6.89,-1.71,-1.52,1.59,0.06,-0.04,1.01,1000
17:13:45.585,-2.33,-3.28,6.91,-1.95,0.3,1.77,0.07,-0.03,1.01,1000
17:13:45.595,-2.22,-3.34,6.93,-2.5,2.74,1.28,0.06,-0.03,1.02,1000
17:13:45.608,-2.08,-3.34,6.94,-3.11,5.0,0.73,0.06,-0.03,1.01,1000
17:13:45.624,-2.02,-3.28,6.95,-3.29,6.59,-0.12,0.05,-0.04,1.01,1000
17:13:45.642,-2.1,-3.13,6.95,-3.84,6.95,-0.3,0.04,-0.05,1.01,1000
17:13:45.643,-2.32,-2.91,6.94,-3.9,5.79,-0.55,0.04,-0.07,1.02,1000
17:13:45.650,-2.62,-2.76,6.94,-3.6,3.48,-0.24,0.05,-0.06,1.03,1000
17:13:45.679,-2.76,-2.65,6.93,-2.68,1.04,-0.91,0.03,-0.05,1.04,1000
17:13:45.680,-2.83,-2.48,6.92,-1.4,-1.4,-2.56,0.02,-0.06,1.04,1000
17:13:45.731,-2.91,-2.27,6.88,-0.67,-3.05,-4.33,0.02,-0.05,1.04,1000
17:13:45.753,-2.95,-2.11,6.83,-0.67,-4.21,-4.88,0.02,-0.06,1.04,1000
17:13:45.753,-2.99,-1.98,6.78,-1.34,-4.63,-4.02,0.04,-0.04,1.03,1000
17:13:45.753,-2.93,-1.96,6.74,-1.83,-4.45,-2.87,0.03,-0.03,1.03,1000
17:13:45.776,-2.8,-1.96,6.72,-1.83,-3.78,-0.61,0.04,-0.04,1.02,1000
17:13:45.776,-2.68,-2.02,6.73,-1.77,-2.62,1.77,0.04,-0.03,1.03,1000
17:13:45.793,-2.56,-2.08,6.75,-1.71,-1.95,3.35,0.04,-0.06,1.02,1000
17:13:45.813,-2.56,-2.16,6.79,-1.1,-1.1,4.33,0.05,-0.04,1.03,1000
17:13:45.814,-2.53,-2.24,6.84,-0.73,-0.37,3.66,0.03,-0.05,1.04,1000
17:13:45.814,-2.57,-2.17,6.87,-0.98,-0.79,1.1,0.02,-0.07,1.04,1000
17:13:45.814,-2.68,-2.06,6.87,-0.91,-1.65,-0.49,0.03,-0.05,1.03,1000
17:13:45.840,-2.74,-1.98,6.86,-1.4,-2.93,-1.46,0.03,-0.05,1.03,1000
17:13:45.840,-2.79,-1.91,6.84,-2.5,-4.39,-1.52,0.03,-0.05,1.02,1000
17:13:45.840,-2.79,-1.91,6.83,-4.15,-5.49,-0.49,0.04,-0.04,1.03,1000
17:13:45.840,-2.72,-1.99,6.83,-5.24,-5.98,0.73,0.04,-0.03,1.02,1000
17:13:45.856,-2.68,-2.05,6.85,-6.71,-5.73,1.77,0.03,-0.05,1.02,1000
17:13:45.873,-2.69,-2.09,6.87,-7.32,-5.0,2.62,0.04,-0.04,1.01,1000
17:13:45.873,-2.71,-2.15,6.9,-7.13,-3.84,3.6,0.05,-0.05,1.01,1000
17:13:45.881,-2.75,-2.25,6.95,-6.34,-2.93,4.45,0.06,-0.07,1.01,1000
17:13:45.913,-2.9,-2.54,7.0,-3.66,-1.71,5.73,0.09,-0.06,1.02,1000
17:13:45.913,-3.0,-2.98,7.07,0.43,-0.12,5.85,0.08,-0.06,1.04,1000
17:13:45.941,-3.02,-3.25,7.12,3.66,0.61,3.72,0.06,-0.06,1.06,1000
17:13:45.955,-3.04,-3.32,7.14,6.1,1.71,-0.3,0.04,-0.09,1.04,1000
17:13:45.955,-3.19,-3.17,7.12,6.89,2.5,-4.21,0.03,-0.08,1.04,1000
17:13:45.957,-3.32,-2.96,7.06,5.91,2.74,-5.98,0.05,-0.07,1.02,1000
17:13:45.958,-3.41,-2.85,7.0,4.76,2.68,-5.06,0.07,-0.07,1.01,1000
17:13:45.969,-3.4,-2.95,6.96,2.68,2.01,-1.52,0.07,-0.03,1.02,1000
17:13:45.980,-3.22,-3.07,6.96,0.3,1.22,0.37,0.05,-0.05,1.01,1000
17:13:45.994,-3.15,-3.04,6.97,-1.77,0.37,1.28,0.04,-0.05,1.01,1000
17:13:46.002,-3.12,-2.96,6.98,-3.23,0.0,1.52,0.04,-0.05,1.02,1000
17:13:46.014,-3.1,-2.83,7.0,-4.7,-0.55,0.91,0.03,-0.06,1.02,1000
17:13:46.047,-3.11,-2.64,7.0,-6.22,-1.59,0.43,0.03,-0.06,1.02,1000
17:13:46.047,-3.22,-2.54,7.01,-5.79,-2.56,1.16,0.06,-0.08,1.01,1000
17:13:46.048,-3.33,-2.65,7.03,-4.33,-2.56,2.26,0.07,-0.04,1.04,1000
17:13:46.059,-3.28,-2.82,7.05,-2.87,-1.22,0.79,0.05,-0.06,1.04,1000
17:13:46.069,-3.29,-2.82,7.05,-1.1,0.12,-1.83,0.04,-0.07,1.04,1000
17:13:46.080,-3.38,-2.76,7.01,0.61,1.52,-4.27,0.06,-0.07,1.03,1000
17:13:46.090,-3.39,-2.76,6.96,1.46,2.5,-5.0,0.05,-0.05,1.04,1000
17:13:46.101,-3.35,-2.68,6.9,1.89,2.38,-5.61,0.03,-0.07,1.03,1000
17:13:46.118,-3.33,-2.54,6.84,1.59,1.77,-5.0,0.03,-0.05,1.03,1000
17:13:46.123,-3.25,-2.39,6.79,0.91,0.49,-3.84,0.02,-0.05,1.03,1000
17:13:46.144,-3.19,-2.16,6.76,-0.12,-1.16,-2.26,0.02,-0.06,1.02,1000
17:13:46.148,-3.16,-1.97,6.75,-1.46,-2.26,0.37,0.03,-0.05,1.02,1000
17:13:46.157,-3.12,-1.9,6.76,-2.5,-2.93,3.11,0.04,-0.05,1.02,1000
17:13:46.167,-3.05,-1.94,6.81,-3.54,-2.8,5.0,0.04,-0.03,1.03,1000
17:13:46.178,-2.92,-1.95,6.87,-4.39,-1.77,5.18,0.03,-0.05,1.03,1000
17:13:46.192,-2.9,-1.91,6.92,-4.09,-0.24,4.39,0.04,-0.06,1.02,1000
17:13:46.200,-2.95,-1.93,6.97,-3.6,0.73,4.27,0.05,-0.06,1.03,1000
17:13:46.211,-3.0,-2.01,7.01,-3.6,1.22,3.54,0.04,-0.06,1.04,1000
17:13:46.222,-3.1,-2.03,7.05,-3.05,0.49,2.44,0.04,-0.07,1.03,1000
17:13:46.238,-3.18,-2.08,7.07,-1.95,-0.49,2.32,0.05,-0.05,1.03,1000
17:13:46.252,-3.18,-2.17,7.1,-0.49,-2.13,1.95,0.05,-0.06,1.03,1000
17:13:46.256,-3.18,-2.27,7.12,0.0,-3.17,1.65,0.04,-0.06,1.04,1000
17:13:46.266,-3.22,-2.39,7.13,0.12,-3.48,1.28,0.06,-0.07,1.03,1000
17:13:46.277,-3.3,-2.51,7.14,0.0,-3.11,0.73,0.05,-0.07,1.04,1000
17:13:46.288,-3.38,-2.6,7.15,-0.91,-2.13,0.67,0.06,-0.07,1.02,1000
17:13:46.301,-3.47,-2.7,7.16,-2.13,-1.34,0.79,0.06,-0.06,1.02,1000
17:13:46.313,-3.54,-2.79,7.17,-2.62,-0.85,1.34,0.07,-0.07,1.02,1000
17:13:46.321,-3.58,-2.97,7.19,-2.68,-0.43,2.87,0.08,-0.04,1.03,1000
17:13:46.334,-3.49,-3.18,7.22,-2.32,-0.12,2.8,0.06,-0.06,1.03,1000
17:13:46.350,-3.49,-3.24,7.25,-1.52,0.0,2.07,0.06,-0.08,1.03,1000
17:13:46.378,-3.56,-3.34,7.27,-0.98,0.24,1.83,0.08,-0.06,1.03,1000
17:13:46.405,-3.54,-3.47,7.29,-0.73,0.91,0.98,0.06,-0.06,1.05,1000
17:13:46.405,-3.58,-3.49,7.29,-0.43,1.16,-0.67,0.05,-0.08,1.03,1000
17:13:46.405,-3.65,-3.43,7.27,-0.18,1.16,-2.13,0.06,-0.06,1.03,1000
17:13:46.405,-3.68,-3.42,7.25,0.24,1.04,-2.01,0.07,-0.07,1.03,1000
17:13:46.412,-3.67,-3.46,7.23,0.18,0.24,-1.52,0.06,-0.06,1.03,1000
17:13:46.422,-3.63,-3.46,7.21,-0.3,-0.79,-1.46,0.05,-0.06,1.03,1000
17:13:46.433,-3.55,-3.36,7.19,-0.98,-1.59,-1.22,0.04,-0.06,1.02,1000
17:13:46.445,-3.47,-3.19,7.18,-2.38,-2.5,-1.22,0.04,-0.06,1.03,1000
17:13:46.466,-3.44,-3.07,7.17,-4.33,-3.05,-0.06,0.05,-0.06,1.01,1000
17:13:46.466,-3.47,-3.02,7.17,-5.24,-3.11,1.1,0.05,-0.06,1.01,1000
17:13:46.476,-3.5,-3.02,7.19,-5.91,-2.38,1.95,0.06,-0.06,1.02,1000
17:13:46.487,-3.52,-3.07,7.21,-5.73,-1.1,1.71,0.05,-0.06,1.03,1000
17:13:46.500,-3.54,-3.09,7.23,-5.67,-0.3,0.55,0.05,-0.07,1.03,1000
17:13:46.561,-3.61,-3.06,7.22,-5.06,-0.18,-1.52,0.04,-0.07,1.03,1000
17:13:46.573,-3.7,-2.96,7.2,-4.51,-0.37,-3.66,0.04,-0.08,1.03,1000
17:13:46.573,-3.86,-2.86,7.15,-2.93,-1.16,-4.39,0.06,-0.08,1.02,1000
17:13:46.590,-3.94,-2.92,7.11,-1.28,-1.34,-4.09,0.06,-0.06,1.04,1000
17:13:46.590,-3.93,-2.99,7.06,-0.37,-1.22,-3.78,0.06,-0.08,1.03,1000
17:13:46.590,-3.99,-3.07,7.02,2.01,0.18,-3.11,0.08,-0.08,1.03,1000
17:13:46.590,-4.06,-3.24,6.99,4.39,1.71,-2.38,0.08,-0.09,1.04,1000
17:13:46.590,-4.07,-3.36,6.97,5.55,3.66,-2.93,0.06,-0.06,1.06,1000
17:13:46.596,-3.99,-3.31,6.93,5.91,5.0,-3.96,0.04,-0.08,1.04,1000
17:13:46.607,-4.0,-3.09,6.88,5.24,5.49,-5.06,0.02,-0.08,1.04,1000
17:13:46.656,-4.03,-2.71,6.82,2.87,4.27,-5.06,0.02,-0.07,1.03,1000
17:13:47.212,-5.36,-1.66,1.27,0.91,10.67,5.85,0.03,-0.04,0.95,1110
17:13:47.226,-5.22,-1.48,1.33,-4.15,11.65,6.65,0.14,0.03,0.9,1110
17:13:48.235,-6.01,-1.74,1.4,2.32,-10.18,-3.11,-0.69,-0.51,1.11,1170
17:13:48.248,-6.3,-0.82,1.36,2.07,5.67,-6.89,0.89,0.16,1.07,1170
17:13:48.258,-6.42,-0.41,1.29,4.15,16.71,-5.37,-0.71,-0.45,0.95,1170
17:13:48.299,-6.81,0.61,1.22,13.6,-2.62,-7.93,-0.44,-0.24,1.0,1170
17:13:48.300,-6.66,0.89,1.09,-1.28,-4.88,-9.82,-0.11,-0.2,1.03,1170
17:13:49.262,-6.0,7.65,3.86,-12.26,22.2,24.82,-1.02,-1.02,1.2,1230
17:13:49.273,-5.94,7.99,4.16,15.12,-19.09,28.05,0.45,0.27,0.91,1230
17:13:49.282,-5.84,7.91,4.49,-24.33,18.48,28.54,-0.75,-0.64,1.52,1230
17:13:50.293,-11.94,18.23,41.23,-19.09,15.24,21.77,-0.51,-0.73,0.98,1270
17:13:51.311,-16.73,23.75,53.69,-10.55,-4.02,33.35,-0.78,-0.56,0.64,1270
17:13:51.315,-16.76,23.72,54.08,-11.83,-5.98,37.93,-0.64,-0.48,0.9,1270
17:13:51.327,-16.86,23.9,54.48,-19.82,-9.09,38.48,-0.46,-0.21,0.99,1270
17:13:51.337,-16.89,24.17,54.87,-20.55,-12.8,35.06,-0.3,0.17,1.07,1270
17:13:53.351,23.96,-1.73,109.32,119.45,-181.28,-3.54,-0.41,-0.14,0.43,1000
17:13:53.361,26.81,-6.73,109.41,170.3,-189.7,15.49,0.09,-0.31,-1.67,1000
17:13:53.372,26.09,-8.32,109.55,94.57,-161.4,3.54,0.24,0.78,0.35,1000
17:13:53.383,27.72,-12.16,109.73,-60.49,-20.91,15.43,-0.33,-0.03,-2.56,1000
17:13:53.396,26.63,-12.28,109.95,-165.12,9.09,29.33,0.27,-0.22,0.85,1000
17:13:53.405,25.43,-13.41,110.3,-182.93,29.15,25.06,0.12,1.02,-2.29,1000
17:13:53.416,22.67,-14.02,110.54,-190.49,45.18,12.99,0.45,-0.04,-0.91,1000
17:13:53.427,20.45,-15.59,110.71,-194.51,93.84,11.22,0.85,0.14,-1.96,1000
17:13:53.438,18.34,-15.86,110.8,-197.93,105.18,10.67,0.49,0.09,-0.23,1000
17:13:53.449,16.89,-15.86,110.82,-112.93,36.52,0.06,-0.74,-0.86,-1.42,1000
17:13:53.462,14.58,-13.66,110.72,51.95,-122.93,-13.96,0.06,0.3,-0.02,1000
17:13:53.471,13.74,-11.91,110.59,10.49,-92.44,-6.77,0.78,0.76,-0.2,1000
17:13:53.482,14.95,-14.39,110.5,77.44,-25.12,-9.15,0.36,0.07,-0.91,1000
17:13:53.493,16.78,-14.77,110.41,95.12,-21.59,-12.74,0.06,0.63,-1.06,1000
17:13:53.506,19.35,-14.03,110.25,52.68,-5.85,-21.4,0.36,1.08,-1.69,1000
17:13:53.515,22.26,-12.71,109.99,47.07,5.79,-24.88,-0.17,0.33,-1.21,1000
17:13:53.526,23.33,-10.4,109.75,39.33,-2.93,-26.4,-0.04,0.06,-0.73,1000
17:13:53.537,22.33,-8.11,109.46,47.68,-41.83,-22.74,-0.05,-0.22,-0.98,1000
17:13:53.549,18.24,-6.58,109.2,56.65,-49.45,-22.56,-0.05,-0.3,-0.74,1000
17:13:53.558,14.51,-5.7,108.96,65.91,-63.72,-22.2,-0.05,-0.15,-1.09,1000
17:13:53.572,12.74,-5.47,108.72,71.71,-85.3,-23.11,-0.09,-0.05,-0.86,1000
17:13:53.582,12.16,-5.08,108.46,68.9,-92.13,-30.0,0.89,1.12,-2.31,1000
17:13:53.593,12.21,-5.04,108.22,-17.8,15.43,-15.79,-0.04,0.48,-1.42,1000
17:13:53.613,11.18,-3.13,108.12,-14.45,10.24,-6.4,-0.64,-0.52,-0.53,1000
17:13:53.614,8.44,-0.35,108.08,5.79,-23.72,-2.56,-0.01,0.05,-0.98,1000
17:13:53.624,3.75,2.95,108.06,12.13,-22.2,-0.06,-0.88,-0.98,-0.82,1000
17:13:53.637,2.2,4.65,108.07,-28.54,5.18,2.38,-0.24,0.35,-0.91,1000
17:13:53.648,2.99,6.35,108.11,13.78,5.73,4.94,-0.61,-0.41,-1.08,1000
17:13:53.659,4.19,7.59,108.15,1.77,2.26,0.43,-0.02,0.29,-0.84,1000
17:13:53.672,5.68,7.83,108.16,3.29,2.01,0.55,-0.2,-0.02,-1.06,1000
17:13:53.685,6.22,7.65,108.15,8.72,0.61,-1.34,-0.02,-0.01,-1.0,1000
17:13:53.697,6.17,7.39,108.14,-2.87,1.22,-0.3,-0.14,-0.1,-0.94,1000
17:13:53.711,6.05,7.22,108.13,-0.24,-1.22,0.06,-0.13,-0.02,-0.99,1000
17:13:53.720,5.78,6.94,108.13,-2.5,-1.16,0.43,-0.12,-0.02,-0.94,1000
17:13:53.723,5.32,6.75,108.13,-1.83,-0.49,-0.43,-0.18,-0.01,-0.95,1000
17:13:53.736,5.12,6.63,108.12,0.0,0.18,-0.37,-0.09,0.07,-0.99,1000
17:13:53.747,5.08,6.53,108.12,0.79,0.73,-0.61,-0.14,-0.0,-0.96,1000
17:13:53.758,4.9,6.47,108.11,0.85,0.49,-0.49,-0.07,0.06,-0.98,1000
17:13:53.770,4.9,6.39,108.1,-0.55,-0.18,-0.85,-0.11,0.03,-0.97,1000
17:13:53.780,4.74,6.34,108.1,-0.55,-0.3,-0.73,-0.09,0.03,-0.98,1000
17:13:53.791,4.64,6.27,108.09,-0.85,-0.3,-0.61,-0.08,0.04,-0.97,1000
17:13:53.800,4.61,6.23,108.09,0.24,-0.06,-0.49,-0.13,0.0,-0.97,1000
17:13:53.816,4.47,6.21,108.08,0.06,-0.06,-0.67,-0.07,0.04,-0.97,1000
17:13:53.822,4.41,6.19,108.07,0.12,0.18,-0.3,-0.12,0.0,-0.98,1000
17:13:53.835,4.25,6.18,108.07,-0.12,-0.18,-0.18,-0.1,0.02,-0.98,1000
17:13:53.844,4.14,6.13,108.07,-0.79,-0.3,-0.61,-0.11,0.03,-0.97,1000
17:13:53.855,4.07,6.13,108.06,-0.49,-0.43,-0.43,-0.13,0.02,-0.97,1000
17:13:53.866,4.0,6.14,108.05,-0.18,-0.3,-0.37,-0.1,0.02,-0.98,1000
17:13:53.877,4.02,6.16,108.05,-0.06,-0.24,-0.55,-0.13,0.02,-0.97,1000
17:13:53.888,3.91,6.16,108.04,0.06,-0.18,-0.49,-0.09,0.03,-0.97,1000
17:13:53.899,3.9,6.13,108.04,-0.3,-0.06,-0.55,-0.11,0.02,-0.98,1000
17:13:53.914,3.8,6.12,108.03,-0.24,-0.24,-0.37,-0.1,0.01,-0.98,1000
17:13:53.923,3.78,6.08,108.03,-0.24,-0.24,-0.61,-0.1,0.03,-0.98,1000
17:13:53.932,3.77,6.06,108.02,-0.12,-0.24,-0.43,-0.12,0.01,-0.97,1000
17:13:53.943,3.69,6.07,108.02,0.12,-0.24,-0.24,-0.08,0.04,-0.98,1000
17:13:53.956,3.63,6.06,108.01,0.0,-0.06,-0.49,-0.11,0.02,-0.97,1000
17:13:53.965,3.61,6.07,108.0,-0.06,-0.24,-0.49,-0.1,0.02,-0.97,1000
17:13:53.980,3.56,6.04,108.0,-0.37,-0.18,-0.61,-0.1,0.03,-0.98,1000
17:13:53.987,3.6,6.04,107.99,-0.24,-0.06,-0.55,-0.12,0.02,-0.97,1000
17:13:53.999,3.52,6.04,107.98,-0.18,-0.24,-0.55,-0.09,0.04,-0.98,1000
17:13:54.011,3.51,6.04,107.98,-0.18,-0.24,-0.61,-0.11,0.02,-0.97,1000
17:13:54.025,3.48,6.05,107.97,-0.06,-0.18,-0.43,-0.1,0.02,-0.98,1000
17:13:54.033,3.51,6.04,107.97,-0.24,-0.24,-0.55,-0.09,0.03,-0.98,1000
17:13:54.046,3.43,6.03,107.96,-0.3,-0.37,-0.3,-0.1,0.02,-0.97,1000
17:13:54.055,3.44,6.02,107.96,-0.24,-0.3,-0.43,-0.09,0.03,-0.97,1000
17:13:54.064,3.42,6.02,107.95,-0.12,-0.24,-0.61,-0.11,0.02,-0.97,1000
17:13:54.077,3.35,6.03,107.94,-0.3,-0.3,-0.55,-0.1,0.03,-0.97,1000
17:13:54.088,3.34,6.02,107.94,-0.18,-0.12,-0.61,-0.1,0.02,-0.97,1000
17:13:54.097,3.23,6.01,107.93,-0.24,-0.3,-0.49,-0.11,0.02,-0.97,1000
17:13:54.110,3.16,6.01,107.93,-0.24,-0.24,-0.43,-0.1,0.03,-0.97,1000
17:13:54.126,3.17,6.01,107.92,-0.18,-0.18,-0.37,-0.11,0.02,-0.97,1000
17:13:54.131,3.18,6.02,107.92,-0.18,-0.3,-0.61,-0.1,0.03,-0.98,1000
17:13:54.143,3.11,6.01,107.91,-0.3,-0.3,-0.49,-0.11,0.02,-0.98,1000
17:13:54.152,3.08,6.01,107.91,-0.12,-0.3,-0.43,-0.1,0.03,-0.97,1000
17:13:54.163,3.03,6.0,107.9,-0.3,-0.12,-0.61,-0.1,0.03,-0.97,1000
17:13:54.176,3.06,6.0,107.89,-0.24,-0.24,-0.49,-0.1,0.02,-0.97,1000
17:13:54.188,2.99,6.0,107.89,-0.37,-0.3,-0.61,-0.1,0.03,-0.98,1000
17:13:54.196,2.98,6.0,107.88,-0.24,-0.18,-0.43,-0.1,0.02,-0.97,1000
17:13:54.210,2.92,5.99,107.88,-0.37,-0.18,-0.55,-0.1,0.03,-0.97,1000
17:13:54.237,2.94,6.0,107.87,-0.3,-0.18,-0.49,-0.11,0.02,-0.97,1000
17:13:54.237,2.88,6.01,107.87,-0.18,-0.3,-0.61,-0.1,0.02,-0.97,1000
17:13:54.240,2.92,6.01,107.86,-0.24,-0.12,-0.73,-0.1,0.03,-0.97,1000
17:13:54.251,2.88,6.01,107.85,-0.18,-0.18,-0.61,-0.1,0.02,-0.97,1000
17:13:54.265,2.86,6.0,107.85,-0.18,-0.3,-0.43,-0.1,0.03,-0.97,1000
17:13:54.273,2.88,6.0,107.84,-0.24,-0.18,-0.43,-0.1,0.03,-0.97,1000
17:13:54.287,2.8,6.0,107.84,-0.18,-0.3,-0.43,-0.1,0.02,-0.97,1000
17:13:54.295,2.83,5.99,107.83,-0.18,-0.24,-0.37,-0.1,0.03,-0.97,1000
17:13:54.310,2.75,5.99,107.83,-0.24,-0.12,-0.43,-0.1,0.02,-0.97,1000
17:13:54.322,2.75,6.0,107.82,-0.24,-0.12,-0.55,-0.1,0.03,-0.97,1000
17:13:54.331,2.71,6.0,107.82,-0.37,-0.24,-0.49,-0.1,0.02,-0.97,1000
17:13:54.339,2.68,6.01,107.81,-0.37,-0.18,-0.61,-0.1,0.02,-0.97,1000
17:13:54.350,2.62,6.02,107.81,-0.3,-0.12,-0.55,-0.1,0.03,-0.97,1000
17:13:54.362,2.6,6.02,107.8,-0.12,-0.18,-0.55,-0.1,0.02,-0.97,1000
17:13:54.372,2.58,6.01,107.79,-0.24,-0.3,-0.37,-0.1,0.03,-0.97,1000
17:13:54.385,2.54,6.02,107.79,-0.37,-0.06,-0.55,-0.1,0.02,-0.97,1000
17:13:54.394,2.5,6.01,107.78,-0.12,-0.24,-0.61,-0.1,0.03,-0.98,1000
17:13:54.405,2.49,6.0,107.78,-0.24,-0.24,-0.61,-0.1,0.03,-0.97,1000
17:13:54.416,2.47,6.0,107.77,-0.12,-0.3,-0.55,-0.1,0.02,-0.97,1000
17:13:54.428,2.44,5.99,107.77,-0.3,-0.3,-0.43,-0.1,0.03,-0.97,1000
17:13:54.443,2.45,6.0,107.76,-0.18,-0.06,-0.61,-0.1,0.02,-0.97,1000
17:13:54.449,2.45,5.99,107.75,-0.24,-0.3,-0.61,-0.1,0.03,-0.97,1000
17:13:54.460,2.42,5.99,107.75,-0.24,-0.18,-0.55,-0.11,0.02,-0.97,1000
17:13:54.471,2.38,5.99,107.74,-0.24,-0.24,-0.43,-0.1,0.03,-0.97,1000
17:13:54.482,2.39,5.98,107.74,-0.3,-0.24,-0.43,-0.1,0.03,-0.97,1000
17:13:54.493,2.35,5.97,107.73,-0.12,-0.12,-0.73,-0.1,0.02,-0.97,1000
17:13:54.504,2.32,5.96,107.72,-0.43,-0.06,-0.61,-0.1,0.03,-0.97,1000
17:13:54.515,2.3,5.96,107.72,-0.18,-0.24,-0.61,-0.1,0.02,-0.97,1000
17:13:54.528,2.28,5.97,107.71,-0.24,-0.18,-0.43,-0.1,0.02,-0.97,1000
17:13:54.537,2.27,5.97,107.71,-0.18,-0.24,-0.43,-0.1,0.03,-0.97,1000
17:13:54.548,2.25,5.96,107.7,-0.24,-0.06,-0.55,-0.1,0.03,-0.97,1000
17:13:54.559,2.23,5.96,107.69,-0.37,-0.18,-0.43,-0.1,0.03,-0.97,1000
17:13:54.570,2.21,5.97,107.69,-0.3,-0.18,-0.55,-0.1,0.02,-0.97,1000
17:13:54.581,2.2,5.97,107.68,-0.18,-0.12,-0.43,-0.1,0.03,-0.97,1000
17:13:54.594,2.19,5.97,107.68,-0.37,-0.3,-0.55,-0.1,0.02,-0.97,1000
17:13:54.603,2.18,5.97,107.67,-0.43,-0.3,-0.61,-0.1,0.03,-0.97,1000
17:13:54.614,2.18,5.98,107.67,-0.37,-0.18,-0.55,-0.1,0.03,-0.97,1000
17:13:54.638,2.18,5.98,107.66,-0.3,-0.18,-0.61,-0.1,0.03,-0.97,1000
17:13:54.638,2.17,5.98,107.65,-0.3,-0.24,-0.37,-0.1,0.03,-0.97,1000
17:13:54.647,2.15,5.98,107.65,-0.24,-0.3,-0.55,-0.1,0.02,-0.97,1000
17:13:54.671,2.12,5.98,107.64,-0.24,-0.18,-0.55,-0.1,0.03,-0.97,1000
17:13:54.671,2.13,5.98,107.64,-0.18,-0.24,-0.43,-0.1,0.02,-0.97,1000
17:13:54.681,2.12,5.98,107.63,-0.24,-0.37,-0.55,-0.1,0.03,-0.97,1000
17:13:54.692,2.11,5.98,107.63,-0.24,-0.37,-0.55,-0.1,0.03,-0.97,1000
17:13:54.705,2.08,5.97,107.62,-0.37,-0.3,-0.61,-0.1,0.02,-0.97,1000
17:13:54.713,2.07,5.96,107.61,-0.37,-0.24,-0.37,-0.1,0.03,-0.97,1000
17:13:54.729,2.06,5.96,107.61,-0.3,-0.24,-0.55,-0.1,0.03,-0.97,1000
17:13:54.735,2.06,5.96,107.6,-0.3,-0.12,-0.43,-0.1,0.02,-0.97,1000
17:13:54.746,2.04,5.95,107.6,-0.18,-0.3,-0.49,-0.1,0.03,-0.97,1000
17:13:54.757,2.03,5.95,107.59,-0.12,-0.06,-0.55,-0.1,0.03,-0.97,1000
17:13:54.768,2.01,5.95,107.59,-0.18,-0.3,-0.61,-0.1,0.03,-0.97,1000
17:13:54.781,2.0,5.95,107.58,-0.37,-0.3,-0.61,-0.1,0.02,-0.97,1000
17:13:54.794,2.01,5.96,107.57,-0.18,-0.24,-0.61,-0.1,0.02,-0.97,1000
17:13:54.803,2.0,5.96,107.57,-0.37,-0.18,-0.61,-0.1,0.03,-0.97,1000
17:13:54.812,1.99,5.96,107.56,-0.24,-0.24,-0.61,-0.1,0.03,-0.97,1000
17:13:54.823,1.97,5.95,107.56,-0.24,-0.37,-0.43,-0.1,0.02,-0.97,1000
17:13:54.834,1.95,5.95,107.55,-0.24,-0.24,-0.43,-0.1,0.02,-0.97,1000
17:13:54.845,1.93,5.95,107.54,-0.3,-0.06,-0.55,-0.1,0.03,-0.97,1000
17:13:54.856,1.93,5.96,107.54,-0.24,-0.3,-0.24,-0.1,0.03,-0.97,1000
17:13:54.867,1.92,5.95,107.53,-0.18,-0.3,-0.37,-0.1,0.02,-0.97,1000
17:13:54.878,1.9,5.95,107.53,-0.18,-0.3,-0.43,-0.1,0.03,-0.97,1000
17:13:54.889,1.9,5.94,107.52,-0.43,-0.3,-0.43,-0.1,0.02,-0.97,1000
17:13:54.903,1.87,5.95,107.52,-0.3,-0.3,-0.61,-0.1,0.03,-0.97,1000
17:13:54.913,1.88,5.96,107.51,-0.37,-0.18,-0.49,-0.1,0.03,-0.97,1000
17:13:54.922,1.87,5.97,107.51,-0.24,-0.18,-0.61,-0.1,0.02,-0.97,1000
17:13:54.941,1.86,5.97,107.5,-0.3,-0.24,-0.49,-0.1,0.03,-0.97,1000
17:13:54.947,1.87,5.96,107.49,-0.24,-0.3,-0.55,-0.1,0.03,-0.97,1000
17:13:54.955,1.86,5.96,107.49,-0.18,-0.12,-0.49,-0.1,0.02,-0.97,1000
17:13:54.966,1.85,5.95,107.48,-0.24,-0.18,-0.61,-0.1,0.02,-0.97,1000
17:13:54.977,1.84,5.95,107.48,-0.24,-0.3,-0.49,-0.1,0.03,-0.97,1000
17:13:54.988,1.83,5.95,107.47,-0.3,-0.18,-0.49,-0.1,0.02,-0.97,1000
17:13:54.999,1.82,5.95,107.47,-0.18,-0.12,-0.61,-0.1,0.02,-0.97,1000
17:13:55.010,1.82,5.96,107.46,-0.24,-0.3,-0.49,-0.1,0.03,-0.97,1000
17:13:55.025,1.81,5.96,107.45,-0.37,-0.37,-0.43,-0.1,0.02,-0.97,1000
17:13:55.036,1.82,5.96,107.45,-0.3,-0.37,-0.49,-0.1,0.03,-0.97,1000
17:13:55.048,1.82,5.96,107.44,-0.18,-0.3,-0.37,-0.1,0.02,-0.97,1000
17:13:55.054,1.82,5.96,107.44,-0.18,-0.18,-0.37,-0.1,0.03,-0.97,1000
17:13:55.065,1.81,5.95,107.43,-0.3,-0.3,-0.43,-0.1,0.02,-0.97,1000
17:13:55.076,1.79,5.95,107.43,-0.18,-0.24,-0.43,-0.1,0.02,-0.97,1000
17:13:55.087,1.78,5.96,107.42,-0.3,-0.18,-0.49,-0.1,0.03,-0.97,1000
17:13:55.100,1.77,5.96,107.41,-0.3,-0.18,-0.61,-0.1,0.03,-0.97,1000
17:13:55.111,1.77,5.96,107.41,-0.43,-0.3,-0.55,-0.1,0.03,-0.97,1000
17:13:55.120,1.76,5.95,107.4,-0.49,-0.18,-0.61,-0.1,0.03,-0.97,1000
17:13:55.131,1.74,5.95,107.4,-0.24,-0.24,-0.61,-0.1,0.02,-0.97,1000
17:13:55.150,1.73,5.96,107.39,1.1,-0.43,-0.24,-0.09,0.03,-0.95,1000
17:13:55.153,1.76,5.94,107.38,0.55,-1.22,-0.98,-0.1,0.02,-0.99,1000
17:13:55.164,1.72,5.93,107.37,-0.79,-1.16,-0.55,-0.1,0.04,-0.96,1000
17:13:55.175,1.68,5.93,107.37,-0.06,-1.89,-0.61,-0.09,0.01,-0.96,1000
17:13:55.188,1.69,5.95,107.36,2.01,-0.85,-1.04,-0.1,0.02,-0.96,1000
17:13:55.197,1.74,5.97,107.35,4.15,-2.26,-1.4,-0.04,0.03,-0.96,1000
17:13:55.209,1.8,5.89,107.32,3.72,-2.87,-2.74,-0.12,0.03,-1.0,1000
17:13:55.219,1.84,5.83,107.28,2.07,-3.6,-3.96,-0.1,0.02,-0.96,1000
17:13:55.231,1.81,5.8,107.24,0.73,-1.46,-3.41,-0.15,-0.03,-0.92,1000
17:13:55.241,1.5,6.0,107.22,-5.43,-1.59,-4.45,0.3,0.14,-1.04,1000
17:13:55.252,1.62,5.44,107.18,2.32,-5.43,-3.11,-0.23,-0.04,-1.01,1000
17:13:55.263,1.75,5.46,107.13,-2.13,-4.27,-3.78,-0.16,-0.03,-0.94,1000
17:13:55.276,1.67,5.81,107.09,-0.12,1.46,-1.65,-0.14,0.0,-0.93,1000
17:13:55.285,1.61,5.92,107.07,3.41,-1.71,-2.5,-0.1,0.03,-0.95,1000
17:13:55.296,2.04,5.83,107.03,9.39,-5.91,-3.54,-0.09,0.06,-0.99,1000
17:13:55.310,2.25,5.75,106.99,1.83,0.12,-2.38,-0.11,0.0,-0.98,1000
17:13:55.318,2.11,5.89,106.99,1.16,2.32,0.24,-0.1,-0.01,-0.99,1000
17:13:55.330,1.81,6.1,106.99,-1.59,0.91,0.06,-0.11,0.02,-0.98,1000
17:13:55.343,1.65,6.16,106.99,-4.02,0.18,-0.55,-0.08,0.02,-0.98,1000
17:13:55.351,1.61,6.09,106.98,-5.91,0.67,0.06,-0.1,0.04,-0.97,1000
17:13:55.364,1.73,6.03,106.99,-3.84,0.85,1.28,-0.06,0.11,-0.96,1000
17:13:55.373,2.09,6.24,107.0,-6.95,-2.26,-0.79,0.08,-0.33,-1.0,1000
17:13:55.384,1.72,6.32,106.99,0.61,0.98,-0.06,-0.06,0.04,-1.07,1000
17:13:55.395,1.26,6.37,106.99,-8.41,-2.44,0.55,-0.15,0.02,-0.91,1000
17:13:55.407,0.93,6.37,107.0,-4.76,-1.95,1.59,-0.05,0.02,-0.97,1000
17:13:55.417,0.95,6.27,107.03,3.17,3.78,3.11,-0.13,0.15,-0.98,1000
17:13:55.428,1.1,6.63,107.06,4.76,5.73,1.46,-0.15,0.17,-1.16,1000
17:13:55.440,1.84,7.19,107.07,6.95,12.68,1.04,-0.23,0.11,-0.98,1000
17:13:55.454,2.8,7.68,107.08,9.51,11.28,0.67,-0.27,-0.01,-1.15,1000
17:13:55.461,3.26,9.04,107.11,13.72,22.68,6.89,-0.25,0.23,-1.25,1000
17:13:55.474,3.71,10.91,107.22,9.15,45.24,14.45,-0.45,0.16,-1.48,1000
17:13:55.483,4.23,12.32,107.41,6.34,62.5,20.67,-0.3,0.09,-1.14,1000
17:13:55.504,4.71,13.09,107.67,2.8,69.76,25.49,-0.1,0.18,-1.13,1000
17:13:55.506,5.18,13.05,108.0,-0.61,63.41,29.57,-0.16,0.06,-1.05,1000
17:13:55.516,5.33,12.53,108.31,-4.57,55.79,32.93,-0.1,0.06,-1.13,1000
17:13:55.527,5.21,11.55,108.69,-9.45,48.84,36.52,-0.03,0.07,-1.1,1000
17:13:55.538,4.93,10.02,109.11,-9.09,39.76,40.3,-0.02,0.05,-1.21,1000
17:13:55.557,4.69,8.21,109.57,-7.13,30.12,43.23,0.01,0.08,-1.18,1000
17:13:55.560,4.52,6.35,110.05,-4.7,22.26,45.49,0.04,0.08,-1.22,1000
17:13:55.589,4.37,4.78,110.56,0.3,18.23,47.07,0.04,0.07,-1.2,1000
17:13:55.589,4.23,3.44,111.09,7.2,17.74,47.87,0.03,0.06,-1.29,1000
17:13:55.606,4.22,2.5,111.61,18.84,20.98,47.74,0.04,0.09,-1.33,1000
17:13:55.606,4.34,1.61,112.13,32.8,24.82,47.13,0.05,0.08,-1.32,1000
17:13:55.628,4.54,0.93,112.64,46.28,26.71,45.55,0.07,0.04,-1.15,1000
17:13:55.628,4.58,0.08,113.13,56.1,26.95,42.8,0.1,0.01,-1.09,1000
17:13:55.638,4.49,-0.73,113.59,60.85,25.55,39.57,0.11,-0.02,-1.07,1000
17:13:55.675,4.08,-1.6,114.0,64.51,25.85,35.37,0.09,-0.03,-1.12,1000
17:13:55.677,3.7,-2.28,114.37,67.2,27.32,31.04,0.1,0.01,-1.13,1000
17:13:55.677,3.6,-2.81,114.69,70.0,30.91,27.44,0.1,0.05,-1.09,1000
17:13:55.682,3.87,-3.12,114.96,72.56,34.82,25.49,0.09,0.07,-1.09,1000
17:13:55.707,4.41,-3.39,115.26,75.49,40.0,24.82,0.1,0.07,-1.09,1000
17:13:55.707,4.89,-3.58,115.53,77.26,44.15,24.82,0.11,0.05,-1.14,1000
17:13:55.715,5.17,-3.76,115.81,75.43,46.34,24.94,0.12,0.02,-1.14,1000
17:13:55.725,5.02,-4.05,116.08,70.18,47.74,24.57,0.12,-0.01,-1.14,1000
17:13:55.776,4.47,-4.37,116.35,62.38,47.8,24.02,0.13,-0.04,-1.09,1000
17:13:55.777,3.76,-4.62,116.6,52.74,48.41,22.99,0.13,-0.07,-1.09,1000
17:13:55.779,2.68,-4.84,116.85,44.7,50.24,22.07,0.11,-0.07,-1.06,1000
17:13:55.779,1.63,-4.96,117.09,39.45,52.44,21.83,0.12,-0.06,-1.03,1000
17:13:55.781,0.88,-5.05,117.33,36.83,55.79,21.95,0.12,-0.05,-0.99,1000
17:13:55.801,0.25,-5.2,117.58,35.06,58.17,22.32,0.14,-0.07,-0.96,1000
17:13:55.803,-0.62,-5.49,117.82,32.87,61.1,22.44,0.13,-0.11,-0.95,1000
17:13:55.813,-1.71,-5.67,118.07,29.45,63.41,21.95,0.12,-0.17,-0.96,1000
17:13:55.844,-3.12,-5.84,118.31,27.01,65.3,21.16,0.15,-0.18,-0.97,1000
17:13:55.845,-4.69,-6.16,118.53,25.67,65.79,19.88,0.18,-0.19,-0.98,1000
17:13:55.848,-5.96,-6.58,118.74,25.0,63.29,18.29,0.19,-0.21,-0.98,1000
17:13:55.859,-7.02,-6.97,118.94,24.82,59.88,17.26,0.18,-0.21,-1.0,1000
17:13:55.868,-8.12,-7.39,119.12,23.66,54.09,16.28,0.19,-0.23,-0.99,1000
17:13:55.880,-9.2,-7.94,119.3,24.33,48.6,15.0,0.21,-0.23,-1.0,1000
17:13:55.890,-9.93,-8.53,119.46,25.3,42.74,14.45,0.21,-0.2,-0.95,1000
17:13:55.901,-10.45,-9.17,119.62,25.79,39.21,14.15,0.19,-0.19,-0.94,1000
17:13:55.913,-10.82,-9.67,119.75,25.49,37.68,13.05,0.18,-0.2,-0.92,1000
17:13:55.923,-11.2,-10.03,119.91,23.78,36.71,12.93,0.18,-0.21,-0.93,1000
17:13:55.935,-11.61,-10.32,120.05,20.37,35.06,12.68,0.2,-0.23,-0.95,1000
17:13:55.975,-12.12,-10.68,120.19,15.12,32.13,13.05,0.23,-0.25,-0.97,1000
17:13:55.976,-12.71,-11.21,120.34,10.91,28.11,13.48,0.24,-0.27,-0.97,1000
17:13:55.976,-13.43,-11.91,120.49,10.55,25.24,14.27,0.27,-0.3,-0.95,1000
17:13:55.978,-14.24,-12.63,120.65,9.82,21.65,14.82,0.27,-0.31,-0.99,1000
17:13:55.999,-15.05,-13.33,120.81,11.1,18.9,14.76,0.28,-0.33,-0.95,1000
17:13:56.001,-15.96,-14.13,120.99,13.41,16.22,14.09,0.28,-0.34,-0.97,1000
17:13:56.013,-16.65,-14.66,121.13,16.16,16.22,13.17,0.27,-0.34,-0.94,1000
17:13:56.036,-17.29,-15.04,121.27,19.21,16.77,12.38,0.26,-0.35,-0.96,1000
17:13:56.049,-17.9,-15.26,121.4,21.59,18.6,11.22,0.27,-0.35,-0.94,1000
17:13:56.080,-18.35,-15.47,121.52,24.33,20.85,10.73,0.26,-0.34,-0.95,1000
17:13:56.080,-18.64,-15.62,121.64,24.76,22.62,10.98,0.27,-0.34,-0.95,1000
17:13:56.080,-18.86,-15.66,121.76,24.02,25.3,11.46,0.27,-0.32,-0.97,1000
17:13:56.085,-18.93,-15.61,121.89,22.32,27.87,12.62,0.26,-0.33,-0.94,1000
17:13:56.089,-19.06,-15.61,122.03,20.73,30.37,13.11,0.26,-0.33,-0.92,1000
17:13:56.114,-19.25,-15.53,122.18,19.51,31.16,13.54,0.26,-0.35,-0.9,1000
17:13:56.117,-19.64,-15.49,122.34,20.37,30.73,12.74,0.26,-0.35,-0.92,1000
17:13:56.123,-19.91,-15.51,122.46,23.05,29.33,11.59,0.27,-0.33,-0.91,1000
17:13:56.132,-20.02,-15.6,122.58,26.95,27.26,10.43,0.28,-0.33,-0.93,1000
17:13:56.156,-19.98,-15.81,122.69,28.66,24.63,8.96,0.3,-0.34,-0.93,1000
17:13:56.185,-19.95,-16.13,122.79,27.74,22.44,7.62,0.29,-0.35,-0.94,1000
17:13:56.185,-20.07,-16.38,122.86,25.55,20.61,5.85,0.28,-0.37,-0.92,1000
17:13:56.185,-20.35,-16.5,122.91,23.6,19.09,3.6,0.27,-0.37,-0.92,1000
17:13:56.188,-20.63,-16.56,122.94,22.62,17.38,1.59,0.28,-0.36,-0.92,1000
17:13:56.199,-20.84,-16.63,122.95,21.59,15.98,-0.55,0.3,-0.38,-0.94,1000
17:13:56.215,-21.09,-16.78,122.93,19.63,13.29,-2.26,0.31,-0.39,-0.96,1000
17:13:56.220,-21.3,-17.07,122.9,18.35,9.33,-4.39,0.33,-0.39,-0.97,1000
17:13:56.232,-21.4,-17.51,122.84,17.87,4.88,-5.73,0.37,-0.38,-0.98,1000
17:13:56.243,-21.41,-18.08,122.77,18.41,0.61,-6.77,0.37,-0.38,-0.99,1000
17:13:56.275,-21.33,-18.67,122.69,19.02,-2.2,-7.56,0.36,-0.38,-0.98,1000
17:13:56.284,-21.22,-19.15,122.61,18.78,-2.68,-7.8,0.35,-0.37,-0.97,1000
17:13:56.287,-21.14,-19.47,122.52,18.29,-1.77,-7.93,0.34,-0.38,-0.97,1000
17:13:56.302,-21.21,-19.69,122.44,16.77,-0.73,-8.05,0.34,-0.4,-0.95,1000
17:13:56.302,-21.4,-19.84,122.34,15.61,0.85,-8.96,0.34,-0.41,-0.95,1000
17:13:56.309,-21.68,-19.93,122.25,15.37,1.4,-10.12,0.35,-0.43,-0.96,1000
17:13:56.333,-22.13,-20.0,122.1,17.2,1.16,-13.11,0.36,-0.43,-0.97,1000
17:13:56.335,-22.39,-20.12,121.96,18.9,-0.24,-16.1,0.37,-0.43,-1.0,1000
17:13:56.342,-22.55,-20.26,121.76,21.28,-0.98,-19.15,0.37,-0.44,-0.99,1000
17:13:56.355,-22.48,-20.42,121.54,23.96,-1.04,-21.1,0.39,-0.39,-1.0,1000
17:13:56.368,-22.17,-20.64,121.3,26.1,-1.04,-22.62,0.38,-0.39,-1.0,1000
17:13:56.380,-21.84,-20.8,121.05,27.44,0.85,-23.6,0.39,-0.4,-0.99,1000
17:13:56.392,-21.69,-20.91,120.79,26.04,3.11,-23.84,0.37,-0.4,-0.96,1000
17:13:56.410,-21.79,-20.93,120.52,22.38,5.55,-23.72,0.39,-0.42,-0.91,1000
17:13:56.410,-22.04,-21.07,120.29,18.41,8.6,-23.11,0.36,-0.4,-0.9,1000
17:13:56.419,-22.27,-21.13,120.02,16.46,12.62,-22.2,0.33,-0.4,-0.9,1000
17:13:56.431,-22.47,-21.05,119.77,15.98,16.04,-22.01,0.35,-0.4,-0.85,1000
17:13:56.441,-22.68,-21.07,119.53,16.4,17.93,-21.83,0.36,-0.38,-0.85,1000
17:13:56.451,-22.75,-21.24,119.3,16.65,18.78,-20.73,0.36,-0.37,-0.82,1000
17:13:56.463,-22.74,-21.53,119.08,17.32,20.06,-19.15,0.36,-0.36,-0.81,1000
17:13:56.484,-22.73,-21.84,118.88,17.56,22.32,-17.44,0.36,-0.35,-0.77,1000
17:13:56.485,-22.83,-22.18,118.7,17.07,24.7,-15.12,0.36,-0.35,-0.77,1000
17:13:56.498,-22.98,-22.45,118.55,15.98,26.71,-13.66,0.37,-0.36,-0.76,1000
17:13:56.507,-23.3,-22.72,118.39,13.17,28.96,-12.5,0.37,-0.39,-0.76,1000
17:13:56.522,-23.77,-22.9,118.26,10.0,30.12,-12.8,0.37,-0.41,-0.75,1000
17:13:56.529,-24.31,-23.01,118.12,7.07,30.73,-13.6,0.36,-0.42,-0.76,1000
17:13:56.553,-25.03,-23.06,117.96,4.88,30.91,-14.39,0.36,-0.41,-0.75,1000
17:13:56.553,-25.55,-23.08,117.79,4.57,29.94,-15.79,0.36,-0.42,-0.77,1000
17:13:56.588,-25.93,-23.12,117.62,5.61,29.02,-16.71,0.38,-0.41,-0.76,1000
17:13:56.592,-26.25,-23.29,117.43,8.66,30.06,-16.4,0.38,-0.43,-0.71,1000
17:13:56.596,-26.61,-23.74,117.25,8.23,28.48,-16.34,0.41,-0.45,-0.73,1000
17:13:56.596,-26.95,-24.16,117.09,7.74,28.6,-15.79,0.41,-0.43,-0.68,1000
17:13:56.606,-27.39,-24.64,116.9,5.85,28.17,-16.22,0.38,-0.42,-0.69,1000
17:13:56.616,-27.73,-25.03,116.72,3.66,29.76,-16.16,0.38,-0.41,-0.65,1000
17:13:56.633,-27.99,-25.36,116.55,2.07,31.22,-15.37,0.38,-0.4,-0.67,1000
17:13:56.667,-28.22,-25.61,116.4,0.24,31.77,-15.0,0.39,-0.41,-0.64,1000
17:13:56.667,-28.54,-26.07,116.22,-0.49,31.4,-14.82,0.41,-0.42,-0.65,1000
17:13:56.668,-28.9,-26.47,116.06,-0.85,30.61,-14.21,0.41,-0.43,-0.63,1000
17:13:56.710,-29.3,-26.91,115.89,-0.3,29.27,-14.09,0.42,-0.42,-0.64,1000
17:13:56.710,-29.5,-27.44,115.75,0.79,27.68,-13.72,0.43,-0.41,-0.6,1000
17:13:56.718,-29.68,-28.18,115.6,2.99,27.2,-13.05,0.43,-0.41,-0.58,1000
17:13:56.719,-29.88,-28.94,115.46,3.11,25.24,-12.56,0.45,-0.42,-0.58,1000
17:13:56.732,-30.15,-29.73,115.32,2.44,24.63,-12.56,0.45,-0.44,-0.56,1000
17:13:56.732,-30.53,-30.47,115.19,1.65,25.12,-12.56,0.45,-0.45,-0.55,1000
17:13:56.739,-31.02,-31.0,115.05,0.61,25.06,-13.11,0.45,-0.45,-0.55,1000
17:13:56.749,-31.53,-31.52,114.9,-0.24,24.02,-13.84,0.46,-0.45,-0.55,1000
17:13:56.793,-31.97,-32.02,114.74,-0.43,22.8,-15.3,0.46,-0.44,-0.55,1000
17:13:56.802,-32.25,-32.57,114.56,-1.4,20.12,-17.07,0.48,-0.43,-0.55,1000
17:13:56.802,-32.43,-33.19,114.36,-2.13,17.93,-18.9,0.49,-0.44,-0.53,1000
17:13:56.803,-32.65,-33.81,114.13,-3.72,15.37,-21.04,0.49,-0.45,-0.54,1000
17:13:56.804,-32.77,-34.31,113.91,-5.0,13.6,-22.8,0.49,-0.44,-0.53,1000
17:13:56.827,-32.92,-34.84,113.65,-7.01,12.32,-24.63,0.5,-0.44,-0.54,1000
17:13:56.827,-32.94,-35.32,113.37,-8.48,10.67,-26.46,0.5,-0.44,-0.55,1000
17:13:56.844,-32.86,-35.78,113.07,-9.76,8.9,-28.05,0.52,-0.42,-0.55,1000
17:13:56.869,-32.6,-36.32,112.78,-10.73,7.01,-29.21,0.53,-0.42,-0.54,1000
17:13:56.869,-32.25,-37.11,112.43,-9.94,4.33,-30.0,0.54,-0.39,-0.53,1000
17:13:56.893,-31.67,-37.95,112.1,-8.35,2.5,-29.94,0.54,-0.38,-0.52,1000
17:13:56.893,-31.01,-38.86,111.77,-6.16,1.28,-29.82,0.54,-0.36,-0.51,1000
17:13:56.893,-30.27,-39.73,111.47,-4.33,0.24,-29.02,0.55,-0.35,-0.49,1000
17:13:56.904,-29.53,-40.69,111.13,-2.32,-0.73,-28.05,0.55,-0.35,-0.51,1000
17:13:56.914,-28.85,-41.33,110.82,-1.1,-1.22,-27.26,0.54,-0.35,-0.53,1000
17:13:56.926,-28.28,-41.62,110.53,-0.43,-2.2,-26.95,0.54,-0.36,-0.56,1000
17:13:56.937,-27.65,-41.7,110.2,-0.49,-4.57,-26.89,0.56,-0.35,-0.58,1000
17:13:56.955,-27.01,-41.83,109.93,-2.56,-9.51,-27.62,0.58,-0.28,-0.58,1000
17:13:56.960,-26.2,-42.09,109.65,-1.71,-6.52,-27.74,0.58,-0.28,-0.61,1000
17:13:56.969,-24.79,-42.64,109.32,-9.51,-1.83,-28.6,0.64,-0.21,-0.55,1000
17:13:56.989,-23.07,-43.64,108.99,-16.83,5.55,-29.82,0.64,-0.19,-0.55,1000
17:13:56.994,-20.7,-44.94,108.63,-23.9,14.88,-30.61,0.66,-0.13,-0.56,1000
17:13:57.004,-19.26,-45.81,108.33,-29.21,23.72,-30.61,0.66,-0.14,-0.56,1000
17:13:57.013,-17.77,-46.51,108.02,-32.5,30.79,-30.49,0.65,-0.17,-0.59,1000
17:13:57.023,-16.45,-46.82,107.65,-34.21,35.3,-30.85,0.67,-0.18,-0.63,1000
17:13:57.050,-15.81,-46.58,107.31,-31.83,36.1,-31.16,0.64,-0.24,-0.66,1000
17:13:57.052,-15.6,-46.11,106.97,-27.2,33.6,-31.46,0.62,-0.23,-0.66,1000
17:13:57.056,-15.62,-45.52,106.65,-23.96,33.72,-31.04,0.62,-0.24,-0.63,1000
17:13:57.068,-15.8,-44.89,106.29,-18.72,34.09,-29.82,0.6,-0.27,-0.62,1000
17:13:57.078,-15.95,-44.58,105.97,-14.7,35.43,-27.74,0.64,-0.23,-0.61,1000
17:13:57.108,-15.94,-44.37,105.68,-10.67,36.4,-25.06,0.62,-0.24,-0.6,1000
17:13:57.109,-15.87,-44.34,105.42,-6.95,36.22,-21.28,0.63,-0.22,-0.58,1000
17:13:57.111,-15.73,-44.45,105.21,-4.15,34.45,-16.22,0.63,-0.22,-0.58,1000
17:13:57.126,-15.58,-44.61,105.06,1.46,29.7,-10.67,0.61,-0.22,-0.58,1000
17:13:57.135,-15.33,-44.78,104.97,4.27,25.98,-5.06,0.61,-0.2,-0.56,1000
17:13:57.145,-14.98,-45.05,104.94,5.67,22.32,0.73,0.59,-0.19,-0.58,1000
17:13:57.156,-14.41,-45.27,104.97,4.63,20.98,6.34,0.56,-0.23,-0.56,1000
17:13:57.167,-13.98,-45.43,105.07,2.26,16.59,11.59,0.61,-0.18,-0.58,1000
