Timestamp,Roll,Pitch,Yaw,Gyro_X,Gyro_Y,Gyro_Z,Accel_X,Accel_Y,Accel_Z,Throttle
17:51:25.980,-5.7,1.52,-78.06,4.39,-1.83,-2.13,-0.05,-0.12,1.02,1000
17:51:25.986,-5.87,2.0,-78.09,8.6,-2.13,-2.5,-0.07,-0.11,1.06,1000
17:51:25.998,-5.8,2.42,-78.11,12.87,-2.56,-1.71,-0.07,-0.11,1.05,1000
17:51:26.008,-5.97,2.49,-78.12,18.29,-3.35,0.79,-0.04,-0.14,1.08,1000
17:51:26.020,-5.78,2.2,-78.08,23.41,-4.33,5.85,-0.01,-0.1,1.08,1000
17:51:26.036,-5.38,1.66,-77.98,26.89,-4.82,11.52,0.0,-0.1,1.09,1000
17:51:26.043,-5.05,1.23,-77.82,27.26,-4.82,16.1,0.01,-0.08,1.06,1000
17:51:26.052,-4.47,0.83,-77.63,24.57,-3.78,18.23,0.0,-0.07,1.04,1000
17:51:26.063,-4.35,0.9,-77.43,21.1,-2.56,16.95,-0.04,-0.08,0.98,1000
17:51:26.074,-3.98,1.46,-77.28,17.87,-0.85,11.95,-0.07,-0.05,0.99,1000
17:51:26.085,-3.26,2.03,-77.17,12.8,-1.1,7.5,-0.06,-0.02,1.03,1000
17:51:26.096,-2.7,1.99,-77.1,9.88,-1.16,5.73,-0.02,-0.02,1.02,1000
17:51:26.109,-2.39,1.65,-77.04,7.26,-2.68,5.98,0.0,-0.04,1.03,1000
17:51:26.120,-2.35,1.21,-76.96,5.3,-3.96,7.2,0.02,-0.05,1.0,1000
17:51:26.136,-2.32,0.48,-76.88,2.38,-4.02,7.93,0.03,-0.05,1.01,1000
17:51:26.140,-2.41,0.13,-76.8,-0.79,-2.8,6.4,0.01,-0.04,0.98,1000
17:51:26.151,-2.42,0.07,-76.75,-3.72,-0.3,2.93,-0.0,-0.04,0.99,1000
17:51:26.162,-2.47,0.32,-76.74,-5.91,1.89,-0.98,-0.03,-0.04,0.99,1000
17:51:26.173,-2.32,0.52,-76.78,-6.89,3.17,-4.51,-0.01,-0.02,1.02,1000
17:51:26.187,-2.37,0.32,-76.83,-7.01,2.87,-4.45,0.02,-0.06,1.02,1000
17:51:26.195,-2.55,-0.0,-76.86,-5.49,2.26,-2.74,0.02,-0.05,1.01,1000
17:51:26.205,-2.65,-0.25,-76.88,-5.0,1.46,-1.04,0.02,-0.05,1.02,1000
17:51:26.216,-2.61,-0.43,-76.89,-5.98,1.04,-0.85,0.02,-0.05,1.01,1000
17:51:26.228,-2.94,-0.44,-76.91,-7.8,1.89,-1.89,0.0,-0.06,1.0,1000
17:51:26.241,-3.06,-0.19,-76.94,-9.15,2.93,-4.45,-0.02,-0.04,1.01,1000
17:51:26.250,-3.1,0.15,-77.01,-10.18,3.41,-7.01,-0.03,-0.07,1.01,1000
17:51:26.260,-3.4,0.75,-77.1,-8.9,2.93,-9.51,-0.06,-0.07,1.03,1000
17:51:26.271,-3.55,1.31,-77.22,-5.24,1.16,-10.55,-0.04,-0.06,1.03,1000
17:51:26.282,-3.53,1.4,-77.32,-2.5,-1.77,-8.54,-0.02,-0.07,1.08,1000
17:51:26.293,-3.68,1.19,-77.39,-0.18,-3.78,-4.7,-0.0,-0.08,1.04,1000
17:51:26.305,-3.95,0.79,-77.42,2.13,-4.09,-0.67,0.01,-0.09,1.06,1000
17:51:26.316,-4.03,0.56,-77.41,1.28,-2.74,1.59,-0.01,-0.07,1.03,1000
17:51:26.327,-3.99,0.57,-77.39,-0.18,-0.55,1.59,-0.02,-0.07,1.02,1000
17:51:26.344,-3.9,0.7,-77.39,-3.96,1.95,0.06,-0.02,-0.05,1.03,1000
17:51:26.350,-3.7,0.75,-77.4,-7.32,3.9,-1.65,-0.01,-0.04,1.02,1000
17:51:26.359,-3.79,0.72,-77.42,-10.43,4.51,-2.87,-0.01,-0.09,1.01,1000
17:51:26.371,-4.09,0.9,-77.47,-12.26,3.84,-4.82,-0.03,-0.07,1.02,1000
17:51:26.382,-4.15,1.2,-77.53,-10.91,2.68,-6.22,-0.05,-0.07,1.01,1000
17:51:26.393,-4.26,1.78,-77.61,-9.82,-0.06,-8.54,-0.07,-0.08,1.05,1000
17:51:26.405,-4.17,1.99,-77.71,-6.52,-2.68,-8.48,-0.04,-0.06,1.04,1000
17:51:26.415,-4.33,1.75,-77.79,-2.93,-4.27,-5.98,-0.01,-0.1,1.05,1000
17:51:26.426,-4.64,1.49,-77.84,0.85,-4.33,-3.11,-0.02,-0.1,1.03,1000
17:51:26.455,-4.68,1.33,-77.86,3.17,-2.93,-1.16,-0.01,-0.09,1.05,1000
17:51:26.455,-4.97,1.19,-77.86,4.76,0.37,-0.06,-0.02,-0.11,1.01,1000
17:51:26.459,-4.89,1.43,-77.87,5.06,3.11,-0.79,-0.05,-0.07,1.05,1000
17:51:26.470,-4.59,1.63,-77.88,4.21,5.0,-1.1,-0.03,-0.07,1.02,1000
17:51:26.481,-4.61,1.72,-77.88,4.82,5.3,-0.67,-0.04,-0.09,1.03,1000
17:51:26.492,-4.39,1.84,-77.89,3.84,3.66,0.3,-0.03,-0.06,1.04,1000
17:51:26.502,-4.32,1.8,-77.88,2.74,1.52,1.34,-0.02,-0.09,1.03,1000
17:51:26.514,-4.45,1.62,-77.86,0.85,-0.49,2.26,-0.01,-0.09,1.03,1000
17:51:26.525,-4.46,1.45,-77.83,-1.4,-1.52,2.8,-0.01,-0.08,1.02,1000
17:51:26.548,-4.52,1.2,-77.8,-3.9,-1.65,2.32,-0.01,-0.09,1.01,1000
17:51:26.548,-4.59,1.26,-77.78,-5.49,-0.85,0.55,-0.04,-0.07,1.02,1000
17:51:26.558,-4.33,1.45,-77.8,-5.73,0.3,-1.95,-0.04,-0.05,1.02,1000
17:51:26.569,-4.24,1.51,-77.83,-5.73,0.3,-3.41,-0.02,-0.07,1.03,1000
17:51:26.580,-4.21,1.45,-77.86,-3.48,-0.18,-3.48,-0.02,-0.07,1.02,1000
17:51:26.590,-4.2,1.35,-77.89,-1.89,-1.34,-2.38,-0.01,-0.08,1.04,1000
17:51:26.601,-4.34,0.98,-77.91,0.18,-1.95,-0.49,0.01,-0.09,1.03,1000
17:51:26.613,-4.46,0.64,-77.91,0.85,-1.65,0.73,0.0,-0.08,1.04,1000
17:51:26.624,-4.57,0.58,-77.9,1.65,-0.3,0.79,-0.02,-0.09,1.02,1000
17:51:26.637,-4.48,0.83,-77.9,1.28,0.73,-0.73,-0.03,-0.07,1.05,1000
17:51:26.652,-4.3,0.91,-77.91,0.3,0.79,-1.4,-0.01,-0.07,1.03,1000
17:51:26.657,-4.34,0.81,-77.92,-0.18,0.43,-0.73,-0.01,-0.08,1.03,1000
17:51:26.669,-4.3,0.75,-77.92,-1.16,-0.98,0.0,-0.01,-0.08,1.02,1000
17:51:26.679,-4.36,0.79,-77.92,-2.01,-2.13,0.37,-0.02,-0.08,1.03,1000
17:51:26.689,-4.37,0.8,-77.91,-2.56,-3.05,0.43,-0.02,-0.08,1.02,1000
17:51:26.702,-4.41,0.94,-77.91,-2.93,-3.48,0.06,-0.03,-0.08,1.04,1000
17:51:26.712,-4.32,1.0,-77.92,-2.2,-2.99,-0.18,-0.02,-0.07,1.03,1000
17:51:26.723,-4.3,0.82,-77.91,-2.07,-2.74,0.49,-0.0,-0.09,1.05,1000
17:51:26.735,-4.5,0.6,-77.9,-1.1,-0.67,1.22,0.0,-0.09,1.03,1000
17:51:26.753,-4.55,0.42,-77.89,-1.28,1.28,1.65,0.01,-0.09,1.04,1000
17:51:26.755,-4.8,0.4,-77.87,-0.55,3.54,1.1,-0.02,-0.11,1.01,1000
17:51:26.769,-4.64,0.86,-77.88,0.61,5.0,-1.65,-0.05,-0.05,1.05,1000
17:51:26.778,-4.48,1.1,-77.9,1.59,4.57,-2.99,-0.02,-0.08,1.04,1000
17:51:26.789,-4.47,0.97,-77.93,2.74,3.35,-2.01,-0.0,-0.09,1.04,1000
17:51:26.801,-4.46,0.89,-77.95,2.87,1.52,-1.16,-0.01,-0.08,1.04,1000
17:51:26.810,-4.47,0.88,-77.96,2.93,0.67,-1.04,-0.02,-0.08,1.03,1000
17:51:26.822,-4.54,0.84,-77.98,1.28,0.18,-1.52,-0.01,-0.08,1.02,1000
17:51:26.833,-4.61,0.85,-78.0,0.24,0.49,-2.62,-0.02,-0.09,1.02,1000
17:51:26.852,-4.5,0.98,-78.04,-1.59,0.3,-4.27,-0.02,-0.06,1.03,1000
17:51:26.857,-4.29,1.05,-78.09,-2.2,0.61,-4.88,-0.02,-0.07,1.02,1000
17:51:26.866,-4.26,1.08,-78.15,-2.26,-0.18,-5.3,-0.02,-0.07,1.02,1000
17:51:26.879,-4.14,1.17,-78.21,-1.95,-0.67,-5.49,-0.03,-0.07,1.02,1000
17:51:26.888,-4.24,1.28,-78.27,-1.16,-0.55,-5.37,-0.03,-0.08,1.03,1000
17:51:26.898,-4.24,1.33,-78.33,-0.18,-0.55,-4.88,-0.02,-0.08,1.03,1000
17:51:26.909,-4.28,1.27,-78.38,0.49,0.06,-3.72,-0.01,-0.08,1.03,1000
17:51:26.920,-4.36,1.17,-78.41,1.16,0.67,-2.2,-0.01,-0.08,1.03,1000
17:51:26.932,-4.48,1.15,-78.42,1.65,1.65,-0.61,-0.03,-0.09,1.02,1000
17:51:26.955,-4.49,1.36,-78.43,1.4,2.44,-0.79,-0.04,-0.08,1.03,1000
17:51:26.959,-4.36,1.57,-78.44,0.91,2.5,-0.61,-0.04,-0.07,1.03,1000
17:51:26.966,-4.34,1.68,-78.44,0.85,2.01,0.24,-0.04,-0.07,1.03,1000
17:51:26.976,-4.28,1.74,-78.43,0.55,1.1,0.91,-0.03,-0.07,1.02,1000
17:51:26.987,-4.3,1.72,-78.42,0.12,-0.55,1.77,-0.03,-0.09,1.02,1000
17:51:26.999,-4.38,1.76,-78.39,-0.3,-1.71,2.32,-0.04,-0.08,1.02,1000
17:51:27.009,-4.32,1.72,-78.37,-0.61,-2.38,2.32,-0.03,-0.07,1.02,1000
17:51:27.020,-4.37,1.6,-78.34,-1.52,-2.68,2.5,-0.02,-0.08,1.03,1000
17:51:27.031,-4.32,1.46,-78.31,-2.26,-2.32,2.38,-0.02,-0.07,1.02,1000
17:51:27.042,-4.3,1.36,-78.29,-3.17,-1.71,1.59,-0.02,-0.07,1.02,1000
17:51:27.068,-4.22,1.37,-78.28,-4.02,-1.16,0.98,-0.03,-0.06,1.01,1000
17:51:27.069,-4.09,1.37,-78.27,-5.43,-0.79,0.0,-0.02,-0.05,1.02,1000
17:51:27.075,-4.04,1.36,-78.28,-7.13,-1.04,-0.61,-0.02,-0.08,1.0,1000
17:51:27.086,-4.24,1.24,-78.28,-9.33,-1.28,-0.91,-0.02,-0.09,1.01,1000
17:51:27.096,-4.63,1.34,-78.3,-9.63,-1.34,-1.4,-0.04,-0.09,1.0,1000
17:51:27.108,-4.84,1.7,-78.32,-8.78,-1.59,-2.56,-0.06,-0.09,1.02,1000
17:51:27.119,-5.04,2.09,-78.35,-6.34,-2.99,-2.68,-0.06,-0.12,1.03,1000
17:51:27.130,-5.43,2.42,-78.38,-2.87,-4.27,-1.77,-0.07,-0.13,1.04,1000
17:51:27.144,-5.6,2.74,-78.38,1.65,-5.49,0.43,-0.07,-0.1,1.07,1000
17:51:27.165,-5.49,2.67,-78.35,5.0,-7.01,5.06,-0.03,-0.1,1.08,1000
17:51:27.165,-5.47,2.09,-78.26,7.8,-8.17,11.65,-0.0,-0.11,1.06,1000
17:51:27.174,-5.47,1.59,-78.11,9.21,-7.99,16.59,0.01,-0.1,1.04,1000
17:51:27.186,-5.32,1.09,-77.89,8.17,-5.49,19.7,0.0,-0.08,1.03,1000
17:51:27.196,-4.97,0.87,-77.67,3.96,-1.83,19.02,-0.01,-0.07,1.02,1000
17:51:27.206,-4.77,0.79,-77.48,-0.73,1.89,16.4,-0.01,-0.07,1.0,1000
17:51:27.221,-4.66,0.87,-77.32,-5.24,4.57,12.26,-0.02,-0.06,1.0,1000
17:51:27.230,-4.66,1.05,-77.21,-6.83,5.24,7.62,-0.04,-0.08,0.97,1000
17:51:27.249,-4.61,1.64,-77.16,-7.5,3.23,2.62,-0.06,-0.08,1.03,1000
17:51:27.252,-4.33,1.72,-77.15,-6.52,-0.49,0.67,-0.02,-0.06,1.04,1000
17:51:27.269,-4.52,1.31,-77.13,-3.96,-4.45,1.83,0.01,-0.1,1.04,1000
17:51:27.272,-4.75,0.75,-77.1,-1.34,-7.99,4.21,0.03,-0.1,1.03,1000
17:51:27.295,-4.76,0.14,-77.04,0.61,-8.54,6.04,0.03,-0.08,1.03,1000
17:51:27.295,-4.79,-0.18,-76.97,0.49,-6.65,5.43,0.01,-0.1,1.01,1000
17:51:27.306,-4.81,-0.24,-76.93,-1.34,-3.35,2.38,0.0,-0.08,1.02,1000
17:51:27.318,-4.58,-0.24,-76.92,-2.74,0.12,-0.61,-0.0,-0.07,1.0,1000
17:51:27.328,-4.48,-0.0,-76.95,-4.09,2.13,-3.78,-0.02,-0.07,1.02,1000
17:51:27.339,-4.34,0.21,-77.0,-3.9,2.8,-5.43,-0.01,-0.06,1.01,1000
17:51:27.351,-4.33,0.24,-77.06,-3.48,2.26,-5.06,-0.0,-0.09,1.03,1000
17:51:27.369,-4.53,0.2,-77.11,-2.2,0.73,-3.48,-0.0,-0.09,1.02,1000
17:51:27.372,-4.65,0.1,-77.13,-1.16,-1.04,-1.46,0.0,-0.09,1.04,1000
17:51:27.383,-4.87,0.06,-77.14,-0.98,-2.13,0.55,-0.0,-0.1,1.02,1000
17:51:27.393,-4.94,0.07,-77.13,-1.46,-2.2,1.34,-0.0,-0.09,1.03,1000
17:51:27.405,-5.02,0.14,-77.11,-2.07,-1.89,1.65,-0.02,-0.1,1.02,1000
17:51:27.415,-5.08,0.48,-77.1,-2.07,-1.34,0.18,-0.04,-0.08,1.02,1000
17:51:27.427,-4.88,0.73,-77.1,-2.38,-1.46,-0.3,-0.02,-0.08,1.03,1000
17:51:27.437,-4.99,0.71,-77.1,-2.26,-1.95,0.0,-0.01,-0.1,1.04,1000
17:51:27.452,-5.12,0.56,-77.09,-1.46,-2.26,1.52,0.0,-0.1,1.03,1000
17:51:27.471,-5.24,0.44,-77.06,-1.59,-2.01,2.44,0.0,-0.11,1.04,1000
17:51:27.471,-5.34,0.3,-77.03,-1.46,-0.73,3.05,0.0,-0.1,1.03,1000
17:51:27.482,-5.32,0.23,-77.0,-2.44,0.79,2.74,-0.0,-0.09,1.04,1000
17:51:27.494,-5.29,0.27,-76.98,-3.6,2.38,1.59,-0.01,-0.09,1.02,1000
17:51:27.505,-5.2,0.4,-76.97,-4.45,3.17,0.12,-0.02,-0.08,1.02,1000
17:51:27.516,-5.08,0.58,-76.98,-4.88,3.17,-1.22,-0.02,-0.08,1.02,1000
17:51:27.526,-5.1,0.69,-77.0,-4.82,1.65,-2.01,-0.02,-0.09,1.03,1000
17:51:27.538,-5.17,0.77,-77.02,-4.33,0.0,-2.2,-0.01,-0.1,1.03,1000
17:51:27.548,-5.3,0.71,-77.04,-3.48,-1.65,-1.71,-0.01,-0.11,1.02,1000
17:51:27.559,-5.4,0.78,-77.06,-2.44,-2.44,-1.77,-0.03,-0.1,1.03,1000
17:51:27.574,-5.31,0.9,-77.08,-0.98,-1.77,-2.01,-0.02,-0.09,1.03,1000
17:51:27.582,-5.34,0.9,-77.1,-0.55,-1.16,-1.52,-0.01,-0.1,1.03,1000
17:51:27.591,-5.4,0.76,-77.11,0.06,0.3,-0.3,0.0,-0.1,1.02,1000
17:51:27.602,-5.54,0.59,-77.11,0.24,1.89,0.73,0.0,-0.11,1.03,1000
17:51:27.615,-5.65,0.53,-77.1,0.24,3.48,1.22,-0.01,-0.11,1.01,1000
17:51:27.625,-5.65,0.85,-77.08,0.06,4.02,0.43,-0.05,-0.09,1.03,1000
17:51:27.635,-5.45,1.18,-77.09,0.49,3.48,-0.24,-0.03,-0.08,1.02,1000
17:51:27.646,-5.45,1.17,-77.09,0.12,1.4,0.37,-0.01,-0.1,1.04,1000
17:51:27.658,-5.53,1.01,-77.07,0.0,-0.55,1.89,-0.01,-0.1,1.02,1000
17:51:27.672,-5.53,0.84,-77.05,-0.55,-2.2,3.17,-0.01,-0.1,1.03,1000
17:51:27.682,-5.54,0.74,-77.01,-1.89,-2.56,3.17,-0.01,-0.1,1.01,1000
17:51:27.693,-5.47,0.78,-76.98,-3.05,-2.13,2.07,-0.02,-0.08,1.02,1000
17:51:27.701,-5.33,0.82,-76.97,-4.39,-1.16,0.79,-0.01,-0.08,1.01,1000
17:51:27.712,-5.27,0.65,-76.96,-5.61,-0.12,0.43,0.01,-0.09,1.02,1000
17:51:27.723,-5.31,0.4,-76.96,-6.28,0.79,0.3,0.01,-0.09,1.01,1000
17:51:27.734,-5.41,0.31,-76.96,-6.4,1.52,0.06,-0.01,-0.1,1.02,1000
17:51:27.746,-5.46,0.39,-76.96,-6.59,1.52,-0.67,-0.01,-0.09,1.02,1000
17:51:27.757,-5.54,0.45,-76.97,-6.4,1.04,-1.4,-0.01,-0.11,1.02,1000
17:51:27.774,-5.73,0.67,-76.99,-4.45,0.24,-2.38,-0.04,-0.1,1.02,1000
17:51:27.779,-5.67,0.99,-77.03,-2.44,-0.91,-3.41,-0.03,-0.1,1.04,1000
17:51:27.791,-5.79,1.07,-77.06,-0.24,-2.2,-2.87,-0.02,-0.12,1.04,1000
17:51:27.801,-5.98,0.94,-77.08,2.13,-2.99,-1.1,-0.0,-0.11,1.05,1000
17:51:27.812,-5.94,0.67,-77.08,2.8,-3.35,1.52,0.0,-0.11,1.05,1000
17:51:27.824,-6.05,0.45,-77.05,2.8,-2.44,3.23,0.0,-0.12,1.02,1000
17:51:27.833,-5.92,0.3,-77.01,1.22,-0.85,3.48,0.0,-0.09,1.02,1000
17:51:27.845,-5.72,0.19,-76.98,-2.01,1.52,2.93,0.0,-0.09,1.02,1000
17:51:27.856,-5.76,0.14,-76.95,-4.7,3.23,1.28,-0.0,-0.1,1.0,1000
17:51:27.880,-5.6,0.16,-76.96,-8.35,3.9,-0.98,0.0,-0.09,1.02,1000
17:51:27.881,-5.67,0.26,-76.98,-11.28,3.72,-2.99,-0.01,-0.1,1.0,1000
17:51:27.889,-5.7,0.4,-77.02,-13.17,2.87,-4.88,-0.02,-0.09,1.02,1000
17:51:27.900,-5.77,0.53,-77.09,-14.02,0.67,-6.22,-0.02,-0.11,1.02,1000
17:51:27.910,-5.97,0.78,-77.16,-12.8,-1.59,-7.07,-0.03,-0.11,1.04,1000
17:51:27.923,-6.09,0.99,-77.24,-11.4,-3.96,-7.74,-0.03,-0.11,1.04,1000
17:51:27.932,-6.35,0.96,-77.32,-8.96,-5.49,-7.01,-0.02,-0.14,1.05,1000
17:51:27.943,-6.67,0.84,-77.39,-6.59,-6.1,-5.49,-0.01,-0.13,1.05,1000
17:51:27.993,-6.86,0.72,-77.44,-4.27,-5.37,-4.09,-0.0,-0.15,1.05,1000
17:51:28.005,-7.12,0.63,-77.47,-1.71,-3.84,-2.56,-0.02,-0.14,1.05,1000
17:51:28.005,-7.12,0.74,-77.5,1.28,-1.28,-2.01,-0.03,-0.12,1.05,1000
17:51:28.006,-7.1,0.92,-77.52,3.78,0.24,-1.77,-0.03,-0.13,1.05,1000
17:51:28.006,-7.01,1.03,-77.53,6.1,1.77,-1.1,-0.02,-0.12,1.05,1000
17:51:28.010,-6.9,1.05,-77.54,8.72,2.44,-0.06,-0.02,-0.14,1.04,1000
17:51:28.020,-6.94,1.15,-77.54,9.82,2.13,0.43,-0.02,-0.13,1.06,1000
17:51:28.033,-6.73,1.12,-77.53,10.0,1.65,1.52,-0.01,-0.11,1.05,1000
17:51:28.044,-6.67,0.92,-77.5,8.72,1.22,2.87,-0.0,-0.13,1.05,1000
17:51:28.053,-6.64,0.76,-77.47,7.01,1.04,3.17,-0.01,-0.11,1.03,1000
17:51:28.065,-6.41,0.74,-77.43,4.63,1.34,2.26,-0.01,-0.1,1.03,1000
17:51:28.086,-6.28,0.77,-77.42,1.95,1.77,0.79,-0.01,-0.11,1.02,1000
17:51:28.086,-6.09,0.78,-77.42,-0.3,2.13,-0.79,-0.01,-0.09,1.01,1000
17:51:28.097,-5.9,0.78,-77.43,-2.2,1.77,-1.59,-0.01,-0.09,1.01,1000
17:51:28.108,-5.75,0.75,-77.45,-3.41,1.22,-2.38,-0.0,-0.09,1.01,1000
17:51:28.120,-5.62,0.61,-77.48,-4.09,0.79,-2.74,-0.0,-0.1,1.01,1000
17:51:28.131,-5.69,0.58,-77.52,-4.45,0.73,-3.48,-0.01,-0.1,1.01,1000
17:51:28.141,-5.61,0.65,-77.56,-3.6,1.4,-4.02,-0.02,-0.09,1.01,1000
17:51:28.152,-5.56,0.92,-77.6,-2.87,1.65,-4.57,-0.04,-0.1,1.02,1000
17:51:28.165,-5.52,1.17,-77.66,-1.04,1.71,-4.76,-0.03,-0.1,1.02,1000
17:51:28.187,-5.62,1.21,-77.71,0.55,1.46,-3.78,-0.02,-0.11,1.03,1000
17:51:28.190,-5.79,1.16,-77.74,1.95,0.79,-1.95,-0.01,-0.12,1.02,1000
17:51:28.198,-5.92,1.14,-77.74,3.54,0.3,-0.06,-0.02,-0.11,1.02,1000
17:51:28.209,-5.99,1.19,-77.74,4.02,-0.18,1.16,-0.02,-0.12,1.02,1000
17:51:28.218,-5.98,1.31,-77.72,4.09,-0.3,1.34,-0.03,-0.11,1.03,1000
17:51:28.230,-5.98,1.38,-77.71,3.48,-0.12,1.77,-0.03,-0.11,1.02,1000
17:51:28.240,-6.04,1.3,-77.69,2.2,0.37,1.83,-0.01,-0.12,1.03,1000
17:51:28.253,-6.11,1.24,-77.67,0.79,0.67,1.95,-0.02,-0.11,1.02,1000
17:51:28.263,-6.27,1.3,-77.65,0.79,0.67,1.65,-0.04,-0.12,1.01,1000
17:51:28.276,-6.19,1.59,-77.64,0.55,-0.06,0.24,-0.04,-0.1,1.04,1000
17:51:28.287,-6.06,1.6,-77.64,1.04,-1.28,0.55,-0.02,-0.1,1.04,1000
17:51:28.297,-6.04,1.36,-77.62,2.01,-2.32,2.26,-0.01,-0.11,1.04,1000
17:51:28.306,-6.06,1.14,-77.59,2.74,-2.93,3.6,-0.01,-0.12,1.03,1000
17:51:28.318,-6.15,1.01,-77.54,3.6,-2.5,4.15,-0.02,-0.11,1.03,1000
17:51:28.329,-6.04,0.97,-77.5,2.99,-1.59,3.9,-0.01,-0.1,1.02,1000
17:51:28.340,-5.91,0.79,-77.45,1.65,-0.73,3.96,0.0,-0.1,1.02,1000
17:51:28.350,-5.87,0.53,-77.41,0.12,0.55,4.09,0.01,-0.1,1.0,1000
17:51:28.362,-5.83,0.41,-77.36,-0.49,1.77,3.66,-0.01,-0.1,0.99,1000
17:51:28.373,-5.73,0.57,-77.33,-1.52,2.62,2.13,-0.03,-0.09,1.01,1000
17:51:28.393,-5.47,0.75,-77.32,-1.83,2.56,0.91,-0.02,-0.08,1.01,1000
17:51:28.395,-5.48,0.72,-77.31,-1.89,2.07,0.67,-0.01,-0.1,1.02,1000
17:51:28.406,-5.52,0.59,-77.3,-1.71,1.1,1.22,-0.0,-0.1,1.01,1000
17:51:28.416,-5.56,0.49,-77.29,-1.89,0.55,1.46,-0.0,-0.1,1.01,1000
17:51:28.429,-5.67,0.42,-77.27,-2.07,0.18,1.83,-0.0,-0.1,1.0,1000
17:51:28.439,-5.67,0.42,-77.25,-2.68,0.06,0.98,-0.01,-0.1,1.01,1000
17:51:28.449,-5.66,0.52,-77.25,-3.84,0.61,-0.3,-0.02,-0.1,1.01,1000
17:51:28.460,-5.65,0.55,-77.26,-4.45,1.16,-1.04,-0.01,-0.1,1.01,1000
17:51:28.472,-5.76,0.51,-77.27,-5.18,1.1,-1.34,-0.01,-0.11,1.01,1000
17:51:28.496,-5.81,0.51,-77.29,-5.24,0.73,-1.28,-0.01,-0.1,1.01,1000
17:51:28.497,-5.89,0.67,-77.3,-4.82,0.18,-1.89,-0.03,-0.11,1.0,1000
17:51:28.504,-5.83,0.99,-77.33,-4.7,-0.98,-2.8,-0.04,-0.09,1.02,1000
17:51:28.518,-5.85,1.17,-77.36,-4.7,-2.38,-2.74,-0.03,-0.11,1.02,1000
17:51:28.526,-6.0,1.16,-77.39,-3.66,-3.48,-1.95,-0.02,-0.12,1.03,1000
17:51:28.537,-6.1,0.98,-77.4,-2.56,-3.9,-0.55,-0.0,-0.12,1.03,1000
17:51:28.553,-6.24,0.8,-77.4,-1.52,-3.48,1.04,-0.01,-0.12,1.03,1000
17:51:28.560,-6.33,0.68,-77.39,-1.46,-1.95,1.46,-0.01,-0.12,1.02,1000
17:51:28.576,-6.38,0.67,-77.37,-1.4,0.49,0.73,-0.02,-0.12,1.02,1000
17:51:28.583,-6.36,0.8,-77.37,-2.38,2.38,-0.3,-0.03,-0.11,1.03,1000
17:51:28.597,-6.26,0.97,-77.38,-2.26,3.54,-1.52,-0.02,-0.1,1.02,1000
17:51:28.606,-6.24,1.07,-77.4,-2.38,3.29,-1.65,-0.02,-0.11,1.03,1000
17:51:28.615,-6.28,1.1,-77.42,-2.32,2.13,-1.34,-0.02,-0.12,1.03,1000
17:51:28.625,-6.4,1.04,-77.42,-1.77,0.12,-0.24,-0.01,-0.13,1.03,1000
17:51:28.637,-6.55,1.04,-77.42,-1.77,-1.4,0.18,-0.02,-0.12,1.03,1000
17:51:28.648,-6.58,1.07,-77.42,-1.89,-2.32,0.37,-0.02,-0.12,1.03,1000
17:51:28.661,-6.62,1.11,-77.42,-2.2,-2.68,0.12,-0.02,-0.12,1.03,1000
17:51:28.670,-6.53,1.13,-77.42,-2.07,-2.68,0.43,-0.02,-0.11,1.03,1000
17:51:28.681,-6.49,1.02,-77.41,-2.13,-2.13,1.16,-0.01,-0.12,1.03,1000
17:51:28.698,-6.5,0.89,-77.39,-1.34,-1.1,1.71,-0.01,-0.11,1.02,1000
17:51:28.703,-6.45,0.79,-77.37,-0.98,0.49,2.01,-0.01,-0.11,1.03,1000
17:51:28.713,-6.49,0.82,-77.35,-0.12,2.5,1.65,-0.02,-0.12,1.02,1000
17:51:28.725,-6.35,0.95,-77.34,1.4,4.02,0.73,-0.02,-0.1,1.03,1000
17:51:28.737,-6.23,1.06,-77.34,2.68,4.15,-0.37,-0.02,-0.12,1.03,1000
17:51:28.747,-6.24,1.14,-77.35,4.39,3.66,-1.4,-0.02,-0.11,1.04,1000
17:51:28.757,-6.27,1.13,-77.37,5.55,2.38,-1.77,-0.02,-0.13,1.04,1000
17:51:28.769,-6.47,1.2,-77.39,6.83,0.73,-2.99,-0.03,-0.14,1.04,1000
17:51:28.783,-6.48,1.29,-77.43,7.38,-1.4,-3.48,-0.02,-0.12,1.05,1000
17:51:28.799,-6.48,1.29,-77.47,7.87,-3.66,-3.17,-0.03,-0.13,1.03,1000
17:51:28.801,-6.47,1.34,-77.5,8.41,-5.61,-2.62,-0.03,-0.12,1.04,1000
17:51:28.815,-6.41,1.14,-77.52,8.11,-6.95,-0.98,-0.0,-0.11,1.04,1000
17:51:28.824,-6.25,0.84,-77.52,6.89,-6.59,1.4,0.0,-0.11,1.03,1000
17:51:28.835,-6.01,0.67,-77.49,4.57,-5.3,2.93,-0.01,-0.1,1.03,1000
17:51:28.847,-5.85,0.5,-77.45,2.2,-2.56,3.6,-0.0,-0.1,1.01,1000
17:51:28.857,-5.7,0.48,-77.41,-0.61,0.18,3.35,-0.01,-0.09,1.01,1000
17:51:28.869,-5.43,0.48,-77.38,-3.23,2.99,2.74,-0.01,-0.08,1.0,1000
17:51:28.878,-5.33,0.46,-77.35,-5.37,4.51,2.5,-0.0,-0.09,1.01,1000
17:51:28.910,-5.33,0.48,-77.32,-5.79,4.88,1.95,-0.01,-0.09,1.0,1000
17:51:28.910,-5.36,0.67,-77.31,-5.79,4.57,0.67,-0.02,-0.09,1.02,1000
17:51:28.912,-5.42,0.9,-77.31,-5.24,2.8,-0.43,-0.03,-0.11,1.01,1000
17:51:28.923,-5.63,1.25,-77.32,-2.8,0.61,-2.07,-0.05,-0.1,1.02,1000
17:51:28.933,-5.59,1.54,-77.35,-0.37,-1.77,-2.87,-0.04,-0.1,1.04,1000
17:51:28.946,-5.73,1.46,-77.38,1.65,-3.6,-2.01,-0.01,-0.12,1.04,1000
17:51:28.956,-5.89,1.17,-77.4,3.23,-4.15,-0.61,0.0,-0.12,1.03,1000
17:51:28.966,-6.04,0.85,-77.39,3.41,-3.54,0.79,0.0,-0.12,1.03,1000
17:51:28.978,-6.18,0.62,-77.38,2.44,-1.22,1.1,-0.0,-0.11,1.02,1000
17:51:28.989,-6.14,0.61,-77.38,0.91,1.22,0.18,-0.02,-0.1,1.02,1000
17:51:29.008,-5.94,0.78,-77.38,-0.85,3.41,-1.34,-0.02,-0.09,1.02,1000
17:51:29.013,-5.75,0.88,-77.4,-2.07,4.09,-2.13,-0.02,-0.09,1.02,1000
17:51:29.021,-5.74,0.96,-77.43,-2.8,4.02,-2.56,-0.02,-0.1,1.02,1000
17:51:29.033,-5.74,1.04,-77.46,-2.62,3.29,-2.68,-0.02,-0.1,1.02,1000
17:51:29.044,-5.8,1.1,-77.48,-2.62,1.77,-2.13,-0.02,-0.11,1.03,1000
17:51:29.063,-5.96,1.22,-77.51,-1.89,0.37,-2.01,-0.04,-0.11,1.02,1000
17:51:29.069,-5.97,1.47,-77.53,-1.22,-1.1,-2.56,-0.05,-0.11,1.04,1000
17:51:29.076,-5.97,1.6,-77.56,0.0,-2.68,-2.5,-0.03,-0.11,1.03,1000
17:51:29.088,-6.03,1.51,-77.58,0.91,-3.54,-1.34,-0.02,-0.11,1.04,1000
17:51:29.108,-6.13,1.34,-77.59,2.56,-3.72,0.06,-0.02,-0.12,1.02,1000
17:51:29.110,-6.12,1.31,-77.58,3.35,-3.05,0.67,-0.02,-0.11,1.03,1000
17:51:29.123,-6.11,1.22,-77.57,3.05,-1.83,1.4,-0.01,-0.12,1.02,1000
17:51:29.132,-6.12,1.2,-77.55,3.05,0.18,1.52,-0.03,-0.1,1.02,1000
17:51:29.142,-5.93,1.27,-77.54,2.32,1.71,1.28,-0.02,-0.1,1.02,1000
17:51:29.155,-5.93,1.17,-77.52,1.83,2.74,1.65,-0.01,-0.11,1.02,1000
17:51:29.166,-5.9,1.15,-77.5,0.73,3.17,1.52,-0.02,-0.1,1.02,1000
17:51:29.176,-5.82,1.18,-77.48,-0.06,2.56,1.65,-0.02,-0.1,1.02,1000
17:51:29.186,-5.77,1.33,-77.47,-0.98,1.34,1.4,-0.03,-0.09,1.02,1000
17:51:29.199,-5.67,1.38,-77.45,-1.77,-0.12,1.04,-0.02,-0.1,1.02,1000
17:51:29.211,-5.69,1.23,-77.44,-3.11,-1.59,1.46,-0.01,-0.1,1.03,1000
17:51:29.220,-5.71,1.06,-77.42,-4.09,-2.2,1.59,-0.01,-0.1,1.02,1000
17:51:29.233,-5.75,0.87,-77.41,-4.94,-2.01,1.77,-0.01,-0.11,1.02,1000
17:51:29.242,-5.87,0.79,-77.39,-5.0,-0.98,1.1,-0.01,-0.1,1.02,1000
17:51:29.252,-5.84,0.89,-77.38,-4.21,0.0,-0.18,-0.04,-0.09,1.02,1000
17:51:29.264,-5.7,1.18,-77.4,-3.35,0.3,-1.83,-0.03,-0.1,1.03,1000
17:51:29.274,-5.65,1.21,-77.42,-1.89,0.43,-2.26,-0.02,-0.1,1.03,1000
17:51:29.285,-5.77,1.05,-77.44,0.0,0.49,-1.28,-0.01,-0.12,1.03,1000
17:51:29.297,-5.9,0.98,-77.45,1.28,0.79,-0.67,-0.01,-0.11,1.03,1000
17:51:29.316,-6.03,1.02,-77.46,1.71,1.28,-0.61,-0.02,-0.12,1.02,1000
17:51:29.320,-6.09,1.21,-77.47,1.65,1.22,-0.98,-0.03,-0.11,1.03,1000
17:51:29.330,-6.02,1.3,-77.48,1.28,0.79,-1.4,-0.03,-0.11,1.03,1000
17:51:29.340,-6.09,1.3,-77.49,0.85,-0.3,-1.04,-0.03,-0.12,1.03,1000
17:51:29.352,-6.15,1.34,-77.51,0.24,-1.34,-0.91,-0.02,-0.11,1.03,1000
17:51:29.362,-6.23,1.3,-77.51,-1.1,-2.2,-0.55,-0.02,-0.12,1.03,1000
17:51:29.375,-6.32,1.19,-77.52,-2.44,-2.44,-0.06,-0.02,-0.11,1.02,1000
17:51:29.385,-6.26,1.13,-77.51,-2.74,-2.26,0.12,-0.02,-0.11,1.02,1000
17:51:29.396,-6.21,1.09,-77.51,-3.54,-1.34,0.3,-0.02,-0.1,1.02,1000
17:51:29.417,-6.15,1.08,-77.51,-3.54,-0.06,0.12,-0.02,-0.1,1.03,1000
17:51:29.419,-6.1,1.1,-77.51,-3.05,1.16,-0.06,-0.02,-0.1,1.02,1000
17:51:29.428,-5.98,1.24,-77.52,-1.83,1.71,-0.79,-0.03,-0.09,1.02,1000
17:51:29.440,-5.85,1.41,-77.53,-0.55,1.89,-1.22,-0.03,-0.1,1.02,1000
17:51:29.452,-5.93,1.59,-77.54,1.46,1.4,-1.52,-0.05,-0.11,1.02,1000
17:51:29.463,-5.87,1.78,-77.56,2.87,0.91,-1.4,-0.04,-0.1,1.03,1000
17:51:29.472,-5.97,1.7,-77.57,3.17,-0.06,0.0,-0.02,-0.12,1.03,1000
17:51:29.484,-6.12,1.43,-77.56,3.17,-0.43,1.52,-0.0,-0.12,1.02,1000
17:51:29.495,-6.2,1.2,-77.53,1.83,-0.24,3.05,-0.01,-0.12,1.02,1000
17:51:29.526,-6.24,1.09,-77.49,-0.12,0.67,3.29,-0.01,-0.11,1.01,1000
17:51:29.526,-6.17,1.06,-77.46,-2.74,2.13,2.44,-0.02,-0.1,1.02,1000
17:51:29.528,-6.03,1.02,-77.44,-4.7,3.35,1.59,-0.01,-0.09,1.0,1000
17:51:29.540,-5.89,0.88,-77.42,-6.16,3.84,1.16,-0.01,-0.09,1.01,1000
17:51:29.550,-5.74,0.85,-77.41,-7.2,3.72,0.43,-0.02,-0.1,1.0,1000
17:51:29.560,-5.81,0.88,-77.42,-8.72,3.35,-0.79,-0.01,-0.1,1.0,1000
17:51:29.571,-5.89,0.89,-77.43,-8.66,2.62,-1.65,-0.03,-0.1,1.0,1000
17:51:29.637,-5.89,1.01,-77.45,-8.66,1.46,-2.87,-0.02,-0.1,1.01,1000
17:51:29.637,-6.0,1.02,-77.49,-7.68,0.43,-3.48,-0.01,-0.11,1.01,1000
17:51:29.637,-6.17,1.13,-77.53,-5.43,-0.67,-4.39,-0.04,-0.11,1.01,1000
17:51:29.637,-6.22,1.45,-77.59,-3.11,-1.65,-5.85,-0.04,-0.12,1.03,1000
17:51:29.637,-6.44,1.59,-77.66,-0.12,-2.62,-6.34,-0.04,-0.14,1.03,1000
17:51:29.640,-6.71,1.74,-77.73,3.66,-3.78,-6.04,-0.04,-0.15,1.04,1000
17:51:29.648,-6.62,1.63,-77.79,5.98,-4.51,-4.15,-0.02,-0.12,1.06,1000
17:51:29.660,-6.75,1.32,-77.81,7.8,-4.21,-1.22,-0.0,-0.14,1.04,1000
17:51:29.672,-6.86,0.91,-77.81,8.23,-2.93,1.77,0.01,-0.13,1.04,1000
17:51:29.682,-6.79,0.64,-77.78,6.77,-0.49,3.29,0.0,-0.13,1.02,1000
17:51:29.692,-6.74,0.6,-77.74,4.15,3.23,3.05,-0.01,-0.12,1.02,1000
17:51:29.704,-6.61,0.65,-77.72,1.16,5.98,1.71,-0.01,-0.11,1.01,1000
17:51:29.724,-6.59,0.81,-77.71,-1.95,7.44,0.24,-0.03,-0.12,1.0,1000
17:51:29.726,-6.41,1.24,-77.72,-5.06,6.52,-2.38,-0.04,-0.09,1.02,1000
17:51:29.739,-6.2,1.48,-77.76,-6.83,3.9,-3.29,-0.04,-0.1,1.02,1000
17:51:29.751,-6.25,1.57,-77.79,-7.26,0.43,-3.23,-0.03,-0.11,1.03,1000
17:51:29.758,-6.37,1.54,-77.83,-7.26,-3.17,-2.68,-0.03,-0.12,1.03,1000
17:51:29.770,-6.6,1.48,-77.85,-6.95,-5.49,-2.01,-0.03,-0.13,1.04,1000
17:51:29.781,-6.81,1.37,-77.87,-6.4,-5.91,-1.34,-0.02,-0.13,1.03,1000
17:51:29.792,-7.01,1.43,-77.89,-4.45,-5.12,-1.22,-0.05,-0.13,1.03,1000
17:51:29.806,-6.9,1.77,-77.91,-2.2,-3.6,-2.38,-0.05,-0.11,1.05,1000
17:51:29.833,-6.8,1.77,-77.93,0.24,-2.62,-1.65,-0.02,-0.12,1.05,1000
17:51:29.833,-6.9,1.57,-77.93,3.96,-1.46,0.67,-0.02,-0.13,1.04,1000
17:51:29.835,-6.79,1.45,-77.91,6.28,-0.79,2.56,-0.02,-0.12,1.04,1000
17:51:29.848,-6.65,1.28,-77.87,8.05,0.0,4.51,-0.01,-0.12,1.03,1000
17:51:29.857,-6.52,1.11,-77.81,7.8,1.1,5.43,-0.01,-0.11,1.03,1000
17:51:29.868,-6.38,1.0,-77.75,6.28,1.83,5.3,-0.01,-0.11,1.02,1000
17:51:29.879,-6.25,1.01,-77.7,4.09,2.68,3.78,-0.02,-0.11,1.0,1000
17:51:29.890,-6.08,1.12,-77.67,1.71,2.74,1.89,-0.03,-0.1,1.01,1000
17:51:29.901,-6.0,1.29,-77.67,0.12,1.77,-0.55,-0.04,-0.1,1.0,1000
17:51:29.914,-5.9,1.48,-77.68,-1.04,-0.55,-2.62,-0.04,-0.1,1.02,1000
17:51:29.928,-5.83,1.51,-77.72,-1.46,-2.8,-3.48,-0.02,-0.11,1.01,1000
17:51:29.934,-5.95,1.28,-77.75,-1.16,-4.76,-2.93,-0.0,-0.12,1.02,1000
17:51:29.945,-6.14,0.95,-77.78,-0.37,-4.88,-1.77,0.0,-0.12,1.01,1000
17:51:29.956,-6.22,0.91,-77.8,0.0,-3.48,-2.38,-0.03,-0.11,1.02,1000
17:51:29.969,-6.21,1.03,-77.83,0.85,-1.28,-3.17,-0.03,-0.11,1.01,1000
17:51:29.979,-6.16,1.2,-77.87,1.52,0.49,-4.09,-0.03,-0.11,1.04,1000
17:51:29.990,-6.15,1.23,-77.91,2.2,1.28,-3.66,-0.01,-0.1,1.02,1000
17:51:30.000,-6.06,1.09,-77.94,3.05,1.4,-1.65,-0.01,-0.12,1.04,1000
17:51:30.013,-6.17,0.94,-77.95,2.32,0.61,0.61,-0.0,-0.13,1.02,1000
17:51:30.040,-6.15,0.9,-77.93,1.65,0.24,1.77,-0.02,-0.1,1.02,1000
17:51:30.040,-6.09,0.95,-77.91,-0.85,-0.49,1.83,-0.02,-0.11,1.02,1000
17:51:30.045,-6.11,0.95,-77.89,-3.48,-0.61,1.22,-0.02,-0.11,1.02,1000
17:51:30.057,-6.06,0.88,-77.88,-6.1,-0.49,0.61,-0.01,-0.1,1.02,1000
17:51:30.067,-6.06,0.77,-77.88,-8.72,-0.18,-0.18,-0.01,-0.1,1.02,1000
17:51:30.078,-6.31,0.76,-77.89,-9.15,0.49,-1.34,-0.02,-0.12,1.0,1000
17:51:30.089,-6.31,1.09,-77.91,-9.15,0.12,-3.11,-0.05,-0.1,1.04,1000
17:51:30.100,-6.2,1.36,-77.96,-7.62,-0.61,-4.45,-0.04,-0.11,1.02,1000
17:51:30.111,-6.32,1.42,-78.0,-5.06,-1.46,-4.15,-0.03,-0.12,1.04,1000
17:51:30.132,-6.41,1.36,-78.04,-1.52,-2.62,-2.5,-0.02,-0.12,1.03,1000
17:51:30.132,-6.58,1.2,-78.06,0.85,-2.68,-0.91,-0.01,-0.14,1.05,1000
17:51:30.143,-6.74,1.18,-78.06,2.62,-1.89,-0.12,-0.03,-0.12,1.03,1000
17:51:30.155,-6.66,1.26,-78.06,3.54,-0.79,0.43,-0.03,-0.12,1.04,1000
17:51:30.166,-6.67,1.3,-78.05,2.87,0.3,0.49,-0.02,-0.13,1.03,1000
17:51:30.179,-6.69,1.4,-78.05,2.68,0.85,-0.24,-0.04,-0.12,1.03,1000
17:51:30.187,-6.62,1.51,-78.05,2.07,0.91,0.0,-0.03,-0.11,1.03,1000
17:51:30.199,-6.65,1.54,-78.05,1.95,-0.06,0.24,-0.03,-0.12,1.01,1000
17:51:30.209,-6.53,1.65,-78.05,1.52,-1.52,0.37,-0.04,-0.11,1.03,1000
17:51:30.221,-6.39,1.66,-78.04,0.98,-2.99,1.28,-0.03,-0.11,1.02,1000
17:51:30.237,-6.34,1.51,-78.02,1.1,-3.48,2.38,-0.02,-0.11,1.02,1000
17:51:30.242,-6.33,1.29,-77.99,0.49,-2.99,3.17,-0.01,-0.11,1.02,1000
17:51:30.253,-6.35,1.15,-77.95,-0.3,-1.34,3.29,-0.02,-0.11,1.02,1000
17:51:30.267,-6.27,1.16,-77.92,-1.52,0.18,2.44,-0.02,-0.1,1.02,1000
17:51:30.275,-6.2,1.07,-77.89,-2.56,1.4,2.26,-0.01,-0.11,1.01,1000
17:51:30.288,-6.24,1.01,-77.87,-3.84,2.32,1.46,-0.01,-0.11,1.01,1000
17:51:30.297,-6.26,0.97,-77.86,-4.63,2.62,1.28,-0.01,-0.11,1.01,1000
17:51:30.309,-6.38,0.92,-77.85,-5.37,2.26,0.85,-0.01,-0.12,1.01,1000
17:51:30.319,-6.47,0.88,-77.85,-5.91,1.59,0.55,-0.02,-0.11,1.01,1000
17:51:30.339,-6.52,0.96,-77.84,-6.34,0.67,-0.12,-0.02,-0.11,1.01,1000
17:51:30.344,-6.56,0.98,-77.85,-6.34,-0.55,-0.55,-0.02,-0.12,1.01,1000
17:51:30.353,-6.62,0.94,-77.86,-5.79,-1.52,-0.67,-0.02,-0.12,1.01,1000
17:51:30.363,-6.67,0.86,-77.87,-4.33,-1.77,-0.85,-0.01,-0.11,1.01,1000
17:51:30.374,-6.69,0.79,-77.88,-2.99,-1.28,-1.22,-0.02,-0.12,1.02,1000
17:51:30.385,-6.7,0.74,-77.9,-0.98,0.0,-2.38,-0.01,-0.12,1.02,1000
17:51:30.397,-6.8,0.65,-77.93,0.55,1.59,-3.11,-0.01,-0.13,1.02,1000
17:51:30.408,-6.87,0.6,-77.97,2.01,2.99,-3.9,-0.01,-0.13,1.02,1000
17:51:30.419,-6.87,0.58,-78.01,2.99,3.84,-4.27,-0.01,-0.13,1.02,1000
17:51:30.439,-6.83,0.66,-78.06,3.78,4.51,-4.7,-0.02,-0.12,1.02,1000
17:51:30.442,-6.79,0.82,-78.11,4.27,4.33,-5.18,-0.03,-0.12,1.02,1000
17:51:30.451,-6.68,1.1,-78.18,3.54,2.99,-5.37,-0.04,-0.12,1.02,1000
17:51:30.463,-6.65,1.29,-78.23,2.32,0.85,-4.88,-0.03,-0.12,1.02,1000
17:51:30.475,-6.72,1.4,-78.28,0.98,-1.34,-3.9,-0.03,-0.13,1.02,1000
17:51:30.486,-6.82,1.46,-78.32,-0.24,-3.29,-2.87,-0.03,-0.13,1.02,1000
17:51:30.495,-6.84,1.5,-78.34,-1.4,-4.33,-1.65,-0.03,-0.12,1.03,1000
17:51:30.507,-6.84,1.51,-78.36,-2.74,-4.39,-0.91,-0.03,-0.12,1.03,1000
17:51:30.519,-6.8,1.39,-78.36,-3.41,-2.99,0.0,-0.02,-0.12,1.03,1000
17:51:30.545,-6.8,1.3,-78.36,-3.84,-1.16,0.61,-0.02,-0.12,1.03,1000
17:51:30.545,-6.77,1.29,-78.35,-3.66,0.85,0.61,-0.02,-0.12,1.02,1000
17:51:30.551,-6.83,1.4,-78.35,-3.05,2.44,-0.43,-0.04,-0.12,1.02,1000
17:51:30.561,-6.73,1.74,-78.36,-1.95,2.62,-1.46,-0.05,-0.11,1.04,1000
17:51:30.573,-6.62,1.88,-78.38,-0.37,1.65,-1.83,-0.03,-0.12,1.04,1000
17:51:30.583,-6.73,1.78,-78.4,0.24,-0.18,-0.55,-0.02,-0.14,1.04,1000
17:51:30.594,-6.95,1.62,-78.4,1.46,-1.71,0.79,-0.02,-0.15,1.02,1000
17:51:30.606,-7.06,1.63,-78.39,2.2,-2.32,1.28,-0.04,-0.13,1.04,1000
17:51:30.621,-7.01,1.6,-78.37,2.32,-2.68,1.46,-0.02,-0.13,1.03,1000
17:51:30.648,-7.07,1.5,-78.35,2.68,-2.32,1.59,-0.03,-0.13,1.02,1000
17:51:30.648,-6.98,1.53,-78.34,2.68,-1.71,1.22,-0.03,-0.12,1.03,1000
17:51:30.651,-6.86,1.43,-78.32,2.56,-1.16,1.77,-0.01,-0.12,1.03,1000
17:51:30.660,-6.92,1.11,-78.3,2.13,-0.06,2.87,0.01,-0.13,1.02,1000
17:51:30.671,-6.87,0.88,-78.26,1.59,0.85,3.6,-0.0,-0.11,1.02,1000
17:51:30.682,-6.75,0.79,-78.22,0.61,1.83,3.48,-0.01,-0.11,1.02,1000
17:51:30.693,-6.67,0.75,-78.18,-0.3,2.68,2.87,-0.01,-0.11,1.01,1000
17:51:30.706,-6.52,0.88,-78.16,-1.4,3.11,1.22,-0.03,-0.1,1.02,1000
17:51:30.715,-6.39,0.95,-78.16,-2.38,2.99,0.0,-0.02,-0.1,1.01,1000
17:51:30.728,-6.4,1.02,-78.16,-2.68,2.38,-1.1,-0.03,-0.11,1.01,1000
17:51:30.749,-6.36,1.1,-78.18,-2.62,1.28,-2.2,-0.02,-0.11,1.02,1000
17:51:30.749,-6.37,1.07,-78.21,-2.26,0.12,-2.87,-0.01,-0.12,1.02,1000
17:51:30.759,-6.51,0.9,-78.24,-1.59,-0.18,-2.74,-0.01,-0.13,1.01,1000
17:51:30.771,-6.69,1.01,-78.28,-0.79,0.37,-3.72,-0.04,-0.12,1.03,1000
17:51:30.782,-6.68,1.17,-78.32,0.24,1.22,-4.63,-0.02,-0.12,1.04,1000
17:51:30.794,-6.83,1.08,-78.38,0.55,1.04,-4.39,-0.01,-0.14,1.04,1000
17:51:30.803,-6.96,0.97,-78.42,1.52,1.1,-3.29,-0.01,-0.13,1.02,1000
17:51:30.815,-7.0,0.86,-78.45,1.22,0.73,-1.83,-0.01,-0.13,1.04,1000
17:51:30.826,-7.03,0.84,-78.46,0.73,0.85,-1.16,-0.02,-0.13,1.02,1000
17:51:30.856,-7.02,0.89,-78.47,-0.85,0.98,-0.73,-0.02,-0.12,1.03,1000
17:51:30.856,-6.93,0.92,-78.48,-2.8,1.28,-0.67,-0.01,-0.12,1.02,1000
17:51:30.863,-6.92,0.89,-78.48,-4.39,1.52,-0.3,-0.01,-0.12,1.02,1000
17:51:30.870,-6.83,0.99,-78.49,-4.76,1.65,-0.98,-0.03,-0.11,1.02,1000
17:51:30.880,-6.74,1.35,-78.51,-4.21,1.4,-2.74,-0.05,-0.11,1.03,1000
17:51:30.891,-6.58,1.66,-78.55,-3.05,0.91,-4.02,-0.04,-0.11,1.04,1000
17:51:30.902,-6.64,1.54,-78.59,-1.52,0.0,-3.48,-0.01,-0.13,1.04,1000
17:51:30.913,-6.9,1.24,-78.62,0.3,-0.12,-2.01,0.0,-0.14,1.03,1000
17:51:30.925,-7.06,1.01,-78.63,1.28,0.43,-0.43,-0.01,-0.14,1.03,1000
17:51:30.938,-7.2,1.07,-78.63,2.38,1.89,-0.91,-0.03,-0.14,1.01,1000
17:51:30.949,-7.08,1.41,-78.65,2.56,2.93,-2.56,-0.05,-0.11,1.04,1000
17:51:30.960,-6.92,1.64,-78.69,2.38,3.17,-3.54,-0.04,-0.13,1.02,1000
17:51:30.968,-6.94,1.71,-78.73,2.38,2.5,-3.6,-0.03,-0.13,1.03,1000
17:51:30.979,-6.87,1.7,-78.76,2.2,0.91,-2.68,-0.02,-0.12,1.02,1000
17:51:30.991,-6.94,1.56,-78.78,1.52,-0.43,-1.34,-0.02,-0.13,1.03,1000
17:51:31.003,-6.96,1.47,-78.79,0.12,-0.67,-0.67,-0.02,-0.12,1.01,1000
17:51:31.012,-6.97,1.45,-78.8,-1.16,-0.18,-0.61,-0.03,-0.14,1.01,1000
17:51:31.023,-7.0,1.9,-78.81,-1.59,0.73,-2.07,-0.07,-0.11,1.02,1000
17:51:31.042,-6.85,2.24,-78.84,0.55,0.67,-3.6,-0.06,-0.11,1.03,1000
17:51:31.050,-6.85,2.11,-78.88,0.79,-0.24,-1.89,-0.02,-0.14,1.05,1000
17:51:31.056,-6.8,1.93,-78.88,3.05,-0.85,0.67,-0.02,-0.11,1.02,1000
17:51:31.071,-6.76,1.7,-78.86,4.02,-1.46,3.11,-0.02,-0.13,1.04,1000
17:51:31.080,-6.78,1.5,-78.82,3.72,-0.73,4.09,-0.02,-0.12,1.01,1000
17:51:31.089,-6.73,1.39,-78.78,2.2,1.52,3.6,-0.02,-0.12,1.02,1000
17:51:31.106,-6.7,1.33,-78.75,-0.73,3.48,2.56,-0.02,-0.12,1.01,1000
17:51:31.115,-6.67,1.28,-78.73,-3.23,5.06,0.91,-0.02,-0.12,1.0,1000
17:51:31.123,-6.7,1.48,-78.73,-4.82,5.18,-1.46,-0.05,-0.1,1.01,1000
17:51:31.136,-6.47,1.78,-78.77,-5.12,4.02,-4.02,-0.05,-0.1,1.02,1000
17:51:31.158,-6.57,1.94,-78.82,-4.27,1.52,-5.0,-0.04,-0.13,1.03,1000
17:51:31.158,-6.63,2.06,-78.87,-2.26,-0.98,-5.12,-0.04,-0.12,1.03,1000
17:51:31.166,-6.67,1.93,-78.92,-0.12,-3.29,-3.48,-0.02,-0.13,1.04,1000
17:51:31.180,-6.89,1.69,-78.95,1.4,-4.09,-1.89,-0.02,-0.14,1.02,1000
17:51:31.188,-6.94,1.46,-78.96,1.77,-3.23,-0.55,-0.01,-0.12,1.03,1000
17:51:31.199,-6.98,1.31,-78.96,1.22,-1.1,-0.18,-0.02,-0.13,1.01,1000
17:51:31.211,-7.06,1.51,-78.97,1.22,1.22,-1.4,-0.05,-0.12,1.0,1000
17:51:31.221,-6.7,2.03,-79.0,0.91,2.62,-3.35,-0.06,-0.1,1.04,1000
17:51:31.232,-6.64,2.14,-79.04,0.91,1.95,-3.05,-0.03,-0.13,1.02,1000
17:51:31.245,-6.71,1.94,-79.06,1.89,0.98,-0.79,-0.02,-0.13,1.03,1000
17:51:31.262,-6.77,1.76,-79.05,1.83,-0.49,1.1,-0.02,-0.13,1.02,1000
17:51:31.266,-6.9,1.54,-79.03,1.65,-0.73,2.8,-0.01,-0.14,1.02,1000
17:51:31.278,-6.95,1.41,-79.0,-0.06,0.06,2.68,-0.02,-0.12,1.01,1000
17:51:31.288,-6.92,1.51,-78.98,-1.34,1.59,1.16,-0.04,-0.12,1.0,1000
17:51:31.301,-6.75,1.86,-78.98,-3.05,2.13,-1.46,-0.06,-0.1,1.02,1000
17:51:31.310,-6.5,1.99,-79.01,-3.54,1.83,-2.99,-0.04,-0.1,1.02,1000
17:51:31.320,-6.59,1.89,-79.04,-2.87,0.37,-3.17,-0.02,-0.13,1.02,1000
17:51:31.333,-6.68,1.7,-79.07,-2.13,-1.1,-2.07,-0.02,-0.13,1.02,1000
17:51:31.345,-6.8,1.54,-79.09,-1.83,-1.4,-1.46,-0.02,-0.13,1.03,1000
17:51:31.368,-6.92,1.48,-79.11,-1.95,-0.61,-1.59,-0.03,-0.13,1.01,1000
17:51:31.368,-6.91,1.56,-79.13,-1.89,0.61,-2.26,-0.04,-0.12,1.02,1000
17:51:31.375,-6.85,1.76,-79.15,-2.26,1.59,-2.87,-0.04,-0.11,1.02,1000
17:51:31.387,-6.75,1.85,-79.19,-2.01,2.01,-3.11,-0.04,-0.12,1.02,1000
17:51:31.397,-6.8,1.87,-79.22,-2.13,1.28,-2.56,-0.03,-0.13,1.03,1000
17:51:31.408,-6.84,1.86,-79.24,-1.89,0.55,-1.59,-0.04,-0.13,1.02,1000
17:51:31.422,-6.91,1.87,-79.25,-2.01,-0.06,-0.91,-0.03,-0.13,1.02,1000
17:51:31.460,-6.97,1.91,-79.26,-2.38,-0.06,-0.49,-0.03,-0.13,1.02,1000
17:51:31.460,-7.06,2.01,-79.27,-2.01,0.18,-0.67,-0.05,-0.13,1.02,1000
17:51:31.460,-6.98,2.34,-79.28,-1.52,-0.37,-1.52,-0.06,-0.11,1.04,1000
17:51:31.474,-6.87,2.46,-79.3,-1.34,-1.71,-1.4,-0.04,-0.13,1.04,1000
17:51:31.495,-7.03,2.29,-79.31,-0.49,-2.56,-0.37,-0.03,-0.14,1.03,1000
17:51:31.510,-7.16,2.04,-79.3,0.06,-2.8,1.34,-0.02,-0.13,1.03,1000
17:51:31.515,-7.21,1.92,-79.29,0.24,-2.13,1.77,-0.03,-0.13,1.03,1000
17:51:31.515,-7.17,1.88,-79.27,-0.12,-0.98,1.52,-0.03,-0.12,1.02,1000
17:51:31.518,-7.12,1.83,-79.25,-0.98,0.12,0.98,-0.03,-0.12,1.02,1000
17:51:31.532,-7.06,1.74,-79.25,-1.59,1.46,0.55,-0.02,-0.12,1.02,1000
17:51:31.540,-7.02,1.63,-79.24,-2.56,2.26,0.0,-0.02,-0.12,1.02,1000
17:51:31.553,-7.06,1.63,-79.25,-2.62,2.56,-0.91,-0.03,-0.13,1.01,1000
17:51:31.568,-7.03,1.87,-79.26,-2.01,2.26,-2.2,-0.06,-0.12,1.02,1000
17:51:31.573,-6.84,2.37,-79.3,-0.55,0.79,-4.27,-0.07,-0.11,1.03,1000
17:51:31.584,-6.68,2.59,-79.35,0.79,-1.59,-4.39,-0.05,-0.12,1.04,1000
17:51:31.595,-6.79,2.36,-79.39,2.56,-3.66,-2.38,-0.02,-0.14,1.03,1000
17:51:31.606,-7.04,1.92,-79.4,3.84,-4.63,0.55,-0.01,-0.15,1.03,1000
17:51:31.617,-7.18,1.56,-79.38,3.05,-3.72,2.2,-0.01,-0.14,1.02,1000
17:51:31.628,-7.21,1.38,-79.35,1.1,-1.28,2.38,-0.02,-0.12,1.01,1000
17:51:31.640,-7.17,1.31,-79.33,-1.52,1.77,1.28,-0.02,-0.12,1.01,1000
17:51:31.651,-7.0,1.36,-79.33,-4.27,4.21,-0.55,-0.02,-0.1,1.01,1000
17:51:31.666,-6.86,1.47,-79.34,-5.61,5.55,-2.2,-0.04,-0.11,1.0,1000
17:51:31.675,-6.78,1.73,-79.38,-6.22,5.12,-3.96,-0.04,-0.11,1.03,1000
17:51:31.683,-6.78,1.83,-79.43,-5.79,3.17,-4.15,-0.03,-0.13,1.02,1000
17:51:31.695,-6.96,1.83,-79.47,-4.51,0.67,-3.78,-0.04,-0.14,1.03,1000
17:51:31.705,-7.12,1.79,-79.51,-2.99,-1.89,-2.74,-0.03,-0.14,1.02,1000
17:51:31.721,-7.29,1.66,-79.53,-2.01,-3.11,-1.65,-0.03,-0.15,1.03,1000
17:51:31.727,-7.43,1.76,-79.55,-0.61,-3.48,-1.59,-0.05,-0.13,1.02,1000
17:51:31.738,-7.25,1.99,-79.57,0.73,-2.87,-2.01,-0.05,-0.12,1.04,1000
17:51:31.749,-7.23,2.05,-79.59,0.91,-2.44,-1.65,-0.04,-0.13,1.03,1000
17:51:31.771,-7.22,1.9,-79.6,2.13,-1.22,-0.24,-0.02,-0.13,1.03,1000
17:51:31.772,-7.27,1.71,-79.59,2.38,-0.12,1.16,-0.02,-0.14,1.03,1000
17:51:31.782,-7.25,1.63,-79.57,2.32,1.04,2.07,-0.03,-0.13,1.02,1000
17:51:31.794,-7.13,1.63,-79.55,1.71,2.01,2.26,-0.03,-0.12,1.02,1000
17:51:31.804,-7.08,1.75,-79.53,1.1,2.62,1.22,-0.05,-0.13,1.02,1000
17:51:31.818,-6.96,2.06,-79.53,0.73,2.44,-0.79,-0.06,-0.11,1.03,1000
17:51:31.828,-6.87,2.22,-79.54,0.98,1.52,-1.95,-0.04,-0.12,1.03,1000
17:51:31.838,-6.98,2.17,-79.56,1.59,-0.12,-1.89,-0.03,-0.14,1.03,1000
17:51:31.854,-7.02,2.07,-79.58,1.89,-1.83,-1.34,-0.03,-0.13,1.02,1000
17:51:31.860,-7.11,1.96,-79.59,1.95,-3.05,-0.79,-0.03,-0.14,1.02,1000
17:51:31.874,-7.14,1.81,-79.6,1.16,-3.29,-0.55,-0.02,-0.13,1.01,1000
17:51:31.881,-7.09,1.63,-79.6,0.24,-1.89,-0.55,-0.02,-0.12,1.01,1000
17:51:31.892,-6.96,1.59,-79.61,-1.22,0.3,-1.16,-0.03,-0.11,1.01,1000
17:51:31.903,-6.78,1.57,-79.63,-3.05,2.56,-2.07,-0.02,-0.11,1.01,1000
17:51:31.914,-6.83,1.57,-79.66,-4.09,4.02,-2.62,-0.03,-0.12,1.0,1000
17:51:31.925,-6.81,1.67,-79.69,-5.06,4.51,-3.11,-0.03,-0.12,1.02,1000
17:51:31.936,-6.86,1.74,-79.73,-5.73,3.9,-3.05,-0.03,-0.12,1.02,1000
17:51:31.947,-6.95,1.8,-79.76,-5.37,2.74,-2.56,-0.04,-0.12,1.01,1000
17:51:31.962,-6.96,1.9,-79.79,-5.18,0.67,-2.26,-0.05,-0.13,1.01,1000
17:51:31.977,-7.09,2.08,-79.81,-4.27,-0.67,-2.44,-0.05,-0.13,1.02,1000
17:51:31.980,-7.15,2.17,-79.84,-2.93,-1.46,-2.62,-0.04,-0.13,1.03,1000
17:51:31.991,-7.2,2.15,-79.87,-2.2,-2.5,-1.83,-0.04,-0.14,1.03,1000
17:51:32.002,-7.32,2.01,-79.88,-0.79,-2.93,-0.73,-0.03,-0.13,1.02,1000
17:51:32.013,-7.31,1.9,-79.88,0.3,-2.8,0.0,-0.03,-0.13,1.02,1000
17:51:32.024,-7.38,1.92,-79.88,1.52,-2.5,0.24,-0.05,-0.13,1.01,1000
17:51:32.037,-7.25,2.07,-79.88,1.71,-2.26,-0.3,-0.05,-0.12,1.03,1000
17:51:32.046,-7.09,2.05,-79.89,1.34,-2.8,0.12,-0.03,-0.12,1.02,1000
17:51:32.061,-7.02,1.87,-79.88,0.98,-3.48,1.22,-0.02,-0.12,1.02,1000
17:51:32.075,-6.89,1.69,-79.86,-0.3,-3.96,1.77,-0.02,-0.11,1.01,1000
17:51:32.081,-6.8,1.6,-79.84,-2.32,-3.66,2.01,-0.03,-0.12,1.02,1000
17:51:32.090,-6.77,1.62,-79.82,-4.57,-2.68,1.1,-0.04,-0.11,1.01,1000
17:51:32.101,-6.59,1.88,-79.82,-6.1,-1.95,-0.24,-0.05,-0.1,1.01,1000
17:51:32.115,-6.49,2.06,-79.83,-6.83,-1.16,-1.52,-0.04,-0.11,1.01,1000
17:51:32.125,-6.48,2.16,-79.85,-5.49,-1.46,-1.59,-0.05,-0.11,1.0,1000
17:51:32.134,-6.5,2.3,-79.87,-4.39,-1.22,-1.89,-0.04,-0.11,1.0,1000
17:51:32.148,-6.59,2.51,-79.88,-2.26,-1.04,-1.77,-0.06,-0.12,0.99,1000
17:51:32.158,-6.69,2.83,-79.91,-0.61,-0.61,-2.26,-0.07,-0.12,1.0,1000
17:51:32.175,-6.8,3.0,-79.93,0.85,-0.98,-2.07,-0.06,-0.14,1.0,1000
17:51:32.178,-7.13,2.98,-79.96,1.52,-1.46,-1.95,-0.05,-0.16,1.01,1000
17:51:32.190,-7.4,3.02,-79.97,1.65,-2.01,-1.52,-0.06,-0.15,0.99,1000
17:51:32.201,-7.62,3.24,-80.0,0.85,-2.56,-2.32,-0.07,-0.15,1.0,1000
17:51:32.211,-7.8,3.51,-80.03,-0.24,-3.54,-3.23,-0.08,-0.15,0.99,1000
17:51:32.222,-7.88,3.8,-80.07,-1.65,-4.63,-3.96,-0.08,-0.14,1.01,1000
17:51:32.233,-7.9,3.88,-80.11,-2.68,-5.55,-3.66,-0.07,-0.14,1.0,1000
17:51:32.245,-8.02,3.73,-80.15,-3.48,-6.04,-2.07,-0.05,-0.15,1.01,1000
17:51:32.255,-8.13,3.52,-80.16,-4.82,-5.85,-0.18,-0.05,-0.15,1.01,1000
17:51:32.269,-8.23,3.38,-80.15,-5.98,-5.3,1.22,-0.06,-0.14,1.01,1000
17:51:32.284,-8.22,3.34,-80.13,-7.26,-4.82,2.56,-0.06,-0.14,1.01,1000
17:51:32.289,-8.1,3.38,-80.1,-7.99,-5.06,2.99,-0.06,-0.12,1.02,1000
17:51:32.299,-7.96,3.33,-80.06,-8.29,-5.37,4.21,-0.05,-0.13,1.02,1000
17:51:32.310,-7.92,3.08,-80.0,-8.11,-5.67,6.16,-0.04,-0.14,1.03,1000
17:51:32.321,-7.99,2.74,-79.92,-7.62,-5.12,8.17,-0.03,-0.14,1.03,1000
17:51:32.334,-8.09,2.38,-79.82,-6.71,-4.15,10.0,-0.02,-0.15,1.03,1000
17:51:32.344,-8.16,2.22,-79.7,-5.61,-2.99,10.91,-0.03,-0.14,1.03,1000
17:51:32.354,-8.1,2.14,-79.58,-4.33,-1.71,10.85,-0.03,-0.14,1.03,1000
17:51:32.365,-8.12,1.99,-79.47,-3.84,-1.1,10.85,-0.02,-0.15,1.03,1000
17:51:32.380,-8.21,1.67,-79.34,-2.62,-0.85,11.28,-0.01,-0.15,1.02,1000
17:51:32.388,-8.28,1.36,-79.21,-2.32,-0.98,11.59,-0.01,-0.16,1.03,1000
17:51:32.398,-8.45,1.26,-79.09,-1.77,-1.65,10.91,-0.02,-0.16,1.02,1000
17:51:32.411,-8.35,1.29,-78.98,-1.89,-3.23,9.39,-0.02,-0.14,1.04,1000
17:51:32.421,-8.31,1.05,-78.88,-2.62,-5.43,8.84,0.0,-0.15,1.03,1000
17:51:32.432,-8.42,0.59,-78.78,-2.68,-7.01,9.21,0.02,-0.15,1.03,1000
17:51:32.442,-8.4,0.12,-78.68,-3.05,-8.35,9.33,0.02,-0.15,1.03,1000
17:51:32.458,-8.4,-0.33,-78.57,-2.62,-8.66,9.27,0.03,-0.15,1.02,1000
17:51:32.492,-8.41,-0.66,-78.48,-2.56,-8.41,8.48,0.03,-0.14,1.02,1000
17:51:32.492,-8.27,-0.95,-78.39,-2.56,-7.32,6.89,0.03,-0.14,1.02,1000
17:51:32.495,-8.23,-1.22,-78.33,-2.2,-6.46,5.18,0.03,-0.15,1.02,1000
17:51:32.499,-8.15,-1.37,-78.29,-1.95,-5.37,3.78,0.03,-0.14,1.02,1000
17:51:32.513,-8.16,-1.63,-78.25,-2.07,-4.45,2.56,0.04,-0.15,1.01,1000
17:51:32.521,-8.25,-1.88,-78.23,-2.26,-3.54,1.71,0.05,-0.15,1.01,1000
17:51:32.531,-8.31,-2.15,-78.21,-3.17,-2.74,1.22,0.05,-0.15,1.02,1000
17:51:32.541,-8.45,-2.26,-78.21,-4.21,-1.4,0.12,0.04,-0.16,1.01,1000
17:51:32.552,-8.59,-2.32,-78.21,-6.16,-0.3,-1.52,0.04,-0.16,1.02,1000
17:51:32.563,-8.7,-2.21,-78.24,-8.11,0.91,-3.72,0.02,-0.16,1.01,1000
17:51:32.577,-8.83,-1.98,-78.3,-9.94,1.28,-6.52,0.01,-0.16,1.01,1000
17:51:32.589,-8.91,-1.68,-78.39,-11.28,1.22,-8.6,0.01,-0.16,1.02,1000
17:51:32.597,-9.23,-1.34,-78.49,-11.59,0.12,-10.49,-0.0,-0.19,1.03,1000
17:51:32.607,-9.51,-1.13,-78.61,-10.49,-1.65,-11.34,0.01,-0.19,1.05,1000
17:51:32.618,-9.96,-1.16,-78.73,-8.84,-3.41,-10.06,0.03,-0.21,1.05,1000
17:51:32.630,-10.34,-1.22,-78.83,-5.73,-4.7,-8.35,0.01,-0.2,1.05,1000
17:51:32.641,-10.35,-1.2,-78.91,-2.56,-5.67,-6.28,0.02,-0.19,1.06,1000
17:51:32.651,-10.43,-1.33,-78.97,0.06,-5.67,-4.09,0.03,-0.2,1.05,1000
17:51:32.664,-10.57,-1.57,-79.0,2.13,-4.7,-1.65,0.04,-0.2,1.05,1000
17:51:32.674,-10.56,-1.68,-79.01,2.8,-3.17,0.0,0.04,-0.2,1.05,1000
17:51:32.690,-10.62,-1.81,-79.0,2.74,-1.83,1.1,0.04,-0.2,1.03,1000
17:51:32.696,-10.56,-1.9,-78.99,2.32,-0.73,2.01,0.04,-0.19,1.04,1000
17:51:32.707,-10.41,-1.92,-78.96,1.22,-0.79,2.26,0.03,-0.18,1.04,1000
17:51:32.718,-10.25,-1.99,-78.94,0.24,-0.91,2.26,0.04,-0.17,1.03,1000
17:51:32.728,-10.12,-2.1,-78.91,-1.1,-1.46,2.01,0.04,-0.18,1.03,1000
17:51:32.739,-10.08,-2.19,-78.9,-1.46,-1.46,0.91,0.04,-0.17,1.02,1000
17:51:32.757,-9.84,-2.07,-78.9,-1.46,-1.34,-1.1,0.02,-0.16,1.03,1000
17:51:32.762,-9.61,-1.98,-78.93,-0.79,-1.65,-3.54,0.02,-0.16,1.02,1000
17:51:32.772,-9.46,-1.91,-78.98,-0.06,-1.46,-5.49,0.02,-0.16,1.02,1000
17:51:32.793,-9.24,-1.71,-79.05,1.1,-1.28,-7.8,0.01,-0.15,1.01,1000
17:51:32.798,-9.0,-1.23,-79.15,2.5,-1.4,-10.91,-0.02,-0.14,1.01,1000
17:51:32.840,-8.66,-0.64,-79.29,4.02,-2.01,-13.6,-0.02,-0.14,1.0,1000
17:51:32.840,-8.53,-0.36,-79.45,4.45,-3.11,-14.82,-0.0,-0.16,1.0,1000
17:51:32.840,-8.57,-0.31,-79.61,4.63,-3.41,-14.57,0.0,-0.16,1.0,1000
17:51:32.840,-8.55,-0.19,-79.77,3.96,-3.54,-14.02,-0.01,-0.15,1.01,1000
17:51:32.856,-8.47,-0.0,-79.92,2.68,-3.05,-13.54,-0.02,-0.15,0.99,1000
17:51:32.861,-8.37,0.23,-80.07,1.71,-2.8,-13.05,-0.02,-0.14,0.99,1000
17:51:32.871,-8.26,0.56,-80.21,1.1,-2.56,-12.62,-0.03,-0.14,1.0,1000
17:51:32.884,-8.19,0.79,-80.34,0.24,-2.74,-11.46,-0.02,-0.14,1.0,1000
17:51:32.896,-8.29,0.79,-80.46,-0.67,-3.05,-9.45,-0.01,-0.16,1.0,1000
17:51:32.904,-8.42,0.74,-80.55,-1.28,-2.93,-6.89,-0.01,-0.15,1.0,1000
17:51:32.915,-8.53,0.81,-80.61,-2.26,-2.8,-5.0,-0.02,-0.16,1.0,1000
17:51:32.926,-8.65,0.8,-80.65,-3.29,-3.05,-3.48,-0.01,-0.16,1.0,1000
17:51:32.937,-8.79,0.75,-80.68,-4.39,-2.44,-2.07,-0.01,-0.16,1.01,1000
17:51:32.949,-8.93,0.83,-80.7,-4.82,-1.95,-1.65,-0.02,-0.16,1.01,1000
17:51:32.959,-8.99,0.83,-80.71,-4.63,-1.59,-0.79,-0.01,-0.16,1.02,1000
17:51:32.970,-9.06,0.61,-80.71,-4.21,-1.95,0.98,0.01,-0.17,1.03,1000
17:51:32.982,-9.25,0.32,-80.69,-2.5,-2.01,2.93,0.01,-0.17,1.02,1000
17:51:33.001,-9.34,0.08,-80.65,-1.52,-2.01,4.09,0.02,-0.17,1.03,1000
17:51:33.004,-9.45,-0.22,-80.6,-1.04,-1.59,4.94,0.03,-0.18,1.02,1000
17:51:33.016,-9.49,-0.42,-80.55,-0.3,-0.67,4.63,0.01,-0.16,1.02,1000
17:51:33.026,-9.44,-0.43,-80.5,0.18,0.37,3.41,0.01,-0.17,1.01,1000
17:51:33.036,-9.46,-0.16,-80.48,1.83,0.55,0.61,-0.04,-0.17,1.01,1000
17:51:33.054,-9.53,0.77,-80.5,8.84,-0.49,-3.41,-0.07,-0.2,1.01,1000
17:51:33.064,-9.31,1.25,-80.55,14.63,-4.09,-4.51,-0.04,-0.16,1.11,1000
17:51:33.069,-8.67,1.09,-80.58,21.77,-5.98,-1.28,-0.01,-0.14,1.06,1000
17:51:33.081,-8.44,0.4,-80.56,27.26,-8.84,5.18,0.05,-0.18,1.08,1000
17:51:33.111,-8.17,-0.46,-80.47,29.39,-8.96,10.67,0.07,-0.14,1.02,1000
17:51:33.112,-7.93,-1.13,-80.33,27.44,-6.83,13.66,0.05,-0.15,1.04,1000
17:51:33.116,-7.63,-1.48,-80.18,21.89,-2.5,13.17,0.04,-0.11,0.99,1000
17:51:33.124,-7.14,-1.64,-80.06,14.51,0.37,11.22,0.03,-0.1,0.99,1000
17:51:33.137,-6.97,-1.45,-79.95,7.2,2.5,6.34,-0.01,-0.1,0.94,1000
17:51:33.149,-6.27,-0.86,-79.92,0.98,1.95,0.67,-0.01,-0.06,1.0,1000
17:51:33.157,-5.98,-0.88,-79.93,-4.33,1.1,-2.32,0.04,-0.11,0.99,1000
17:51:33.171,-6.29,-1.41,-79.96,-6.77,-0.49,-2.68,0.06,-0.12,0.99,1000
17:51:33.179,-6.58,-1.96,-79.99,-8.72,-2.01,-1.77,0.07,-0.14,1.0,1000
17:51:33.207,-6.94,-2.25,-80.01,-10.49,-2.68,-2.01,0.05,-0.14,0.99,1000
17:51:33.207,-7.32,-2.26,-80.04,-10.0,-0.37,-3.66,0.02,-0.14,0.99,1000
17:51:33.212,-7.29,-1.75,-80.1,-10.3,1.34,-7.38,-0.01,-0.11,1.02,1000
17:51:33.223,-7.21,-1.43,-80.19,-8.66,2.93,-9.27,0.01,-0.12,1.01,1000
17:51:33.235,-7.35,-1.33,-80.29,-5.43,3.23,-8.84,0.02,-0.14,1.03,1000
17:51:33.245,-7.52,-1.4,-80.38,-3.05,1.95,-7.07,0.03,-0.15,1.03,1000
17:51:33.258,-7.82,-1.47,-80.45,-0.67,2.07,-5.37,0.03,-0.16,1.02,1000
17:51:33.268,-8.02,-1.41,-80.5,-0.79,2.07,-4.02,0.02,-0.15,1.03,1000
17:51:33.278,-8.03,-1.36,-80.54,-0.55,3.29,-2.87,0.03,-0.16,1.02,1000
17:51:33.289,-8.11,-1.04,-80.57,-1.4,3.11,-3.29,-0.01,-0.14,1.02,1000
17:51:33.304,-7.91,-0.73,-80.61,-2.44,3.29,-3.96,0.0,-0.13,1.03,1000
17:51:33.317,-8.11,-0.39,-80.66,-1.83,2.62,-4.7,-0.03,-0.16,1.02,1000
17:51:33.325,-8.06,0.19,-80.72,0.18,0.91,-5.61,-0.04,-0.14,1.05,1000
17:51:33.336,-7.98,0.27,-80.77,1.04,-1.16,-4.39,0.01,-0.15,1.07,1000
17:51:33.344,-8.24,-0.08,-80.8,2.74,-3.05,-0.79,0.03,-0.18,1.05,1000
17:51:33.355,-8.45,-0.52,-80.79,2.74,-4.02,2.2,0.04,-0.16,1.05,1000
17:51:33.369,-8.44,-0.75,-80.75,0.85,-3.29,3.54,0.02,-0.14,1.02,1000
17:51:33.377,-8.35,-0.87,-80.72,-2.44,-1.65,2.93,0.02,-0.14,1.0,1000
17:51:33.388,-8.27,-0.92,-80.69,-7.26,0.3,1.52,0.02,-0.13,1.01,1000
17:51:33.409,-8.05,-1.04,-80.69,-11.59,2.01,-0.37,0.03,-0.11,0.99,1000
17:51:33.413,-8.21,-1.03,-80.71,-15.12,2.99,-2.44,0.01,-0.16,0.99,1000
17:51:33.421,-8.39,-0.66,-80.75,-15.43,3.66,-5.06,-0.03,-0.13,1.01,1000
17:51:33.434,-8.26,-0.16,-80.82,-13.78,2.62,-6.59,-0.01,-0.14,1.03,1000
17:51:33.447,-8.46,-0.14,-80.89,-10.91,0.37,-5.91,0.01,-0.17,1.04,1000
17:51:33.457,-8.69,-0.27,-80.94,-6.46,-1.95,-3.17,0.02,-0.17,1.03,1000
17:51:33.468,-8.88,-0.51,-80.95,-2.87,-2.93,-0.43,0.02,-0.17,1.04,1000
17:51:33.477,-9.11,-0.77,-80.94,-0.67,-2.32,1.89,0.03,-0.17,1.02,1000
17:51:33.487,-9.29,-0.81,-80.92,0.06,-0.67,2.26,0.01,-0.18,1.0,1000
17:51:33.513,-9.3,-0.43,-80.9,-0.43,1.16,0.55,-0.02,-0.15,1.02,1000
17:51:33.513,-8.92,-0.11,-80.91,-0.49,2.62,-1.16,-0.01,-0.14,1.01,1000
17:51:33.520,-8.89,-0.16,-80.92,0.24,3.35,-1.22,0.02,-0.17,1.04,1000
17:51:33.531,-8.99,-0.37,-80.92,0.12,1.52,0.12,0.03,-0.17,1.03,1000
17:51:33.542,-9.16,-0.66,-80.91,0.98,0.67,2.26,0.03,-0.19,1.05,1000
17:51:33.554,-9.42,-0.86,-80.88,0.3,-0.06,3.23,0.03,-0.18,1.03,1000
17:51:33.564,-9.35,-0.88,-80.84,-0.67,-1.4,2.99,0.01,-0.16,1.03,1000
17:51:33.575,-9.27,-0.76,-80.82,-2.2,-1.71,1.65,0.01,-0.15,1.01,1000
17:51:33.588,-9.05,-0.75,-80.81,-4.02,-1.71,0.24,0.01,-0.14,1.01,1000
17:51:33.600,-9.01,-0.81,-80.81,-5.85,-1.83,-0.49,0.02,-0.16,1.01,1000
17:51:33.614,-8.98,-0.87,-80.82,-7.13,-1.95,-0.91,0.02,-0.15,1.01,1000
17:51:33.621,-8.9,-0.96,-80.83,-8.41,-1.71,-0.73,0.02,-0.14,1.02,1000
17:51:33.630,-9.03,-1.07,-80.84,-7.93,-1.34,-0.67,0.03,-0.16,1.02,1000
17:51:33.641,-9.21,-1.18,-80.84,-7.13,-0.43,-0.24,0.03,-0.17,1.02,1000
17:51:33.652,-9.3,-1.22,-80.84,-5.61,0.67,-0.24,0.02,-0.17,1.03,1000
17:51:33.665,-9.27,-1.09,-80.85,-3.05,2.07,-0.67,0.01,-0.16,1.04,1000
17:51:33.674,-9.27,-0.98,-80.85,-0.18,2.93,-0.85,0.01,-0.18,1.04,1000
17:51:33.685,-9.34,-0.79,-80.87,3.35,2.93,-1.28,0.0,-0.17,1.04,1000
17:51:33.699,-9.46,-0.52,-80.88,8.54,2.38,-1.65,-0.02,-0.19,1.03,1000
17:51:33.711,-9.55,0.03,-80.91,12.99,0.91,-2.68,-0.02,-0.17,1.07,1000
17:51:33.718,-9.2,0.13,-80.93,16.1,-2.13,-1.16,0.0,-0.16,1.06,1000
17:51:33.729,-9.14,-0.19,-80.93,17.87,-4.21,1.52,0.03,-0.19,1.05,1000
17:51:33.743,-9.23,-0.8,-80.89,17.32,-5.0,4.82,0.05,-0.18,1.02,1000
17:51:33.752,-9.03,-1.1,-80.82,14.02,-4.39,6.04,0.03,-0.15,1.0,1000
17:51:33.764,-8.83,-1.27,-80.76,8.72,-2.62,5.0,0.03,-0.15,0.99,1000
17:51:33.774,-8.58,-1.44,-80.72,2.13,-0.85,3.17,0.03,-0.13,0.98,1000
17:51:33.785,-8.46,-1.49,-80.7,-2.8,0.43,0.55,0.02,-0.15,0.97,1000
17:51:33.795,-8.4,-1.37,-80.72,-6.52,0.91,-2.93,0.01,-0.13,1.0,1000
17:51:33.826,-8.2,-1.13,-80.77,-6.71,1.04,-6.16,-0.0,-0.13,1.0,1000
17:51:33.826,-8.09,-0.98,-80.85,-5.18,-0.12,-7.38,0.02,-0.14,1.03,1000
17:51:33.832,-8.17,-0.9,-80.93,-0.3,-1.46,-7.68,0.0,-0.15,1.02,1000
17:51:33.839,-8.14,-0.81,-81.01,4.88,-2.8,-7.13,0.02,-0.14,1.05,1000
17:51:33.851,-8.05,-1.11,-81.07,8.41,-3.41,-4.45,0.04,-0.16,1.03,1000
17:51:33.861,-8.2,-1.5,-81.1,10.73,-2.56,-1.22,0.05,-0.16,1.02,1000
17:51:33.872,-8.12,-1.68,-81.1,10.43,-0.85,0.06,0.03,-0.14,1.01,1000
17:51:33.883,-7.94,-1.71,-81.1,8.41,1.34,0.0,0.03,-0.14,0.99,1000
17:51:33.894,-7.88,-1.44,-81.11,5.49,2.93,-1.59,0.0,-0.12,0.99,1000
17:51:33.908,-7.6,-1.08,-81.14,3.29,3.72,-3.35,-0.0,-0.12,0.99,1000
17:51:33.920,-7.56,-0.84,-81.18,1.95,3.23,-4.21,0.01,-0.15,1.02,1000
17:51:33.930,-7.44,-0.96,-81.22,1.16,2.26,-3.17,0.03,-0.13,1.0,1000
17:51:33.938,-7.58,-1.15,-81.25,0.3,1.22,-1.83,0.03,-0.15,1.02,1000
17:51:33.949,-7.78,-1.27,-81.26,-0.37,0.98,-0.85,0.03,-0.15,1.01,1000
17:51:33.960,-7.95,-1.26,-81.27,-0.67,1.77,-1.59,0.01,-0.17,1.0,1000
17:51:33.972,-8.0,-0.61,-81.31,-1.04,2.26,-4.57,-0.04,-0.12,1.02,1000
17:51:33.986,-7.61,-0.27,-81.37,0.24,1.65,-6.16,-0.0,-0.12,1.03,1000
17:51:33.995,-7.73,-0.32,-81.43,1.16,0.55,-5.55,0.02,-0.17,1.05,1000
17:51:34.006,-7.91,-0.55,-81.49,2.74,-0.43,-3.84,0.03,-0.15,1.02,1000
17:51:34.016,-7.98,-0.52,-81.52,3.9,-0.73,-3.35,-0.0,-0.15,1.04,1000
17:51:34.027,-7.98,-0.4,-81.56,3.9,0.0,-3.72,0.01,-0.14,1.02,1000
17:51:34.037,-7.98,-0.5,-81.6,3.11,0.85,-3.05,0.03,-0.15,1.04,1000
17:51:34.048,-8.16,-0.65,-81.63,2.07,2.32,-2.56,0.01,-0.15,1.01,1000
17:51:34.059,-8.01,-0.51,-81.66,1.46,3.41,-3.35,0.0,-0.13,1.03,1000
17:51:34.070,-7.88,-0.37,-81.7,0.3,3.23,-3.78,0.01,-0.14,1.02,1000
17:51:34.081,-7.92,-0.37,-81.74,0.67,2.74,-3.6,0.01,-0.14,1.02,1000
17:51:34.092,-7.88,-0.15,-81.78,1.34,1.46,-3.66,-0.02,-0.14,1.03,1000
17:51:34.103,-7.83,0.15,-81.82,2.87,0.18,-3.96,-0.02,-0.15,1.03,1000
17:51:34.129,-7.81,0.36,-81.86,4.7,-1.34,-3.66,-0.02,-0.15,1.06,1000
17:51:34.129,-7.73,0.3,-81.89,8.29,-2.62,-1.77,0.0,-0.13,1.06,1000
17:51:34.138,-7.72,0.04,-81.9,11.04,-2.56,1.16,0.03,-0.14,1.06,1000
17:51:34.152,-7.74,-0.42,-81.87,11.89,-2.32,4.09,0.05,-0.16,1.05,1000
17:51:34.158,-7.88,-0.85,-81.81,12.32,-0.98,5.85,0.03,-0.16,1.02,1000
17:51:34.169,-7.62,-0.74,-81.75,10.73,1.28,4.7,0.0,-0.12,1.05,1000
17:51:34.180,-7.26,-0.75,-81.71,7.93,2.8,3.23,0.02,-0.13,1.03,1000
17:51:34.193,-7.12,-0.8,-81.68,6.1,3.41,2.01,0.02,-0.12,1.04,1000
17:51:34.202,-6.81,-0.81,-81.67,5.18,2.99,0.98,0.02,-0.1,1.02,1000
17:51:34.215,-6.68,-0.62,-81.66,5.06,1.83,-0.43,-0.01,-0.12,1.03,1000
17:51:34.229,-6.56,-0.36,-81.68,5.98,0.18,-2.2,-0.0,-0.11,1.04,1000
17:51:34.235,-6.3,-0.46,-81.7,7.07,-1.22,-1.65,0.02,-0.12,1.05,1000
17:51:34.246,-6.35,-0.49,-81.72,8.84,-1.83,-1.28,0.0,-0.11,1.03,1000
17:51:34.257,-6.13,-0.59,-81.73,10.43,-2.01,-0.79,0.02,-0.1,1.05,1000
17:51:34.269,-6.1,-0.76,-81.73,11.77,-1.65,-0.12,0.03,-0.12,1.03,1000
17:51:34.280,-6.17,-0.73,-81.74,13.41,-0.73,-0.37,0.01,-0.12,1.02,1000
17:51:34.291,-5.76,-0.65,-81.75,12.01,0.06,-1.1,0.01,-0.08,1.04,1000
17:51:34.303,-5.58,-0.75,-81.76,11.46,0.79,-1.1,0.02,-0.11,1.02,1000
17:51:34.317,-5.64,-0.89,-81.77,10.98,1.52,-0.67,0.02,-0.11,1.02,1000
17:51:34.335,-5.43,-0.78,-81.78,9.45,1.65,-1.28,0.01,-0.1,1.0,1000
17:51:34.335,-5.5,-0.42,-81.8,8.6,0.55,-2.13,-0.02,-0.12,1.02,1000
17:51:34.345,-5.11,-0.36,-81.82,8.48,-0.55,-1.95,0.01,-0.06,1.03,1000
17:51:34.357,-4.92,-0.5,-81.84,7.99,-1.65,-0.49,0.02,-0.1,1.03,1000
17:51:34.369,-5.02,-0.74,-81.83,8.29,-1.71,0.79,0.02,-0.1,1.01,1000
17:51:34.378,-4.79,-0.73,-81.82,7.38,-0.67,0.79,0.01,-0.07,1.02,1000
17:51:34.389,-4.75,-0.55,-81.82,7.74,0.79,-0.55,-0.01,-0.1,1.0,1000
17:51:34.401,-4.68,-0.28,-81.84,7.87,2.07,-2.13,-0.0,-0.07,1.04,1000
17:51:34.411,-4.38,-0.29,-81.86,7.38,1.77,-1.77,0.01,-0.08,1.03,1000
17:51:34.435,-4.49,-0.53,-81.87,7.93,1.46,-0.55,0.03,-0.1,1.03,1000
17:51:34.435,-4.68,-0.72,-81.87,8.29,1.28,0.24,0.01,-0.1,1.01,1000
17:51:34.446,-4.61,-0.61,-81.87,6.71,1.04,-0.37,0.01,-0.08,1.03,1000
17:51:34.456,-4.61,-0.65,-81.88,4.33,0.67,-0.98,0.02,-0.09,1.02,1000
17:51:34.469,-4.71,-0.81,-81.89,2.5,0.73,-0.85,0.02,-0.1,1.02,1000
17:51:34.479,-4.67,-0.74,-81.91,0.79,0.49,-2.01,0.0,-0.07,1.03,1000
17:51:34.488,-4.71,-0.57,-81.94,0.98,0.0,-3.29,-0.01,-0.09,1.02,1000
17:51:34.503,-4.67,-0.27,-81.98,1.71,-0.67,-4.57,-0.01,-0.08,1.04,1000
17:51:34.513,-4.61,-0.22,-82.03,3.41,-2.13,-3.78,0.0,-0.09,1.01,1000
17:51:34.538,-4.73,-0.03,-82.07,7.87,-3.72,-3.48,-0.03,-0.1,1.02,1000
17:51:34.539,-4.46,0.25,-82.1,12.07,-5.12,-2.56,-0.01,-0.05,1.05,1000
17:51:34.543,-4.03,0.06,-82.12,14.82,-5.0,0.12,0.03,-0.06,1.03,1000
17:51:34.554,-4.11,-0.54,-82.1,15.24,-4.39,3.17,0.05,-0.08,1.0,1000
17:51:34.565,-3.76,-0.93,-82.05,14.15,-2.38,5.0,0.03,-0.04,1.0,1000
17:51:34.577,-3.4,-0.9,-82.0,11.34,1.16,3.9,-0.0,-0.06,0.98,1000
17:51:34.588,-2.98,-0.31,-81.98,7.56,3.66,0.37,-0.03,-0.01,1.02,1000
17:51:34.598,-2.3,-0.08,-81.99,4.02,4.15,-1.83,0.0,-0.01,1.01,1000
17:51:34.610,-2.35,-0.25,-82.01,0.67,3.48,-1.77,0.02,-0.06,1.03,1000
17:51:34.643,-2.47,-0.17,-82.03,-0.43,2.32,-1.77,-0.02,-0.04,1.02,1000
17:51:34.643,-2.43,0.23,-82.06,-1.89,0.12,-2.99,-0.02,-0.06,1.07,1000
17:51:34.643,-2.79,0.17,-82.09,-2.87,-2.2,-2.5,0.02,-0.08,1.05,1000
17:51:34.653,-3.25,-0.27,-82.1,-2.87,-3.9,-0.18,0.03,-0.09,1.07,1000
17:51:34.666,-3.68,-0.7,-82.09,-3.35,-4.51,2.07,0.03,-0.09,1.04,1000
17:51:34.676,-4.06,-0.89,-82.06,-2.56,-3.54,2.38,0.02,-0.11,1.03,1000
17:51:34.700,-4.26,-0.44,-82.05,-1.1,-2.44,0.3,-0.04,-0.07,1.04,1000
17:51:34.701,-4.25,0.01,-82.05,2.62,-2.38,-1.34,-0.03,-0.12,1.02,1000
17:51:34.708,-4.61,0.07,-82.07,7.07,-3.78,-0.73,0.0,-0.1,1.08,1000
17:51:34.719,-4.45,0.08,-82.06,13.05,-4.45,1.52,-0.01,-0.06,1.05,1000
17:51:34.733,-4.16,-0.28,-82.03,17.07,-5.3,4.63,0.04,-0.09,1.07,1000
17:51:34.741,-4.19,-0.93,-81.95,20.12,-4.76,8.9,0.07,-0.09,1.01,1000
17:51:34.753,-3.88,-1.54,-81.84,20.79,-2.01,10.55,0.05,-0.05,1.02,1000
17:51:35.083,0.45,-1.49,0.28,1.52,-0.12,-6.22,0.07,0.0,1.03,1100
17:51:35.095,0.53,-1.72,0.22,-0.85,4.7,-3.6,0.05,-0.01,0.97,1100
17:51:35.105,0.74,-1.67,0.18,-0.3,6.16,-1.59,0.06,0.08,1.03,1100
17:51:36.073,0.29,-3.07,-0.19,-10.3,7.5,-3.17,0.18,-0.29,1.06,1130
17:51:36.083,-0.22,-3.14,-0.18,7.44,7.74,-0.67,-0.25,-0.34,1.1,1130
17:51:36.095,-0.29,-2.72,-0.17,10.43,2.13,2.38,-0.27,-0.3,1.13,1130
17:51:36.107,-0.63,-2.34,-0.17,16.28,0.37,2.5,-0.02,0.07,1.02,1130
17:51:37.062,0.53,-2.07,-0.03,18.35,-18.48,3.48,0.0,0.17,0.9,1210
17:51:40.076,-2.78,-4.19,3.1,11.89,-0.91,-0.12,0.05,-0.2,1.13,1270
17:51:43.102,-0.88,-4.23,-25.34,-47.38,0.12,-9.88,-0.08,-1.7,1.04,1270
17:51:44.113,-0.57,-5.79,-25.83,15.24,-7.26,10.24,0.54,0.95,0.6,1270
17:51:44.124,-1.59,-5.0,-25.69,-34.63,-9.88,13.11,-0.2,-1.07,0.94,1270
17:51:44.136,-1.44,-5.88,-25.57,33.41,2.26,10.73,0.58,0.43,0.84,1270
17:51:45.147,-2.02,-3.91,-29.56,-15.61,-5.43,-5.3,-0.09,-1.09,0.78,1270
17:51:47.162,0.06,-5.1,-26.5,7.56,11.46,5.3,0.73,0.7,0.89,1270
17:51:48.172,3.07,-5.74,-27.89,-10.98,5.43,-1.46,0.51,1.25,0.74,1270
17:51:48.183,0.24,-4.49,-27.91,4.09,-9.63,-3.48,-0.08,-1.12,0.94,1270
17:51:48.194,-0.03,-4.47,-27.91,6.28,15.61,0.37,0.66,1.25,0.91,1270
17:51:48.206,-0.95,-3.46,-27.92,-22.56,-3.05,1.16,-0.48,-0.72,1.11,1270
17:51:49.217,-0.81,0.02,-28.2,-19.94,-13.78,5.98,-0.05,-0.92,1.03,1270
17:51:50.229,-5.3,1.85,-30.29,27.74,2.26,1.71,-0.14,-0.38,0.9,1270
17:51:50.240,-4.38,1.05,-30.27,-2.38,-8.72,2.13,-0.03,-0.3,1.09,1270
17:51:50.251,-4.66,1.62,-30.24,32.01,-14.21,1.59,-0.13,-0.58,0.99,1270
17:51:50.263,-2.68,0.67,-30.19,5.24,-3.6,1.04,0.33,0.15,0.64,1270
17:51:51.275,-0.96,0.06,-26.04,26.52,-28.41,-12.13,-0.26,-0.12,0.88,1270
17:51:52.297,2.67,0.28,-22.7,31.83,8.05,9.45,-0.09,1.48,0.8,1270
17:51:52.308,2.14,-0.24,-22.61,-25.55,4.15,5.55,-0.48,-1.77,1.19,1270
17:51:52.319,2.6,0.15,-22.53,55.91,15.3,8.05,-0.02,1.24,0.77,1270
17:51:53.333,2.14,1.0,-27.03,5.12,24.88,8.23,-0.08,0.47,1.03,1270
17:51:55.344,1.48,-0.72,-21.96,-68.66,-0.12,-0.06,-0.11,-0.74,0.83,1270
17:51:56.379,-0.04,-0.32,-27.95,-25.85,-1.59,21.52,-0.01,-0.42,1.28,1270
17:51:56.382,-1.87,-0.32,-27.8,32.13,10.73,19.33,0.12,0.03,1.33,1270
17:51:56.403,0.69,-0.96,-27.66,8.72,4.02,21.77,0.06,0.74,1.25,1270
17:51:57.376,3.53,-0.89,-23.67,-80.49,2.07,-14.94,0.47,0.57,1.59,1270
17:51:57.380,2.98,-0.21,-23.84,42.99,-16.52,-17.44,-0.23,-1.15,1.28,1270
17:51:57.396,6.47,-1.52,-24.04,-72.07,6.22,-12.5,0.07,0.39,0.93,1270
17:51:59.405,4.42,-0.03,-21.46,-53.78,7.01,6.34,-0.55,0.0,1.0,1270
17:52:00.415,3.16,-0.53,-25.03,17.2,2.2,18.48,0.21,1.25,0.78,1270
17:52:00.425,1.36,-0.76,-24.87,-10.61,15.24,9.39,-0.65,-1.51,1.08,1270
17:52:00.437,1.03,-0.47,-24.71,30.55,14.82,12.44,0.22,1.2,0.77,1270
17:52:00.451,2.37,-0.56,-24.54,-46.59,11.65,16.65,-0.59,-0.43,1.19,1270
17:52:00.459,1.02,-0.27,-24.38,39.02,-2.5,14.94,0.2,0.26,1.09,1270
17:52:02.416,-0.12,2.18,-26.07,11.34,-30.91,9.33,0.23,0.82,0.64,1270
17:52:04.432,1.08,-2.0,-12.6,-36.59,3.6,-7.07,-0.31,-1.49,0.89,1270
17:52:05.443,-0.7,2.75,-18.58,18.17,-30.79,31.83,0.12,-0.08,1.22,1270
17:52:05.462,-0.16,0.35,-18.3,-2.68,15.49,30.85,0.19,0.19,1.44,1270
17:52:05.464,-0.65,2.85,-18.04,30.37,-22.2,24.82,-0.4,0.35,0.98,1270
17:52:05.476,1.87,1.5,-17.79,-58.05,-26.1,24.27,0.47,-0.62,0.77,1270
17:52:07.488,3.24,0.21,-20.25,-2.44,21.52,14.76,0.24,1.75,0.57,1270
17:52:08.499,-3.31,-4.38,-24.56,-22.93,-2.44,61.52,0.17,-0.3,1.05,1270
17:52:08.512,-4.75,-5.18,-23.93,32.38,21.89,62.5,0.29,-0.02,1.32,1270
17:52:08.534,-3.12,-5.36,-23.28,0.98,16.34,63.78,-0.09,0.5,1.1,1270
17:52:08.534,-3.65,-4.83,-22.62,-15.67,0.55,63.35,0.1,-0.47,0.99,1270
17:52:10.547,1.83,-2.97,-21.69,-13.41,6.46,-37.8,0.5,0.66,0.44,1270
17:52:11.568,0.6,6.5,-25.06,6.95,44.88,-28.54,-0.29,0.18,1.07,1000
17:52:11.581,-0.02,7.87,-25.42,1.28,41.1,-35.55,-0.04,0.3,1.06,1000
17:52:11.605,-0.41,9.1,-25.82,-2.38,34.15,-36.22,-0.02,0.2,1.19,1000
17:52:11.606,-0.33,10.64,-26.24,-11.95,15.73,-40.49,-0.08,0.17,1.13,1000
17:52:11.612,-0.45,11.62,-26.7,-6.22,-9.57,-40.67,-0.14,0.25,1.03,1000
