Timestamp,Roll,Pitch,Yaw,Gyro_X,Gyro_Y,Gyro_Z,Accel_X,Accel_Y,Accel_Z,Throttle
17:42:10.045,-3.17,-5.87,36.61,-11.1,-5.18,-7.32,0.09,-0.07,1.02,1000
17:42:10.059,-3.52,-5.87,36.55,-10.79,-6.22,-4.88,0.11,-0.08,1.01,1000
17:42:10.068,-3.89,-6.05,36.51,-10.85,-6.28,-3.29,0.12,-0.09,1.02,1000
17:42:10.077,-4.2,-6.34,36.48,-10.85,-5.37,-1.65,0.14,-0.08,1.03,1000
17:42:10.088,-4.38,-6.66,36.47,-10.18,-3.66,0.24,0.14,-0.08,1.03,1000
17:42:10.102,-4.53,-6.9,36.49,-7.68,-1.83,2.13,0.14,-0.08,1.01,1000
17:42:10.112,-4.72,-7.04,36.51,-4.63,0.18,2.32,0.14,-0.1,1.02,1000
17:42:10.121,-4.83,-7.37,36.54,-2.32,2.01,1.71,0.17,-0.09,1.02,1000
17:42:10.132,-4.89,-7.78,36.56,0.61,3.48,1.34,0.17,-0.09,1.02,1000
17:42:10.143,-4.95,-8.15,36.56,2.93,4.09,0.06,0.17,-0.09,1.02,1000
17:42:10.157,-4.86,-8.3,36.56,6.1,3.54,-0.55,0.15,-0.08,1.03,1000
17:42:10.167,-4.7,-8.14,36.55,8.78,2.62,-0.37,0.14,-0.08,1.03,1000
17:42:10.176,-4.45,-7.97,36.55,11.28,1.04,-0.24,0.13,-0.07,1.03,1000
17:42:10.187,-4.17,-7.87,36.55,12.44,0.37,-0.61,0.14,-0.06,1.03,1000
17:42:10.214,-3.86,-7.87,36.53,12.44,-0.06,-1.77,0.14,-0.06,1.02,1000
17:42:10.215,-3.63,-7.94,36.5,10.91,-0.12,-3.66,0.15,-0.06,1.01,1000
17:42:10.221,-3.43,-8.06,36.45,8.96,-0.3,-5.85,0.15,-0.06,1.01,1000
17:42:10.231,-3.32,-8.16,36.37,7.01,-1.46,-8.11,0.15,-0.06,1.01,1000
17:42:10.247,-3.18,-8.25,36.27,4.82,-3.29,-10.06,0.15,-0.05,1.0,1000
17:42:10.254,-3.14,-8.28,36.15,3.29,-5.67,-10.73,0.14,-0.06,1.01,1000
17:42:10.264,-3.22,-8.17,36.04,2.5,-7.68,-10.3,0.13,-0.07,1.03,1000
17:42:10.276,-3.22,-8.04,35.93,2.01,-10.0,-9.27,0.13,-0.06,1.02,1000
17:42:10.286,-3.17,-7.94,35.83,2.5,-12.01,-8.11,0.12,-0.05,1.01,1000
17:42:10.307,-3.11,-7.69,35.75,3.78,-12.13,-7.26,0.11,-0.06,1.03,1000
17:42:10.316,-3.07,-7.74,35.68,5.67,-10.43,-6.95,0.15,-0.06,1.03,1000
17:42:10.320,-3.02,-8.12,35.59,7.32,-6.1,-8.29,0.17,-0.06,1.03,1000
17:42:10.330,-2.92,-8.25,35.49,6.65,-0.67,-10.12,0.15,-0.05,1.03,1000
17:42:10.343,-2.88,-8.17,35.37,5.55,3.72,-12.26,0.15,-0.06,1.05,1000
17:42:10.354,-2.97,-8.17,35.22,3.72,5.49,-15.0,0.16,-0.06,1.05,1000
17:42:10.368,-2.88,-8.08,35.03,1.28,4.45,-18.23,0.13,-0.04,1.04,1000
17:42:10.375,-2.74,-7.77,34.82,-1.52,2.62,-18.84,0.12,-0.04,1.01,1000
17:42:10.385,-2.56,-7.6,34.63,-3.78,0.67,-16.71,0.12,-0.03,1.01,1000
17:42:10.396,-2.48,-7.26,34.47,-3.96,1.77,-12.32,0.1,-0.04,1.01,1000
17:42:10.415,-2.51,-6.69,34.37,-2.99,4.27,-5.49,0.09,-0.06,1.02,1000
17:42:10.419,-2.7,-6.24,34.36,-2.32,7.32,2.38,0.1,-0.06,1.02,1000
17:42:10.430,-2.81,-6.35,34.44,-2.44,10.06,9.76,0.15,-0.05,1.01,1000
17:42:10.440,-2.94,-6.83,34.57,-4.63,11.34,12.87,0.16,-0.06,0.98,1000
17:42:10.451,-3.18,-7.34,34.72,-8.05,10.91,14.33,0.17,-0.06,0.99,1000
17:42:10.463,-3.46,-7.7,34.87,-9.51,8.6,13.54,0.15,-0.07,0.98,1000
17:42:10.473,-3.65,-7.95,35.01,-8.23,4.39,10.79,0.16,-0.06,0.99,1000
17:42:10.486,-3.65,-8.26,35.11,-4.7,-0.73,8.23,0.16,-0.05,0.98,1000
17:42:10.495,-3.31,-8.26,35.19,-0.3,-6.22,7.2,0.13,-0.02,0.99,1000
17:42:10.519,-2.79,-8.12,35.27,4.82,-10.12,7.32,0.13,-0.02,0.99,1000
17:42:10.522,-2.6,-8.01,35.35,10.18,-13.17,6.1,0.11,-0.05,1.02,1000
17:42:10.541,-2.49,-7.68,35.4,14.15,-13.29,3.48,0.1,-0.05,1.05,1000
17:42:10.541,-2.29,-7.53,35.43,15.73,-11.34,2.8,0.14,-0.04,1.05,1000
17:42:10.551,-2.15,-8.07,35.47,15.85,-4.76,3.48,0.2,-0.04,1.05,1000
17:42:10.566,-1.99,-8.7,35.51,16.46,2.38,3.9,0.21,-0.04,1.07,1000
17:42:10.574,-1.98,-9.3,35.55,16.71,10.3,3.48,0.24,-0.04,1.06,1000
17:42:10.583,-1.75,-9.77,35.57,15.85,15.49,0.67,0.2,-0.04,1.06,1000
17:42:10.597,-1.89,-9.18,35.56,16.22,19.63,-1.95,0.11,-0.07,1.08,1000
17:42:10.625,-1.95,-7.75,35.53,16.22,18.9,-3.78,0.03,-0.04,1.1,1000
17:42:10.625,-1.77,-5.95,35.49,15.43,15.85,-4.09,-0.0,-0.03,1.07,1000
17:42:10.629,-1.53,-4.87,35.45,13.84,10.79,-2.56,0.04,-0.02,1.04,1000
17:42:10.638,-1.14,-5.0,35.44,10.73,5.49,-0.61,0.14,0.0,1.0,1000
17:42:10.651,-0.78,-6.25,35.43,7.44,2.01,-0.67,0.21,-0.0,0.99,1000
17:42:10.664,-0.58,-7.88,35.42,5.55,0.67,-2.01,0.24,-0.01,1.0,1000
17:42:10.674,-0.54,-9.04,35.39,3.35,0.73,-1.71,0.25,-0.01,1.0,1000
17:42:10.682,-0.33,-9.75,35.4,1.1,0.55,1.83,0.18,0.01,1.0,1000
17:42:10.695,-0.31,-8.71,35.44,0.37,-1.22,6.28,0.03,-0.02,1.02,1000
17:42:10.706,-0.53,-6.69,35.54,0.0,-5.43,10.24,-0.04,-0.03,1.02,1000
17:42:10.728,-0.86,-4.81,35.65,-2.26,-12.44,9.09,-0.05,-0.04,1.01,1000
17:42:10.728,-1.3,-3.51,35.73,-5.98,-20.0,4.63,-0.02,-0.05,1.01,1000
17:42:10.739,-1.58,-3.68,35.75,-7.93,-26.1,-0.12,0.12,-0.04,1.02,1000
17:42:10.751,-1.62,-5.47,35.72,-6.46,-29.21,-4.09,0.23,-0.02,1.0,1000
17:42:10.761,-1.3,-7.83,35.66,-2.44,-26.28,-6.4,0.27,0.01,0.97,1000
17:42:10.770,-0.98,-9.28,35.59,-0.49,-19.76,-7.07,0.25,0.01,0.96,1000
17:42:10.783,-0.62,-10.02,35.51,0.91,-11.83,-6.4,0.17,0.01,0.96,1000
17:42:10.793,-0.39,-9.72,35.47,2.5,-5.55,-1.83,0.1,0.0,0.99,1000
17:42:10.805,-0.22,-8.1,35.49,5.37,-2.56,5.3,0.02,-0.0,1.02,1000
17:42:10.824,-0.29,-6.42,35.58,7.07,-0.18,9.57,0.04,-0.02,1.02,1000
17:42:10.831,-0.31,-6.59,35.68,6.16,0.0,7.99,0.18,-0.01,0.99,1000
17:42:10.839,-0.19,-8.02,35.73,4.45,-0.43,2.01,0.26,-0.0,0.99,1000
17:42:10.849,0.06,-9.16,35.72,5.79,-2.74,-3.05,0.21,0.02,0.99,1000
17:42:10.861,0.16,-9.52,35.68,10.0,-4.39,-3.72,0.18,-0.01,1.01,1000
17:42:10.880,0.12,-9.2,35.65,13.54,-5.43,-2.62,0.09,-0.02,1.06,1000
17:42:10.881,0.04,-7.77,35.62,14.51,-2.13,-1.34,0.03,-0.03,1.06,1000
17:42:10.891,-0.06,-7.11,35.61,9.09,3.11,-0.98,0.11,-0.0,1.03,1000
17:42:10.904,0.07,-6.79,35.59,1.71,7.13,-3.78,0.11,0.0,1.02,1000
17:42:10.931,0.12,-6.73,35.53,-3.66,7.01,-6.65,0.14,0.0,1.02,1000
17:42:10.931,0.36,-7.78,35.44,-4.88,5.43,-9.39,0.26,0.03,0.99,1000
17:42:10.935,0.56,-9.36,35.31,-3.54,3.05,-13.05,0.3,0.03,1.01,1000
17:42:10.948,0.86,-10.55,35.15,1.46,0.49,-14.94,0.2,0.03,0.99,1000
17:42:10.959,0.78,-9.99,35.0,7.56,1.46,-13.41,0.12,-0.01,1.03,1000
17:42:10.968,0.46,-9.54,34.87,11.22,1.34,-10.49,0.15,-0.03,1.03,1000
17:42:10.981,0.35,-9.12,34.77,16.34,0.37,-7.2,0.12,-0.02,1.03,1000
17:42:10.990,0.08,-8.31,34.72,18.9,-1.46,-2.87,0.1,-0.02,1.03,1000
17:42:11.001,0.14,-8.31,34.71,18.84,-5.55,1.22,0.17,0.0,1.01,1000
17:42:11.024,0.36,-9.07,34.74,14.57,-7.74,2.44,0.21,0.01,1.01,1000
17:42:11.033,0.55,-9.72,34.76,14.76,-7.68,2.38,0.2,0.02,1.05,1000
17:42:11.034,0.72,-9.4,34.79,16.46,-3.66,3.05,0.12,-0.02,1.02,1000
17:42:11.045,0.82,-8.54,34.84,20.79,4.51,5.61,0.13,0.03,1.06,1000
17:42:11.056,1.11,-7.88,34.91,18.05,9.39,6.04,0.05,0.02,1.04,1000
17:42:11.067,1.39,-6.48,34.96,11.59,13.41,1.95,0.06,0.03,0.98,1000
17:42:11.078,1.75,-6.42,34.92,3.17,11.4,-7.68,0.16,0.05,0.98,1000
17:42:11.091,2.04,-7.25,34.77,-2.93,6.59,-19.45,0.18,0.05,0.97,1000
17:42:11.100,2.23,-7.97,34.5,-4.33,3.29,-27.62,0.2,0.06,1.03,1000
17:42:11.111,2.52,-8.8,34.19,-3.66,3.6,-27.38,0.23,0.06,1.04,1000
17:42:11.132,2.54,-9.61,33.92,-3.17,11.04,-22.44,0.26,0.04,1.09,1000
17:42:11.136,2.25,-10.7,33.7,-10.18,24.82,-18.6,0.31,0.04,1.1,1000
17:42:11.144,2.03,-11.49,33.5,-22.8,41.28,-15.67,0.29,0.03,1.09,1000
17:42:11.156,1.88,-11.55,33.37,-37.93,55.85,-9.27,0.23,0.06,1.06,1000
17:42:11.179,1.6,-10.3,33.31,-54.21,64.02,-1.4,0.1,0.03,1.08,1000
17:42:11.179,0.76,-8.02,33.35,-68.96,64.21,5.91,0.01,-0.01,1.06,1000
17:42:11.188,-0.14,-5.55,33.44,-85.43,55.98,9.94,-0.03,-0.0,1.0,1000
17:42:11.199,-1.04,-3.3,33.55,-99.45,43.72,8.17,-0.01,0.03,0.98,1000
17:42:11.211,-1.7,-2.58,33.62,-106.22,25.91,5.3,0.06,0.01,0.98,1000
17:42:11.231,-2.46,-2.71,33.65,-100.49,8.11,1.4,0.08,-0.03,1.02,1000
17:42:11.245,-3.25,-3.05,33.64,-82.74,-6.28,-2.99,0.1,-0.05,1.09,1000
17:42:11.245,-4.0,-3.56,33.59,-60.18,-15.12,-6.59,0.09,-0.11,1.12,1000
17:42:11.254,-5.06,-3.64,33.47,-32.62,-17.8,-12.32,0.03,-0.14,1.1,1000
17:42:11.267,-5.62,-3.37,33.28,-11.59,-16.59,-21.04,0.05,-0.11,1.1,1000
17:42:11.294,-5.56,-3.91,33.03,2.01,-12.07,-24.33,0.11,-0.11,1.07,1000
17:42:11.294,-5.56,-4.79,32.76,12.26,-4.39,-23.35,0.17,-0.1,1.04,1000
17:42:11.300,-5.39,-6.05,32.52,20.85,6.1,-21.16,0.22,-0.13,1.04,1000
17:42:11.309,-5.52,-7.55,32.3,27.68,16.95,-19.21,0.22,-0.24,1.01,1000
17:42:11.320,-6.43,-8.22,32.09,31.89,29.51,-20.67,0.2,-0.13,1.05,1000
17:42:11.336,-6.08,-8.43,31.83,38.23,41.65,-25.37,0.2,-0.08,1.03,1000
17:42:11.342,-6.17,-8.2,31.52,43.84,47.56,-32.13,0.12,-0.17,1.06,1000
17:42:11.353,-6.13,-7.25,31.11,50.67,49.7,-40.49,0.09,-0.14,1.03,1000
17:42:11.365,-5.92,-6.36,30.64,54.21,47.01,-42.32,0.11,-0.12,1.07,1000
17:42:11.376,-5.85,-5.76,30.19,56.22,40.98,-40.18,0.09,-0.14,1.0,1000
17:42:11.403,-5.35,-5.49,29.77,55.37,32.93,-37.87,0.12,-0.08,1.02,1000
17:42:11.403,-4.53,-5.37,29.36,50.0,26.71,-36.89,0.1,-0.05,0.99,1000
17:42:11.414,-3.57,-5.48,28.94,42.5,23.6,-38.29,0.14,-0.01,1.0,1000
17:42:11.421,-2.48,-6.23,28.51,33.29,22.99,-39.94,0.18,-0.02,0.98,1000
17:42:11.439,-2.83,-6.28,28.04,26.34,23.17,-46.59,0.07,-0.13,0.93,1000
17:42:11.444,-3.89,-4.94,27.46,19.09,22.13,-58.35,0.01,-0.12,1.02,1000
17:42:11.453,-3.99,-4.05,26.75,10.55,18.6,-68.6,0.03,-0.09,1.02,1000
17:42:11.464,-4.45,-3.2,25.94,5.18,12.93,-76.52,0.0,-0.1,1.03,1000
17:42:11.474,-3.81,-2.75,25.07,4.02,5.91,-80.37,0.05,0.02,1.02,1000
17:42:11.485,-2.57,-3.06,24.27,5.37,0.12,-79.39,0.09,0.05,1.01,1000
17:42:11.498,-1.41,-3.78,23.34,10.79,-4.02,-76.59,0.1,0.04,0.97,1000
17:42:11.507,0.05,-4.52,22.51,13.78,-4.76,-74.33,0.13,0.11,1.02,1000
17:42:11.521,1.25,-5.57,21.7,16.65,-1.65,-73.29,0.13,0.03,0.93,1000
17:42:11.549,0.96,-5.11,20.87,17.56,3.66,-79.09,0.02,-0.03,0.97,1000
17:42:11.550,1.01,-4.13,19.95,17.32,8.29,-86.95,-0.01,0.0,0.93,1000
17:42:11.558,0.3,-2.65,18.94,12.8,10.43,-94.45,-0.05,-0.05,1.05,1000
17:42:11.562,0.52,-1.87,17.98,4.94,8.05,-95.79,-0.01,0.04,0.96,1000
17:42:11.573,1.42,-1.81,16.87,0.3,0.61,-90.12,0.03,0.04,0.97,1000
17:42:11.589,1.44,-1.95,15.92,-2.13,-10.24,-82.99,0.04,0.03,0.95,1000
17:42:11.596,1.96,-2.14,15.04,-5.12,-20.55,-77.2,0.03,0.08,0.98,1000
17:42:11.607,2.36,-2.38,14.22,-8.78,-26.71,-74.45,0.03,0.05,0.93,1000
17:42:11.618,2.18,-2.31,13.39,-12.62,-28.72,-76.28,0.0,0.03,0.97,1000
17:42:11.635,2.04,-2.18,12.53,-16.65,-25.73,-79.94,0.01,0.02,0.95,1000
17:42:11.644,0.85,-1.31,11.61,-20.91,-19.7,-87.44,-0.08,-0.06,0.99,1000
17:42:11.658,0.13,-0.39,10.6,-26.22,-12.26,-94.21,-0.04,0.03,1.01,1000
17:42:11.666,0.29,-0.27,9.56,-31.16,-6.52,-93.66,0.01,0.02,1.04,1000
17:42:11.672,-0.11,-0.45,8.56,-31.04,-4.94,-88.17,0.02,-0.01,1.0,1000
17:42:11.683,-0.43,-0.84,7.63,-27.5,-7.44,-81.16,0.04,-0.01,1.04,1000
17:42:11.699,-0.97,-1.11,6.79,-23.41,-10.43,-74.15,0.03,-0.05,1.02,1000
17:42:11.708,-1.36,-1.06,6.0,-19.33,-11.83,-70.98,0.0,-0.02,1.04,1000
17:42:11.719,-1.74,-0.69,5.22,-16.04,-11.1,-71.34,-0.03,-0.05,1.03,1000
17:42:11.727,-2.26,-0.18,4.42,-13.84,-8.35,-73.6,-0.04,-0.07,1.05,1000
17:42:11.738,-2.99,1.03,3.59,-12.5,-6.16,-76.59,-0.13,-0.11,1.06,1000
17:42:11.750,-3.78,2.54,2.73,-10.55,-5.0,-78.05,-0.14,-0.08,1.08,1000
17:42:11.762,-3.64,3.23,1.91,-10.49,-5.85,-71.71,-0.09,-0.04,1.1,1000
17:42:11.773,-3.33,3.18,1.2,-9.15,-8.29,-57.87,-0.03,-0.04,1.08,1000
17:42:11.782,-3.43,2.41,0.67,-5.55,-9.7,-40.18,0.02,-0.08,1.07,1000
17:42:11.794,-3.86,1.44,0.32,-2.8,-7.56,-25.73,0.04,-0.09,1.06,1000
17:42:11.805,-3.84,0.77,0.11,-2.87,-1.1,-15.98,0.03,-0.06,1.07,1000
17:42:11.816,-3.62,0.56,-0.04,-4.88,8.17,-12.93,-0.0,-0.05,1.05,1000
17:42:11.827,-3.47,0.93,-0.19,-6.28,19.76,-14.88,-0.03,-0.05,1.05,1000
17:42:11.881,-3.36,1.91,-0.39,-6.83,29.02,-20.49,-0.11,-0.04,1.05,1000
17:42:11.881,-2.86,3.32,-0.65,-7.68,33.17,-25.98,-0.11,-0.0,1.07,1000
17:42:11.881,-2.19,4.0,-0.94,-6.89,31.52,-25.3,-0.08,0.01,1.06,1000
17:42:11.881,-2.24,4.11,-1.18,-3.29,25.06,-19.94,-0.04,-0.06,1.05,1000
17:42:11.883,-2.55,3.47,-1.35,1.46,15.0,-11.28,0.01,-0.06,1.06,1000
17:42:11.893,-2.61,2.83,-1.43,5.55,5.91,-4.76,0.0,-0.05,1.04,1000
17:42:11.903,-2.79,2.35,-1.47,8.78,0.37,-3.35,-0.02,-0.07,1.02,1000
17:42:11.916,-2.72,2.21,-1.52,8.6,-1.16,-6.71,-0.03,-0.03,1.04,1000
17:42:11.927,-2.35,2.14,-1.62,5.85,0.3,-11.65,-0.03,-0.03,1.03,1000
17:42:11.952,-2.2,2.17,-1.79,2.44,4.21,-18.6,-0.04,-0.03,1.03,1000
17:42:11.952,-1.83,2.36,-2.04,-0.73,7.2,-24.33,-0.04,0.0,1.02,1000
17:42:11.958,-1.55,2.3,-2.33,-2.68,8.72,-27.13,-0.01,-0.02,1.01,1000
17:42:11.972,-1.67,1.98,-2.6,-2.87,8.05,-26.83,-0.01,-0.04,1.0,1000
17:42:11.993,-1.78,1.69,-2.91,-2.5,5.91,-24.94,-0.0,-0.03,1.02,1000
17:42:11.997,-1.76,1.42,-3.15,-2.2,4.51,-22.68,-0.0,-0.03,1.01,1000
17:42:12.005,-1.72,1.15,-3.41,-2.07,4.45,-20.91,0.0,-0.03,1.01,1000
17:42:12.014,-1.57,0.87,-3.63,-3.41,5.85,-20.61,-0.0,-0.01,1.01,1000
17:42:12.024,-1.48,1.29,-3.87,-4.7,7.99,-23.17,-0.08,-0.02,1.01,1000
17:42:12.036,-1.23,2.21,-4.15,-7.01,9.51,-26.83,-0.08,-0.0,1.04,1000
17:42:12.059,-1.17,2.79,-4.45,-9.88,9.09,-27.13,-0.08,-0.02,1.03,1000
17:42:12.065,-1.33,3.07,-4.74,-10.43,7.56,-24.21,-0.05,-0.02,1.03,1000
17:42:12.071,-1.41,2.91,-4.96,-9.63,4.57,-17.68,-0.02,-0.04,1.05,1000
17:42:12.079,-2.0,2.58,-5.11,-6.95,1.4,-11.22,-0.03,-0.07,1.03,1000
17:42:12.091,-2.29,2.27,-5.21,-4.09,-1.22,-6.71,-0.01,-0.04,1.05,1000
17:42:12.111,-2.19,2.0,-5.26,-1.95,-2.87,-4.63,-0.03,-0.04,1.04,1000
17:42:12.119,-2.2,2.06,-5.32,-1.1,-2.56,-6.04,-0.05,-0.03,1.05,1000
17:42:12.123,-1.89,2.19,-5.41,-1.95,-1.04,-9.63,-0.05,-0.02,1.05,1000
17:42:12.134,-1.87,2.33,-5.54,-3.23,0.61,-13.54,-0.05,-0.04,1.04,1000
17:42:12.161,-1.8,2.3,-5.71,-3.72,1.95,-16.89,-0.02,-0.02,1.04,1000
17:42:12.161,-1.75,1.95,-5.9,-4.33,2.38,-17.87,-0.0,-0.04,1.03,1000
17:42:12.172,-2.03,1.59,-6.1,-3.9,2.01,-18.23,0.0,-0.05,1.03,1000
17:42:12.183,-2.12,1.33,-6.3,-3.9,2.01,-18.96,-0.01,-0.03,1.04,1000
17:42:12.193,-2.15,1.31,-6.52,-4.82,2.44,-20.79,-0.02,-0.04,1.04,1000
17:42:12.213,-2.16,1.38,-6.76,-5.49,3.29,-23.05,-0.03,-0.04,1.05,1000
17:42:12.213,-2.23,1.46,-7.03,-5.61,3.6,-24.88,-0.03,-0.05,1.05,1000
17:42:12.241,-2.52,1.69,-7.31,-4.63,3.35,-26.28,-0.05,-0.06,1.05,1000
17:42:12.241,-2.66,1.87,-7.6,-2.44,2.13,-25.61,-0.05,-0.05,1.05,1000
17:42:12.260,-2.74,2.1,-7.85,-1.22,0.12,-24.21,-0.06,-0.06,1.06,1000
17:42:12.262,-2.8,2.22,-8.12,1.4,-2.62,-20.49,-0.04,-0.05,1.05,1000
17:42:12.284,-2.96,2.18,-8.32,4.27,-5.06,-16.71,-0.05,-0.08,1.04,1000
17:42:12.284,-3.2,2.23,-8.48,6.89,-6.95,-13.35,-0.05,-0.07,1.03,1000
17:42:12.291,-3.21,2.44,-8.61,9.09,-8.84,-10.85,-0.07,-0.06,1.03,1000
17:42:12.312,-3.21,2.75,-8.72,8.72,-9.82,-9.09,-0.07,-0.07,1.04,1000
17:42:12.312,-3.03,2.62,-8.8,7.26,-10.12,-5.91,-0.02,-0.04,1.03,1000
17:42:12.324,-2.99,2.09,-8.84,5.79,-8.96,-1.59,0.0,-0.06,1.02,1000
17:42:12.332,-3.18,1.42,-8.84,4.63,-7.44,1.52,0.02,-0.07,1.0,1000
17:42:12.343,-3.24,0.81,-8.81,3.05,-5.61,3.35,0.02,-0.06,1.01,1000
17:42:12.359,-3.16,0.27,-8.77,1.22,-4.15,3.41,0.02,-0.05,1.0,1000
17:42:12.367,-2.99,-0.15,-8.73,-0.98,-2.13,2.2,0.03,-0.04,1.01,1000
17:42:12.378,-2.92,-0.56,-8.73,-2.87,-0.3,-0.43,0.04,-0.05,1.0,1000
17:42:12.389,-3.24,-0.8,-8.75,-3.41,1.4,-4.15,0.02,-0.08,1.0,1000
17:42:12.398,-3.38,-0.77,-8.83,-4.09,2.32,-8.84,0.0,-0.06,1.01,1000
17:42:12.414,-3.39,-0.43,-8.95,-5.3,1.71,-13.54,-0.02,-0.06,1.01,1000
17:42:12.421,-3.24,-0.06,-9.12,-6.22,-0.67,-16.95,-0.02,-0.03,1.01,1000
17:42:12.432,-3.08,-0.05,-9.31,-7.2,-4.15,-16.65,0.0,-0.05,1.03,1000
17:42:12.442,-3.11,-0.16,-9.48,-7.32,-8.05,-13.78,0.0,-0.05,1.03,1000
17:42:12.461,-3.2,-0.43,-9.61,-6.89,-11.22,-10.18,0.02,-0.06,1.04,1000
17:42:12.467,-3.35,-0.76,-9.69,-5.98,-12.62,-6.65,0.02,-0.07,1.03,1000
17:42:12.477,-3.45,-0.87,-9.75,-5.12,-12.62,-3.9,0.01,-0.06,1.04,1000
17:42:12.498,-3.31,-0.97,-9.78,-5.18,-11.52,-1.83,0.02,-0.05,1.04,1000
17:42:12.498,-3.4,-1.06,-9.79,-5.12,-8.66,-0.06,0.01,-0.08,1.03,1000
17:42:12.508,-3.45,-0.81,-9.79,-4.76,-6.95,0.43,-0.02,-0.05,1.03,1000
17:42:12.519,-3.2,-0.45,-9.78,-3.96,-5.67,1.59,-0.01,-0.03,1.04,1000
17:42:12.530,-3.17,-0.49,-9.75,-3.54,-5.3,4.7,0.02,-0.07,1.05,1000
17:42:12.543,-3.38,-0.91,-9.67,-2.5,-5.12,9.27,0.05,-0.08,1.04,1000
17:42:12.573,-3.58,-1.31,-9.54,-1.52,-4.88,13.11,0.04,-0.07,1.05,1000
17:42:12.573,-3.59,-1.54,-9.39,-1.04,-4.33,14.45,0.03,-0.06,1.04,1000
17:42:12.583,-3.54,-1.57,-9.23,-0.12,-3.66,13.11,0.02,-0.05,1.03,1000
17:42:12.586,-3.39,-1.41,-9.11,0.18,-3.29,9.7,0.01,-0.05,1.05,1000
17:42:12.596,-3.16,-1.3,-9.02,-0.18,-3.17,6.22,0.02,-0.05,1.04,1000
17:42:12.607,-3.11,-1.44,-8.98,-0.61,-3.11,3.17,0.04,-0.06,1.04,1000
17:42:12.728,-3.08,-1.67,-8.95,-0.18,-3.35,0.98,0.04,-0.05,1.03,1000
17:42:12.728,-3.05,-1.84,-8.96,1.04,-3.05,-1.4,0.03,-0.06,1.03,1000
17:42:12.728,-3.07,-1.68,-8.99,1.59,-2.62,-4.94,0.01,-0.05,1.04,1000
17:42:12.728,-2.78,-1.65,-9.06,1.28,-1.52,-6.95,0.04,-0.03,1.05,1000
17:42:12.728,-2.75,-1.87,-9.14,0.3,0.91,-7.74,0.05,-0.06,1.05,1000
17:42:12.728,-2.76,-2.04,-9.23,0.73,3.11,-8.35,0.05,-0.05,1.04,1000
17:42:12.728,-2.71,-2.18,-9.32,1.34,5.18,-8.11,0.05,-0.05,1.05,1000
17:42:12.728,-2.68,-2.32,-9.41,2.2,6.52,-7.93,0.05,-0.05,1.04,1000
17:42:12.728,-2.62,-2.34,-9.5,3.84,7.2,-8.17,0.04,-0.04,1.03,1000
17:42:12.728,-2.49,-2.03,-9.6,5.55,7.13,-9.39,0.0,-0.04,1.03,1000
17:42:12.729,-2.27,-1.37,-9.71,6.65,5.91,-11.1,-0.02,-0.03,1.03,1000
17:42:12.739,-2.15,-0.8,-9.84,6.65,3.29,-11.22,-0.02,-0.04,1.04,1000
17:42:12.798,-1.94,-0.51,-9.95,6.4,-0.55,-9.09,-0.0,-0.03,1.04,1000
17:42:12.798,-1.95,-0.58,-10.02,6.77,-4.51,-4.76,0.02,-0.06,1.03,1000
17:42:12.798,-2.18,-0.95,-10.04,7.07,-6.83,-0.06,0.04,-0.06,1.03,1000
17:42:12.798,-2.32,-1.24,-10.02,7.44,-7.2,2.68,0.03,-0.06,1.02,1000
17:42:12.798,-2.37,-1.13,-9.99,6.59,-6.4,2.44,0.0,-0.04,1.03,1000
17:42:12.805,-2.05,-1.06,-9.97,6.04,-5.0,1.34,0.02,-0.02,1.02,1000
17:42:12.817,-2.0,-1.18,-9.96,4.88,-2.8,0.06,0.02,-0.05,1.02,1000
17:42:12.940,-1.98,-1.03,-9.97,3.9,-1.28,-1.89,0.01,-0.02,1.02,1000
17:42:12.940,-1.68,-1.12,-10.0,3.23,-0.73,-2.5,0.03,-0.02,1.03,1000
17:42:12.940,-1.83,-1.5,-10.02,2.87,-0.61,-1.28,0.05,-0.06,1.01,1000
17:42:12.940,-2.04,-1.69,-10.03,3.54,-0.49,-1.16,0.03,-0.05,1.02,1000
17:42:12.940,-2.02,-1.72,-10.05,3.05,-0.37,-1.46,0.04,-0.04,1.03,1000
17:42:12.940,-2.11,-1.94,-10.06,2.38,0.3,-1.65,0.05,-0.05,1.02,1000
17:42:12.940,-2.09,-2.14,-10.08,2.07,0.49,-2.01,0.05,-0.03,1.02,1000
17:42:12.940,-1.96,-2.29,-10.11,1.71,1.34,-2.93,0.05,-0.04,1.02,1000
17:42:12.940,-2.09,-2.29,-10.15,0.67,2.07,-4.33,0.04,-0.04,1.02,1000
17:42:12.940,-2.03,-2.22,-10.21,-0.24,2.68,-5.91,0.03,-0.03,1.01,1000
17:42:12.940,-1.85,-1.91,-10.28,-1.34,1.83,-7.62,0.02,-0.02,1.03,1000
17:42:12.948,-1.76,-1.75,-10.37,-1.04,-0.37,-8.11,0.02,-0.02,1.01,1000
17:42:12.971,-1.51,-1.7,-10.46,-0.43,-2.13,-7.2,0.03,-0.01,1.03,1000
17:42:12.975,-1.47,-1.77,-10.53,-0.61,-2.99,-5.85,0.03,-0.03,1.02,1000
17:42:12.981,-1.44,-1.86,-10.59,0.24,-2.93,-4.33,0.04,-0.02,1.02,1000
17:42:12.993,-1.44,-1.94,-10.63,0.37,-1.65,-3.48,0.04,-0.04,1.02,1000
17:42:13.003,-1.51,-1.92,-10.66,-0.24,0.12,-3.29,0.03,-0.03,1.02,1000
17:42:13.014,-1.48,-1.94,-10.7,-1.1,2.2,-2.99,0.04,-0.03,1.02,1000
17:42:13.078,-1.49,-1.92,-10.74,-2.38,3.9,-3.54,0.03,-0.02,1.02,1000
17:42:13.079,-1.46,-1.73,-10.78,-2.68,4.21,-4.51,0.01,-0.02,1.01,1000
17:42:13.079,-1.44,-1.23,-10.84,-3.11,4.02,-5.61,-0.01,-0.03,1.03,1000
17:42:13.079,-1.28,-0.85,-10.9,-4.7,2.38,-5.79,0.0,-0.01,1.03,1000
17:42:13.082,-1.31,-0.82,-10.96,-4.39,1.04,-4.57,0.02,-0.03,1.03,1000
17:42:13.173,-1.48,-0.87,-11.0,-3.84,-0.55,-3.11,0.02,-0.03,1.03,1000
17:42:13.173,-1.49,-0.93,-11.03,-3.29,-1.16,-2.01,0.02,-0.03,1.03,1000
17:42:13.173,-1.5,-0.94,-11.05,-2.38,-0.18,-1.83,0.02,-0.02,1.02,1000
17:42:13.173,-1.49,-0.93,-11.07,-1.4,1.89,-2.56,0.01,-0.02,1.01,1000
17:42:13.173,-1.39,-0.7,-11.11,-1.83,5.0,-4.02,-0.0,-0.01,1.02,1000
17:42:13.173,-1.18,-0.43,-11.16,-3.11,9.39,-4.94,-0.0,-0.02,1.02,1000
17:42:13.173,-1.24,-0.14,-11.22,-3.66,13.9,-5.12,-0.01,-0.02,1.02,1000
17:42:13.173,-1.16,0.25,-11.27,-4.09,16.4,-4.45,-0.02,-0.02,1.03,1000
17:42:13.218,-1.48,0.45,-11.3,-4.02,17.62,-2.32,0.0,-0.07,1.03,1000
17:42:13.218,-1.96,0.52,-11.31,-4.15,17.13,0.79,0.0,-0.07,1.04,1000
17:42:13.218,-2.38,0.55,-11.28,-4.88,14.88,3.96,-0.01,-0.07,1.04,1000
17:42:13.218,-2.79,0.83,-11.23,-5.61,11.4,5.49,-0.03,-0.07,1.03,1000
17:42:13.221,-2.96,1.4,-11.16,-5.91,6.4,5.37,-0.06,-0.05,1.03,1000
17:42:13.227,-2.95,1.82,-11.11,-6.34,1.1,5.18,-0.05,-0.05,1.04,1000
17:42:13.234,-2.97,1.85,-11.04,-7.62,-3.84,5.98,-0.02,-0.05,1.05,1000
17:42:13.279,-3.03,1.53,-10.97,-7.62,-6.65,7.87,-0.0,-0.06,1.03,1000
17:42:13.279,-3.28,1.08,-10.87,-7.07,-7.01,8.72,0.0,-0.07,1.04,1000
17:42:13.306,-3.46,0.86,-10.78,-5.91,-5.55,7.99,-0.01,-0.06,1.03,1000
17:42:13.306,-3.34,0.74,-10.71,-4.76,-2.99,5.85,-0.0,-0.04,1.05,1000
17:42:13.306,-3.29,0.48,-10.65,-3.66,-0.67,4.76,0.01,-0.06,1.04,1000
17:42:13.306,-3.28,0.15,-10.61,-1.89,1.52,3.48,0.02,-0.05,1.04,1000
17:42:13.319,-3.22,0.03,-10.58,-0.37,2.68,2.07,0.01,-0.05,1.03,1000
17:42:13.332,-3.18,0.05,-10.56,1.77,2.5,0.3,-0.01,-0.06,1.03,1000
17:42:13.357,-3.17,0.24,-10.57,2.8,1.34,-1.22,-0.02,-0.06,1.04,1000
17:42:13.357,-2.99,0.26,-10.59,2.74,-0.43,-1.28,0.0,-0.04,1.04,1000
17:42:13.357,-2.88,0.03,-10.59,2.44,-2.13,0.79,0.02,-0.05,1.03,1000
17:42:13.424,-2.88,-0.27,-10.57,2.26,-2.74,2.8,0.03,-0.06,1.03,1000
17:42:13.425,-2.87,-0.49,-10.53,1.95,-2.44,3.72,0.01,-0.05,1.02,1000
17:42:13.425,-2.71,-0.45,-10.49,0.79,-1.71,3.23,-0.0,-0.04,1.03,1000
17:42:13.425,-2.53,-0.23,-10.46,-0.37,-1.4,1.95,-0.01,-0.03,1.02,1000
17:42:13.429,-2.42,-0.16,-10.44,-1.77,-1.77,1.34,0.01,-0.04,1.03,1000
17:42:13.429,-2.48,-0.42,-10.42,-3.11,-2.2,2.38,0.02,-0.06,1.03,1000
17:42:13.434,-2.53,-0.59,-10.39,-3.29,-2.44,3.54,0.02,-0.04,1.03,1000
17:42:13.443,-2.64,-0.79,-10.34,-2.56,-2.32,3.84,0.02,-0.05,1.03,1000
17:42:13.456,-2.73,-0.84,-10.31,-1.52,-1.59,2.74,0.01,-0.05,1.03,1000
17:42:13.501,-2.74,-0.74,-10.29,-0.79,-0.91,1.04,0.0,-0.05,1.03,1000
17:42:13.501,-2.62,-0.64,-10.28,-0.06,-0.37,-0.3,0.01,-0.04,1.03,1000
17:42:13.501,-2.56,-0.64,-10.29,1.1,-0.18,-1.16,0.01,-0.05,1.03,1000
17:42:13.501,-2.74,-0.54,-10.31,1.59,-0.43,-1.83,-0.0,-0.06,1.04,1000
17:42:13.509,-2.83,-0.35,-10.33,2.07,-0.67,-2.32,-0.02,-0.05,1.03,1000
17:42:13.528,-2.9,-0.07,-10.36,1.4,-1.16,-2.38,-0.01,-0.06,1.05,1000
17:42:13.552,-2.95,-0.03,-10.38,0.85,-2.2,-1.4,-0.0,-0.06,1.03,1000
17:42:13.552,-2.94,-0.06,-10.38,0.98,-3.17,0.61,0.0,-0.05,1.04,1000
17:42:13.553,-2.94,-0.14,-10.37,0.79,-3.29,2.07,0.01,-0.05,1.03,1000
17:42:13.607,-2.95,-0.21,-10.33,0.79,-2.01,2.8,0.0,-0.05,1.03,1000
17:42:13.607,-2.98,-0.02,-10.31,0.3,-0.79,1.95,-0.02,-0.05,1.02,1000
17:42:13.607,-2.77,0.29,-10.29,-0.37,-0.37,1.04,-0.02,-0.04,1.04,1000
17:42:13.607,-2.72,0.27,-10.28,-0.49,-1.22,1.4,0.01,-0.05,1.03,1000
17:42:13.609,-2.82,0.09,-10.26,0.37,-1.89,2.8,0.01,-0.06,1.03,1000
17:42:13.620,-2.87,0.12,-10.22,0.85,-2.74,2.99,-0.01,-0.05,1.03,1000
17:42:13.635,-2.82,0.13,-10.19,1.34,-3.35,3.35,0.01,-0.05,1.03,1000
17:42:13.746,-2.84,-0.08,-10.15,1.16,-3.41,3.84,0.02,-0.06,1.03,1000
17:42:13.746,-2.9,-0.39,-10.1,1.77,-3.29,4.39,0.02,-0.06,1.02,1000
17:42:13.746,-2.88,-0.57,-10.06,2.2,-3.17,3.96,0.02,-0.05,1.02,1000
17:42:13.746,-2.82,-0.61,-10.02,2.13,-3.72,2.99,0.01,-0.05,1.02,1000
17:42:13.746,-2.85,-0.73,-9.99,1.65,-4.15,1.95,0.02,-0.05,1.02,1000
17:42:13.746,-2.67,-0.85,-9.97,0.98,-4.82,1.34,0.02,-0.04,1.03,1000
17:42:13.746,-2.56,-0.94,-9.97,0.85,-5.18,0.49,0.02,-0.04,1.01,1000
17:42:13.747,-2.5,-0.91,-9.97,1.52,-5.24,-0.79,0.0,-0.05,1.01,1000
17:42:13.747,-2.5,-0.63,-9.99,1.65,-5.24,-2.62,-0.01,-0.04,1.02,1000
17:42:13.747,-2.39,-0.68,-10.02,0.85,-5.24,-2.32,0.03,-0.04,1.03,1000
17:42:13.754,-2.43,-1.01,-10.03,0.24,-4.63,-0.24,0.05,-0.05,1.02,1000
17:42:13.834,-2.47,-1.42,-10.02,0.06,-3.54,2.01,0.05,-0.04,1.01,1000
17:42:13.834,-2.37,-1.69,-9.99,-0.43,-1.4,2.32,0.04,-0.04,1.02,1000
17:42:13.834,-2.44,-1.76,-9.97,-0.67,1.52,0.98,0.02,-0.06,1.01,1000
17:42:13.834,-2.41,-1.25,-9.98,-0.98,3.17,-2.56,-0.02,-0.02,1.03,1000
17:42:13.834,-2.1,-0.9,-10.03,-1.65,2.99,-4.94,0.01,-0.02,1.02,1000
17:42:13.834,-2.25,-0.96,-10.08,-2.07,1.83,-4.39,0.03,-0.06,1.03,1000
17:42:13.834,-2.38,-1.02,-10.12,-1.65,0.18,-2.93,0.02,-0.04,1.01,1000
17:42:13.965,-2.34,-1.09,-10.15,-1.77,-1.16,-1.46,0.03,-0.04,1.03,1000
17:42:14.000,-2.48,-1.16,-10.15,-2.07,-0.79,-0.24,0.02,-0.05,1.01,1000
17:42:14.000,-2.43,-1.15,-10.15,-2.62,1.16,-0.06,0.02,-0.04,1.03,1000
17:42:14.000,-2.43,-0.78,-10.16,-3.41,3.05,-2.01,-0.02,-0.04,1.02,1000
17:42:14.000,-2.24,-0.47,-10.2,-3.78,4.09,-3.35,-0.0,-0.01,1.03,1000
17:42:14.000,-2.09,-0.35,-10.23,-3.35,4.27,-2.99,0.01,-0.04,1.02,1000
17:42:14.000,-2.11,-0.27,-10.26,-1.77,3.17,-1.95,-0.0,-0.04,1.02,1000
17:42:14.000,-2.1,-0.15,-10.28,-0.43,1.52,-1.04,-0.0,-0.03,1.04,1000
17:42:14.000,-2.19,-0.15,-10.28,1.28,-0.43,0.18,0.01,-0.06,1.04,1000
17:42:14.000,-2.48,-0.25,-10.27,2.38,-2.32,1.22,0.02,-0.06,1.05,1000
17:42:14.000,-2.72,-0.43,-10.25,3.6,-3.54,1.71,0.02,-0.07,1.03,1000
17:42:14.000,-2.94,-0.46,-10.24,4.21,-4.15,1.34,0.0,-0.06,1.05,1000
17:42:14.000,-2.88,-0.45,-10.23,3.66,-4.63,0.61,0.01,-0.05,1.04,1000
17:42:14.000,-3.03,-0.6,-10.22,2.87,-4.76,0.79,0.02,-0.07,1.04,1000
17:42:14.000,-3.06,-0.77,-10.21,1.65,-4.27,1.16,0.02,-0.05,1.04,1000
17:42:14.006,-3.02,-1.01,-10.2,0.55,-3.29,1.77,0.04,-0.06,1.03,1000
17:42:14.015,-3.02,-1.12,-10.18,-0.43,-1.89,1.46,0.02,-0.05,1.02,1000
17:42:14.026,-2.78,-0.99,-10.17,-1.22,-0.3,0.3,0.01,-0.03,1.02,1000
17:42:14.037,-2.66,-0.83,-10.18,-1.83,0.61,-1.46,0.0,-0.04,1.03,1000
17:42:14.178,-2.54,-0.81,-10.2,-2.07,1.22,-2.07,0.02,-0.03,1.03,1000
17:42:14.178,-2.38,-0.91,-10.22,-1.34,1.71,-2.13,0.02,-0.04,1.02,1000
17:42:14.178,-2.42,-0.72,-10.25,0.43,1.71,-3.29,-0.01,-0.04,1.01,1000
17:42:14.178,-2.32,-0.38,-10.3,1.59,0.98,-4.63,-0.01,-0.04,1.03,1000
17:42:14.178,-2.37,-0.26,-10.35,1.77,-0.18,-4.39,0.0,-0.05,1.01,1000
17:42:14.178,-2.36,-0.33,-10.39,1.59,-1.46,-3.05,0.01,-0.03,1.03,1000
17:42:14.178,-2.29,-0.43,-10.41,0.91,-2.07,-1.65,0.01,-0.05,1.01,1000
17:42:14.178,-2.33,-0.48,-10.42,-0.06,-1.59,-0.67,0.01,-0.04,1.02,1000
17:42:14.178,-2.26,-0.36,-10.43,-1.34,-1.1,-0.61,-0.0,-0.03,1.01,1000
17:42:14.178,-2.09,-0.32,-10.43,-2.32,-1.22,-0.3,0.01,-0.03,1.02,1000
17:42:14.178,-2.06,-0.42,-10.43,-3.66,-0.79,0.55,0.02,-0.04,1.01,1000
17:42:14.178,-2.13,-0.45,-10.42,-3.96,-0.61,0.55,0.0,-0.04,1.02,1000
17:42:14.183,-2.15,-0.27,-10.42,-4.82,-0.55,-0.37,-0.0,-0.04,1.03,1000
17:42:14.192,-2.22,-0.14,-10.43,-4.82,-1.22,-0.73,-0.0,-0.05,1.03,1000
17:42:14.211,-2.27,-0.17,-10.44,-4.33,-2.07,-0.55,0.01,-0.04,1.03,1000
17:42:14.218,-2.24,-0.35,-10.44,-3.96,-2.74,0.85,0.02,-0.04,1.03,1000
17:42:14.224,-2.27,-0.54,-10.42,-3.29,-2.56,2.2,0.02,-0.04,1.03,1000
17:42:14.241,-2.26,-0.73,-10.4,-2.62,-1.83,2.26,0.02,-0.05,1.03,1000
17:42:14.248,-2.37,-0.34,-10.38,-2.74,-1.59,-0.06,-0.04,-0.05,1.04,1000
17:42:14.419,-2.22,0.24,-10.4,-3.78,-3.05,-2.5,-0.03,-0.02,1.05,1000
17:42:14.419,-1.92,0.2,-10.42,-5.79,-5.61,-0.91,0.01,-0.02,1.05,1000
17:42:14.419,-1.87,-0.11,-10.42,-5.37,-8.6,2.26,0.02,-0.03,1.04,1000
17:42:14.420,-1.98,-0.63,-10.37,-4.51,-10.67,5.61,0.04,-0.04,1.05,1000
17:42:14.420,-2.05,-1.09,-10.3,-4.15,-10.24,7.32,0.04,-0.04,1.05,1000
17:42:14.420,-2.05,-1.52,-10.22,-4.09,-7.87,7.01,0.06,-0.03,1.05,1000
17:42:14.420,-2.06,-1.94,-10.15,-3.17,-4.63,5.43,0.04,-0.05,1.03,1000
17:42:14.420,-2.3,-1.78,-10.11,-2.32,-1.46,1.65,0.01,-0.05,1.04,1000
17:42:14.420,-2.19,-1.47,-10.12,-2.99,1.04,-2.5,0.02,-0.03,1.06,1000
17:42:14.420,-2.27,-1.56,-10.15,-3.29,1.16,-3.41,0.04,-0.05,1.05,1000
17:42:14.422,-2.53,-1.82,-10.18,-1.89,-0.06,-2.13,0.05,-0.06,1.05,1000
17:42:14.422,-2.79,-2.13,-10.19,-0.67,-1.65,-0.06,0.06,-0.08,1.06,1000
17:42:14.422,-3.22,-2.4,-10.19,0.12,-1.77,0.61,0.06,-0.09,1.05,1000
17:42:14.422,-3.48,-2.3,-10.19,0.3,-1.22,-0.61,0.02,-0.07,1.06,1000
17:42:14.422,-3.38,-1.98,-10.21,0.0,-0.61,-3.17,0.01,-0.05,1.06,1000
17:42:14.426,-3.25,-1.74,-10.25,-1.04,-0.49,-4.63,0.02,-0.04,1.06,1000
17:42:14.434,-2.97,-1.73,-10.31,-1.16,-1.77,-4.02,0.03,-0.03,1.05,1000
17:42:14.616,-2.68,-1.72,-10.34,-0.79,-2.99,-2.62,0.03,-0.03,1.06,1000
17:42:14.616,-2.36,-1.77,-10.36,-0.3,-3.72,-0.91,0.04,-0.02,1.05,1000
17:42:14.616,-2.1,-1.92,-10.36,0.37,-3.66,0.55,0.04,-0.02,1.05,1000
17:42:14.616,-1.8,-1.65,-10.36,0.12,-3.72,0.06,-0.0,-0.01,1.07,1000
17:42:14.616,-1.46,-1.23,-10.37,-0.79,-3.6,-1.46,-0.01,0.01,1.07,1000
17:42:14.616,-1.13,-1.2,-10.38,-2.32,-4.63,-0.61,0.03,-0.01,1.07,1000
17:42:14.616,-0.95,-1.32,-10.37,-5.37,-6.34,1.52,0.04,-0.0,1.09,1000
17:42:14.616,-0.6,-1.71,-10.33,-7.32,-7.87,5.12,0.07,0.02,1.09,1000
17:42:14.616,-0.5,-2.34,-10.26,-10.06,-8.05,8.54,0.08,0.0,1.1,1000
17:42:14.616,-0.32,-2.92,-10.16,-11.71,-6.28,9.33,0.09,0.02,1.08,1000
17:42:14.616,-0.05,-3.11,-10.06,-13.05,-3.11,7.13,0.05,0.03,1.11,1000
17:42:14.616,0.16,-2.96,-10.02,-14.88,0.67,2.07,0.05,0.03,1.11,1000
17:42:14.617,0.24,-3.02,-10.02,-15.98,4.15,-1.77,0.07,0.01,1.12,1000
17:42:14.617,0.03,-3.15,-10.06,-15.3,6.71,-4.76,0.08,-0.01,1.11,1000
17:42:14.617,-0.32,-3.2,-10.12,-13.17,7.5,-7.07,0.06,-0.03,1.11,1000
17:42:14.617,-0.95,-2.77,-10.22,-9.82,7.13,-10.43,0.02,-0.07,1.11,1000
17:42:14.620,-1.37,-2.42,-10.35,-7.07,4.63,-12.44,0.02,-0.06,1.12,1000
17:42:14.823,-1.78,-2.19,-10.49,-4.33,0.98,-12.2,0.03,-0.07,1.11,1000
17:42:14.823,-2.35,-2.26,-10.61,0.12,-3.29,-10.24,0.06,-0.09,1.09,1000
17:42:14.824,-3.14,-2.57,-10.71,4.21,-5.37,-8.72,0.07,-0.13,1.09,1000
17:42:14.824,-3.85,-2.8,-10.8,7.32,-3.9,-8.72,0.06,-0.13,1.09,1000
17:42:14.824,-4.49,-2.85,-10.91,9.27,-0.06,-10.49,0.05,-0.13,1.07,1000
17:42:14.824,-4.92,-2.8,-11.04,10.85,4.94,-13.78,0.06,-0.12,1.05,1000
17:42:14.824,-5.19,-2.77,-11.21,12.8,8.96,-16.28,0.05,-0.13,1.03,1000
17:42:14.824,-5.63,-2.58,-11.4,14.82,11.34,-18.23,0.03,-0.14,1.01,1000
17:42:14.826,-5.92,-1.88,-11.62,15.43,11.46,-21.04,-0.01,-0.13,1.04,1000
17:42:14.826,-6.06,-1.37,-11.86,15.37,8.54,-21.34,0.01,-0.14,1.02,1000
17:42:14.826,-6.6,-1.27,-12.08,16.04,4.94,-18.6,0.03,-0.16,1.01,1000
17:42:14.826,-6.98,-1.41,-12.26,17.68,1.59,-14.02,0.04,-0.15,0.99,1000
17:42:14.826,-7.18,-1.56,-12.39,18.66,0.06,-10.12,0.04,-0.16,1.0,1000
17:42:14.826,-7.41,-1.74,-12.48,19.09,0.0,-7.62,0.04,-0.14,0.97,1000
17:42:14.826,-7.4,-1.77,-12.56,19.15,1.77,-7.2,0.03,-0.13,0.96,1000
17:42:14.826,-7.34,-1.47,-12.65,18.96,4.33,-9.15,-0.0,-0.12,0.96,1000
17:42:15.003,-6.54,-0.9,-13.04,18.11,7.99,-10.49,0.04,-0.1,0.92,1000
17:42:15.003,-6.3,-1.09,-13.14,18.54,8.05,-8.72,0.02,-0.1,0.92,1000
17:42:15.003,-6.02,-0.92,-13.23,18.72,8.6,-8.29,0.01,-0.08,0.9,1000
17:42:15.003,-5.65,-0.65,-13.32,17.8,9.33,-9.27,-0.0,-0.07,0.91,1000
17:42:15.003,-5.11,-0.34,-13.44,16.28,9.7,-10.79,-0.0,-0.05,0.89,1000
17:42:15.003,-4.54,-0.08,-13.57,15.18,9.7,-12.2,-0.01,-0.04,0.87,1000
17:42:15.003,-3.91,0.36,-13.71,13.29,8.96,-13.66,-0.03,-0.03,0.87,1000
17:42:15.003,-3.35,0.93,-13.87,11.95,7.44,-15.79,-0.05,-0.02,0.86,1000
17:42:15.003,-2.75,1.73,-14.05,9.45,5.3,-16.77,-0.06,-0.0,0.87,1000
17:42:15.003,-1.96,2.18,-14.23,6.77,1.89,-15.73,-0.04,0.01,0.86,1000
17:42:15.004,-1.47,2.36,-14.39,4.15,-0.98,-12.74,-0.04,-0.0,0.87,1000
17:42:15.004,-1.05,2.49,-14.51,1.89,-2.87,-9.15,-0.04,0.01,0.86,1000
17:42:15.004,-0.72,2.57,-14.59,-0.85,-3.6,-5.85,-0.04,0.0,0.87,1000
17:42:15.004,-0.53,2.53,-14.63,-4.21,-2.93,-2.5,-0.03,0.01,0.87,1000
17:42:15.004,-0.4,2.41,-14.64,-7.87,-1.83,0.79,-0.03,0.0,0.89,1000
17:42:15.004,-0.39,2.4,-14.62,-11.22,0.0,2.87,-0.04,0.0,0.89,1000
17:42:15.007,-0.37,2.6,-14.58,-14.63,0.98,4.57,-0.05,0.01,0.92,1000
17:42:15.019,-0.28,2.89,-14.51,-16.89,0.37,6.52,-0.07,0.01,0.91,1000
17:42:15.115,-0.44,3.33,-14.43,-17.99,-1.71,8.6,-0.07,0.0,0.96,1000
17:42:15.115,-0.15,3.2,-14.31,-18.35,-4.94,13.9,-0.03,0.02,0.96,1000
17:42:15.115,-0.5,2.54,-14.12,-17.01,-6.71,20.24,0.01,-0.04,0.96,1000
17:42:15.115,-1.08,1.53,-13.86,-15.61,-6.59,25.98,0.04,-0.04,0.97,1000
17:42:15.115,-1.51,0.66,-13.55,-16.77,-3.72,29.02,0.05,-0.05,1.0,1000
17:42:15.116,-2.25,-0.06,-13.23,-19.82,1.16,27.74,0.04,-0.07,1.01,1000
17:42:15.116,-2.62,-0.3,-12.95,-24.39,6.46,22.87,0.02,-0.04,1.04,1000
17:42:15.116,-2.71,-0.45,-12.74,-27.8,9.02,17.07,0.03,-0.03,1.04,1000
17:42:15.198,-2.9,-0.61,-12.58,-30.06,9.33,11.83,0.03,-0.04,1.05,1000
17:42:15.198,-2.99,-0.8,-12.48,-30.73,7.2,7.56,0.03,-0.04,1.05,1000
17:42:15.198,-3.33,-0.89,-12.41,-29.76,4.33,4.57,0.02,-0.07,1.06,1000
17:42:15.198,-3.84,-0.49,-12.39,-27.56,-0.79,0.61,-0.03,-0.1,1.08,1000
17:42:15.198,-4.18,-0.24,-12.39,-24.7,-5.91,-0.37,0.01,-0.06,1.13,1000
17:42:15.198,-4.56,-0.34,-12.38,-21.16,-11.59,2.68,-0.0,-0.11,1.11,1000
17:42:15.198,-4.94,-0.52,-12.33,-15.67,-16.4,7.2,0.02,-0.09,1.12,1000
17:42:15.198,-5.06,-1.01,-12.21,-11.22,-18.35,12.99,0.05,-0.1,1.12,1000
17:42:15.206,-5.29,-1.57,-12.03,-7.68,-16.71,17.68,0.07,-0.12,1.11,1000
17:42:15.392,-5.37,-2.42,-11.81,-5.98,-10.55,21.28,0.09,-0.1,1.1,1000
17:42:15.392,-5.28,-3.17,-11.57,-6.1,-1.83,22.13,0.1,-0.09,1.08,1000
17:42:15.392,-5.25,-3.52,-11.34,-6.95,6.95,18.84,0.07,-0.09,1.06,1000
17:42:15.392,-5.21,-3.16,-11.17,-8.41,12.93,12.74,0.02,-0.08,1.08,1000
17:42:15.392,-4.9,-2.7,-11.07,-11.16,14.33,7.32,0.05,-0.06,1.09,1000
17:42:15.392,-4.95,-2.68,-11.0,-12.56,11.83,5.49,0.06,-0.1,1.08,1000
17:42:15.392,-5.19,-2.78,-10.94,-11.46,7.26,5.55,0.07,-0.1,1.07,1000
17:42:15.392,-5.22,-2.89,-10.88,-9.82,2.68,6.22,0.05,-0.09,1.08,1000
17:42:15.392,-5.4,-2.78,-10.82,-7.68,-0.49,4.27,0.03,-0.11,1.07,1000
17:42:15.392,-5.46,-2.48,-10.79,-6.71,-1.65,0.91,0.03,-0.09,1.09,1000
17:42:15.392,-5.3,-2.38,-10.8,-6.16,-1.22,-1.52,0.04,-0.09,1.07,1000
17:42:15.392,-5.27,-2.47,-10.83,-4.21,0.61,-3.11,0.05,-0.1,1.06,1000
17:42:15.392,-5.24,-2.52,-10.87,-2.26,3.29,-3.78,0.04,-0.1,1.06,1000
17:42:15.393,-5.27,-2.08,-10.92,-0.37,5.0,-5.73,-0.01,-0.09,1.07,1000
17:42:15.393,-5.09,-1.44,-10.99,0.61,5.61,-6.52,-0.01,-0.08,1.07,1000
17:42:15.393,-5.08,-1.11,-11.05,1.34,4.27,-4.7,0.0,-0.11,1.07,1000
17:42:15.401,-5.03,-0.91,-11.07,4.27,1.4,2.87,0.02,-0.1,1.06,1000
17:42:15.461,-5.13,-0.94,-11.02,4.15,2.2,5.67,0.02,-0.1,1.04,1000
17:42:15.461,-5.06,-0.88,-10.95,3.48,5.37,6.16,0.01,-0.08,1.04,1000
17:42:15.461,-4.86,-0.62,-10.89,1.4,8.78,4.76,-0.0,-0.07,1.04,1000
17:42:15.461,-4.61,-0.46,-10.85,-0.55,11.83,2.8,0.01,-0.07,1.03,1000
17:42:15.461,-4.56,-0.33,-10.83,-1.77,13.17,1.28,-0.0,-0.08,1.03,1000
17:42:15.470,-4.58,0.01,-10.84,-2.44,12.01,-1.16,-0.01,-0.08,1.04,1000
17:42:15.480,-4.53,0.34,-10.86,-2.68,8.66,-2.56,-0.03,-0.09,1.03,1000
17:42:15.508,-4.66,0.94,-10.89,-2.56,3.9,-3.9,-0.05,-0.09,1.04,1000
17:42:15.508,-4.58,1.16,-10.93,-2.8,-2.13,-2.07,-0.02,-0.08,1.05,1000
17:42:15.512,-4.81,0.97,-10.93,-2.32,-6.46,1.65,0.0,-0.11,1.04,1000
17:42:15.539,-4.92,0.68,-10.88,-1.59,-8.54,5.91,0.01,-0.09,1.04,1000
17:42:15.540,-4.9,0.32,-10.8,-1.28,-7.44,8.72,0.01,-0.09,1.03,1000
17:42:15.545,-4.89,0.02,-10.69,-1.65,-3.29,9.88,0.02,-0.08,1.03,1000
17:42:15.555,-4.64,-0.19,-10.58,-1.83,2.56,9.76,0.01,-0.06,1.01,1000
17:42:15.573,-4.52,-0.2,-10.48,-1.95,7.87,8.23,0.01,-0.07,1.01,1000
17:42:15.577,-4.47,0.09,-10.41,-0.43,11.16,5.61,-0.04,-0.08,0.99,1000
17:42:15.598,-4.34,1.21,-10.37,0.24,10.0,1.95,-0.09,-0.07,1.03,1000
17:42:15.604,-4.01,1.7,-10.35,-0.06,4.76,2.8,-0.04,-0.05,1.04,1000
17:42:15.610,-4.15,1.6,-10.29,0.98,-1.46,7.74,-0.01,-0.11,1.03,1000
17:42:15.622,-4.54,1.11,-10.17,2.68,-5.79,13.84,0.02,-0.09,1.01,1000
17:42:15.636,-4.43,0.53,-9.99,3.6,-6.22,18.72,0.02,-0.08,1.01,1000
17:42:15.643,-4.33,0.21,-9.77,2.74,-2.87,19.33,0.01,-0.07,0.99,1000
17:42:15.654,-4.02,0.16,-9.57,1.46,2.99,17.01,-0.01,-0.04,0.98,1000
17:42:15.667,-3.58,0.34,-9.41,-0.79,8.35,12.87,-0.01,-0.04,0.99,1000
17:42:15.676,-3.28,0.28,-9.29,-3.23,12.56,9.57,0.01,-0.04,0.96,1000
17:42:15.724,-3.16,0.3,-9.2,-4.7,14.09,7.2,-0.0,-0.04,0.96,1000
17:42:15.724,-3.05,0.62,-9.14,-4.88,12.56,4.82,-0.03,-0.04,0.95,1000
17:42:15.724,-2.99,1.09,-9.09,-5.18,8.96,3.11,-0.03,-0.05,0.97,1000
17:42:15.724,-3.13,1.22,-9.06,-5.3,4.94,3.48,-0.01,-0.07,0.95,1000
17:42:15.736,-3.32,1.15,-9.01,-4.39,1.83,5.18,-0.01,-0.07,0.94,1000
17:42:15.744,-3.46,1.1,-8.94,-3.78,-0.12,6.59,-0.02,-0.06,0.94,1000
17:42:15.756,-3.4,1.09,-8.87,-5.0,0.18,7.68,-0.01,-0.05,0.95,1000
17:42:15.764,-3.44,1.15,-8.78,-7.01,1.95,7.93,-0.02,-0.06,0.94,1000
17:42:15.775,-3.38,1.14,-8.69,-8.78,4.39,8.48,-0.01,-0.04,0.94,1000
17:42:15.787,-3.42,1.24,-8.6,-10.55,6.22,8.72,-0.03,-0.06,0.93,1000
17:42:15.797,-3.52,1.79,-8.5,-11.4,6.65,8.29,-0.07,-0.05,0.94,1000
17:42:15.810,-3.4,2.36,-8.41,-11.34,5.61,9.33,-0.06,-0.05,0.95,1000
17:42:15.821,-3.5,2.42,-8.29,-10.06,3.11,12.56,-0.03,-0.06,0.94,1000
17:42:15.843,-3.58,2.21,-8.12,-7.68,0.43,17.2,-0.02,-0.06,0.94,1000
17:42:15.846,-3.57,1.97,-7.91,-4.45,-1.83,20.49,-0.03,-0.05,0.93,1000
17:42:15.863,-3.42,1.93,-7.67,-2.62,-2.2,21.34,-0.03,-0.04,0.93,1000
17:42:15.864,-3.2,1.82,-7.46,-2.01,-1.4,20.49,-0.02,-0.04,0.91,1000
17:42:15.876,-2.78,1.69,-7.23,-1.04,-0.06,17.26,-0.03,-0.03,0.89,1000
17:42:15.916,-2.61,1.99,-7.07,-0.79,1.1,12.32,-0.05,-0.03,0.88,1000
17:42:15.916,-2.43,2.38,-6.97,-0.85,2.13,6.46,-0.07,-0.03,0.89,1000
17:42:15.917,-2.46,2.77,-6.94,-3.29,3.48,1.4,-0.05,-0.05,0.9,1000
17:42:15.920,-2.6,2.84,-6.94,-5.79,5.37,-1.16,-0.04,-0.06,0.88,1000
17:42:15.938,-3.05,2.87,-6.96,-7.93,7.07,-2.01,-0.04,-0.08,0.89,1000
17:42:15.946,-3.74,2.92,-6.99,-11.1,7.38,-2.32,-0.05,-0.1,0.89,1000
17:42:15.951,-4.36,3.3,-7.02,-14.45,6.71,-3.66,-0.08,-0.1,0.89,1000
17:42:15.975,-4.97,3.78,-7.07,-18.9,5.79,-4.63,-0.07,-0.1,0.91,1000
17:42:15.975,-5.49,3.88,-7.12,-23.35,4.02,-4.63,-0.06,-0.11,0.9,1000
17:42:15.984,-6.22,3.9,-7.16,-26.52,1.59,-4.27,-0.06,-0.13,0.89,1000
17:42:15.995,-6.92,4.02,-7.22,-29.94,-1.1,-5.3,-0.07,-0.13,0.93,1000
17:42:16.011,-7.54,3.95,-7.28,-33.17,-3.23,-5.61,-0.06,-0.15,0.93,1000
17:42:16.017,-8.47,3.74,-7.34,-34.7,-5.18,-5.37,-0.04,-0.17,0.95,1000
17:42:16.029,-9.1,3.32,-7.39,-34.02,-8.17,-3.9,-0.03,-0.16,0.94,1000
17:42:16.041,-9.74,2.74,-7.42,-31.04,-10.06,-2.13,-0.01,-0.19,0.93,1000
17:42:16.051,-10.32,2.31,-7.43,-26.77,-12.2,-0.85,-0.03,-0.17,0.93,1000
17:42:16.061,-10.33,1.99,-7.44,-22.07,-13.72,-0.43,-0.02,-0.14,0.95,1000
17:42:16.072,-10.12,1.52,-7.44,-18.35,-14.45,0.18,-0.01,-0.14,0.95,1000
17:42:16.083,-9.68,1.14,-7.43,-14.02,-14.63,0.85,-0.01,-0.11,0.94,1000
17:42:16.124,-9.08,0.83,-7.42,-9.33,-14.27,1.16,-0.0,-0.1,0.95,1000
17:42:16.124,-8.45,0.64,-7.41,-2.8,-13.35,1.16,-0.02,-0.1,0.91,1000
17:42:16.156,-8.13,0.85,-7.4,7.62,-12.44,0.3,-0.03,-0.11,0.89,1000
17:42:16.156,-7.68,0.84,-7.39,19.02,-11.1,1.34,-0.01,-0.1,0.86,1000
17:42:16.156,-7.24,0.66,-7.35,30.37,-9.15,5.0,-0.0,-0.1,0.83,1000
17:42:16.156,-6.52,0.45,-7.27,42.5,-6.52,8.72,-0.01,-0.07,0.8,1000
17:42:16.166,-5.66,0.6,-7.16,51.04,-3.29,10.67,-0.02,-0.07,0.8,1000
17:42:16.177,-5.08,1.65,-7.05,57.07,-2.56,9.27,-0.12,-0.07,0.78,1000
17:42:16.182,-4.41,3.02,-6.96,56.83,-3.96,6.65,-0.08,-0.03,0.83,1000
17:42:16.197,-3.32,2.84,-6.88,50.43,-7.74,8.9,-0.02,-0.06,0.83,1000
17:42:16.204,-3.48,2.17,-6.76,42.13,-11.65,12.13,0.02,-0.14,0.77,1000
17:42:16.215,-4.11,0.7,-6.6,33.9,-14.94,15.73,0.07,-0.11,0.83,1000
17:42:16.226,-5.08,-0.08,-6.43,21.16,-17.2,14.63,0.02,-0.14,0.88,1000
17:42:16.252,-5.67,-0.31,-6.3,7.26,-16.59,9.33,-0.01,-0.12,0.83,1000
17:42:16.258,-6.17,-0.11,-6.25,-4.21,-14.33,-0.61,-0.02,-0.12,0.89,1000
17:42:16.260,-6.55,0.04,-6.32,-9.88,-11.1,-10.18,-0.02,-0.12,0.84,1000
17:42:16.278,-7.02,0.09,-6.5,-8.48,-6.34,-19.7,-0.01,-0.12,0.85,1000
17:42:16.292,-7.11,0.4,-6.76,-2.38,-4.09,-26.89,-0.03,-0.09,0.85,1000
17:42:16.293,-6.41,0.71,-7.08,11.16,-4.88,-31.04,-0.03,-0.04,0.85,1000
17:42:16.326,-5.94,1.04,-7.43,27.44,-8.41,-31.46,-0.03,-0.08,0.89,1000
17:42:16.326,-5.08,0.67,-7.76,42.74,-13.66,-26.77,0.04,-0.06,0.9,1000
17:42:16.326,-4.96,-0.39,-8.0,55.18,-16.59,-18.96,0.07,-0.16,0.9,1000
17:42:16.336,-4.99,-1.75,-8.16,63.54,-16.4,-11.04,0.1,-0.1,0.93,1000
17:42:16.354,-4.9,-2.9,-8.25,65.43,-11.4,-6.4,0.09,-0.14,0.9,1000
17:42:16.358,-4.87,-3.25,-8.31,64.27,-0.91,-6.1,0.04,-0.13,0.88,1000
17:42:16.370,-5.34,-2.51,-8.39,57.26,9.76,-9.15,-0.03,-0.13,0.93,1000
17:42:16.423,-5.13,-1.45,-8.52,44.09,19.76,-13.05,-0.03,-0.1,0.93,1000
17:42:16.423,-4.7,-0.74,-8.66,27.07,25.67,-12.5,0.01,-0.05,1.01,1000
17:42:16.423,-4.3,-0.57,-8.76,11.95,26.89,-7.5,0.02,-0.07,0.95,1000
17:42:16.423,-4.89,-0.78,-8.8,-4.21,22.07,0.61,0.06,-0.13,1.0,1000
17:42:16.424,-5.67,-1.12,-8.76,-14.88,15.61,5.91,0.06,-0.15,0.96,1000
17:42:16.435,-6.49,-1.32,-8.67,-22.13,8.23,7.99,0.03,-0.12,0.99,1000
17:42:16.446,-7.21,-1.31,-8.6,-26.59,3.23,4.27,-0.0,-0.15,0.96,1000
17:42:16.462,-7.96,-0.65,-8.61,-27.87,-0.49,-5.12,-0.03,-0.14,1.0,1000
17:42:16.471,-8.72,0.09,-8.73,-28.9,-3.84,-15.79,-0.07,-0.18,1.02,1000
17:42:16.484,-9.17,0.8,-8.97,-29.63,-6.95,-26.83,-0.08,-0.18,1.07,1000
17:42:16.490,-9.65,1.42,-9.32,-29.76,-11.65,-33.6,-0.07,-0.17,1.12,1000
17:42:16.543,-9.35,1.31,-9.69,-27.07,-16.89,-33.11,0.0,-0.13,1.14,1000
17:42:16.544,-9.62,0.51,-10.01,-21.28,-23.17,-25.85,0.05,-0.21,1.14,1000
17:42:16.544,-9.99,-0.72,-10.24,-13.6,-28.35,-16.71,0.09,-0.19,1.13,1000
17:42:16.544,-9.76,-1.79,-10.38,-10.0,-29.88,-10.0,0.08,-0.14,1.17,1000
17:42:16.553,-9.22,-2.49,-10.47,-9.27,-26.28,-8.35,0.07,-0.11,1.15,1000
17:42:16.560,-9.25,-2.68,-10.57,-8.29,-19.76,-10.85,0.01,-0.19,1.1,1000
17:42:16.567,-9.13,-1.78,-10.73,-9.94,-13.11,-17.32,-0.06,-0.16,1.21,1000
17:42:16.578,-8.48,-1.08,-10.94,-12.87,-8.54,-18.48,-0.02,-0.12,1.25,1000
17:42:16.590,-8.1,-1.21,-11.1,-10.18,-8.9,-10.85,0.05,-0.18,1.17,1000
17:42:16.608,-8.67,-2.38,-11.14,-1.28,-13.29,4.09,0.17,-0.22,1.19,1000
17:42:16.614,-9.2,-4.04,-11.0,5.79,-18.29,19.51,0.2,-0.24,1.17,1000
17:42:16.625,-9.33,-5.37,-10.73,8.17,-20.49,27.8,0.17,-0.17,1.18,1000
17:42:16.668,-8.9,-5.95,-10.42,4.57,-17.44,27.13,0.12,-0.15,1.16,1000
17:42:16.668,-8.6,-5.35,-10.17,-4.33,-11.22,16.83,0.01,-0.13,1.18,1000
17:42:16.668,-7.48,-4.28,-10.07,-16.34,-3.66,3.54,0.02,-0.02,1.22,1000
17:42:16.668,-6.55,-3.71,-10.1,-27.5,1.1,-6.95,0.04,-0.08,1.2,1000
17:42:16.677,-6.34,-3.36,-10.22,-31.89,0.18,-12.56,0.06,-0.06,1.2,1000
17:42:16.692,-5.23,-3.8,-10.35,-32.56,-6.04,-9.21,0.14,0.02,1.24,1000
17:42:16.700,-4.84,-4.54,-10.39,-29.39,-13.54,-0.18,0.16,-0.07,1.2,1000
17:42:16.735,-4.66,-5.4,-10.35,-22.44,-18.11,6.95,0.16,-0.04,1.21,1000
17:42:16.735,-3.83,-5.81,-10.25,-17.5,-17.01,9.09,0.11,-0.03,1.18,1000
17:42:16.735,-3.73,-5.23,-10.18,-16.83,-8.48,3.35,0.02,-0.07,1.23,1000
17:42:16.743,-3.34,-4.47,-10.19,-20.37,3.54,-4.51,0.04,-0.01,1.25,1000
17:42:16.764,-3.06,-3.93,-10.27,-26.22,16.46,-9.15,0.05,-0.02,1.26,1000
17:42:16.768,-1.99,-2.72,-10.39,-32.87,21.89,-11.59,-0.08,0.12,1.27,1000
17:42:16.778,1.22,-0.43,-10.53,-46.83,17.8,-14.15,-0.24,0.59,1.51,1000
17:42:16.787,5.8,2.51,-10.69,-67.13,0.67,-13.84,-0.39,0.56,1.51,1000
17:42:16.799,5.83,4.66,-10.84,-73.17,-22.99,-13.11,-0.39,-0.05,1.36,1000
17:42:16.811,1.84,5.82,-10.92,-68.9,-45.67,-4.15,-0.25,-0.4,1.4,1000
17:42:16.823,-4.26,4.76,-10.83,-67.32,-70.06,18.23,0.02,-0.77,1.47,1000
17:42:16.835,-11.07,1.53,-10.45,-67.5,-87.8,50.24,0.29,-0.92,1.48,1000
17:42:16.846,-16.05,-2.08,-9.68,-64.51,-93.41,82.62,0.36,-0.89,1.44,1000
17:42:16.872,-19.69,-4.54,-8.61,-50.49,-86.1,104.57,0.21,-0.77,1.38,1000
17:42:16.872,-21.58,-5.17,-7.44,-26.95,-70.0,106.34,0.07,-0.59,1.38,1000
17:42:16.875,-20.94,-4.9,-6.41,-6.4,-56.46,98.78,0.05,-0.33,1.39,1000
17:42:16.887,-18.39,-4.57,-5.32,15.18,-40.91,83.23,0.04,-0.2,1.39,1000
17:42:16.899,-16.1,-4.54,-4.51,30.24,-28.23,67.26,0.09,-0.11,1.37,1000
17:42:16.913,-13.79,-4.82,-3.85,41.65,-15.73,54.39,0.13,-0.15,1.21,1000
17:42:16.943,-12.51,-5.72,-3.33,52.13,-6.83,42.68,0.2,-0.26,1.16,1000
17:42:16.944,-12.9,-6.37,-2.92,59.09,-1.77,32.01,0.14,-0.35,1.06,1000
17:42:16.944,-13.51,-6.25,-2.64,61.46,0.3,20.06,0.14,-0.33,1.1,1000
17:42:16.962,-13.7,-6.85,-2.47,59.45,0.85,13.05,0.19,-0.32,1.03,1000
17:42:16.969,-14.08,-7.72,-2.36,59.51,1.4,8.9,0.2,-0.29,0.92,1000
17:42:16.974,-13.85,-8.65,-2.27,61.04,1.46,7.2,0.22,-0.24,0.89,1000
17:42:16.987,-13.21,-9.66,-2.2,61.52,3.29,6.34,0.2,-0.19,0.84,1000
17:42:16.996,-12.09,-10.47,-2.14,60.3,7.44,5.24,0.19,-0.13,0.8,1000
17:42:17.007,-10.14,-11.14,-2.08,57.44,13.9,4.7,0.19,-0.07,0.78,1000
17:42:17.018,-8.18,-11.42,-2.04,52.74,21.95,2.68,0.17,-0.03,0.74,1000
17:42:17.030,-6.18,-11.01,-2.03,46.95,28.96,-0.49,0.11,-0.02,0.74,1000
17:42:17.040,-4.49,-9.72,-2.06,35.49,35.73,-4.94,0.08,0.02,0.78,1000
17:42:17.053,-2.49,-8.58,-2.13,19.09,40.79,-6.59,0.09,0.04,0.81,1000
17:42:17.064,-1.6,-7.96,-2.19,3.84,43.54,-5.3,0.1,0.0,0.82,1000
17:42:17.074,-1.4,-7.45,-2.23,-13.23,42.56,-0.85,0.11,-0.01,0.84,1000
17:42:17.085,-1.54,-7.02,-2.2,-26.52,38.96,4.57,0.1,-0.03,0.85,1000
17:42:17.095,-2.28,-6.24,-2.12,-37.2,32.93,9.15,0.05,-0.08,0.86,1000
17:42:17.106,-3.63,-4.79,-2.01,-45.43,25.49,11.4,0.0,-0.12,0.92,1000
17:42:17.147,-4.8,-3.42,-1.88,-52.13,17.07,12.93,0.0,-0.12,0.98,1000
17:42:17.147,-5.96,-2.99,-1.71,-55.91,9.27,17.99,0.05,-0.17,0.99,1000
17:42:17.147,-7.53,-2.9,-1.47,-56.46,3.41,23.84,0.07,-0.2,1.07,1000
17:42:17.162,-8.46,-3.21,-1.19,-54.39,0.12,31.71,0.11,-0.19,1.08,1000
17:42:17.179,-9.68,-3.76,-0.75,-47.74,1.22,39.39,0.12,-0.25,1.09,1000
17:42:17.180,-10.57,-4.26,-0.3,-40.0,5.12,42.62,0.12,-0.21,1.1,1000
17:42:17.183,-10.86,-4.39,0.17,-31.83,11.95,42.01,0.08,-0.2,1.1,1000
17:42:17.197,-10.96,-4.19,0.61,-26.46,18.66,36.83,0.07,-0.19,1.1,1000
17:42:17.205,-10.99,-3.73,0.96,-21.71,25.43,27.93,0.05,-0.22,1.1,1000
17:42:17.218,-11.33,-2.47,1.2,-17.74,27.93,16.71,-0.04,-0.24,1.15,1000
17:42:17.227,-11.27,-1.47,1.31,-15.3,26.59,5.79,0.0,-0.16,1.16,1000
17:42:17.238,-10.67,-1.3,1.34,-12.87,21.4,2.74,0.05,-0.18,1.19,1000
17:42:17.250,-10.45,-1.45,1.38,-11.04,14.15,3.17,0.07,-0.19,1.18,1000
17:42:17.264,-10.05,-1.64,1.42,-8.78,6.59,4.88,0.06,-0.17,1.2,1000
17:42:17.280,-9.82,-1.77,1.47,-7.38,1.95,4.27,0.05,-0.19,1.16,1000
17:42:17.282,-9.75,-1.95,1.51,-5.73,1.28,1.46,0.06,-0.2,1.15,1000
17:42:17.294,-10.02,-2.11,1.5,-4.76,4.27,-2.93,0.06,-0.23,1.12,1000
17:42:17.306,-10.75,-2.18,1.44,-2.56,9.39,-7.74,0.06,-0.29,1.09,1000
17:42:17.315,-12.01,-1.89,1.31,3.29,14.21,-14.21,0.0,-0.34,1.06,1000
17:42:17.349,-13.1,-1.26,1.12,12.01,16.77,-20.3,-0.01,-0.32,1.05,1000
17:42:17.350,-13.94,-0.81,0.87,24.57,14.94,-23.11,0.0,-0.32,1.0,1000
17:42:17.350,-14.57,-0.41,0.61,40.85,9.45,-23.29,-0.02,-0.31,0.94,1000
17:42:17.361,-14.42,0.06,0.36,55.0,2.26,-22.74,-0.03,-0.24,0.94,1000
17:42:17.378,-13.82,0.49,0.11,65.24,-5.73,-22.13,-0.04,-0.22,0.92,1000
17:42:17.382,-13.02,0.71,-0.1,69.7,-12.13,-21.22,-0.02,-0.17,0.89,1000
17:42:17.394,-11.74,0.67,-0.35,69.82,-16.89,-20.3,-0.01,-0.15,0.89,1000
17:42:17.403,-10.47,0.57,-0.57,65.18,-20.12,-19.51,-0.02,-0.15,0.88,1000
17:42:17.416,-9.94,1.19,-0.79,54.94,-24.76,-20.79,-0.08,-0.16,0.97,1000
17:42:17.433,-8.81,1.39,-1.0,42.62,-30.06,-20.18,-0.04,-0.06,1.0,1000
17:42:17.436,-7.58,0.8,-1.19,27.07,-35.85,-14.45,0.04,-0.1,1.04,1000
17:42:17.447,-7.3,-0.68,-1.3,16.16,-39.02,-4.51,0.1,-0.13,0.98,1000
17:42:17.460,-6.73,-2.58,-1.28,10.12,-37.38,5.49,0.15,-0.07,1.02,1000
17:42:17.480,-5.92,-4.53,-1.16,4.15,-30.55,15.0,0.19,-0.04,0.96,1000
17:42:17.481,-4.8,-6.11,-0.96,-1.52,-19.21,19.88,0.18,0.0,0.98,1000
17:42:17.491,-3.83,-6.93,-0.74,-7.5,-6.28,19.15,0.13,-0.02,0.96,1000
17:42:17.502,-3.77,-6.78,-0.56,-12.62,7.68,12.87,0.08,-0.06,0.97,1000
17:42:17.513,-3.7,-6.1,-0.47,-19.02,17.38,4.94,0.07,-0.03,1.01,1000
17:42:17.525,-3.61,-5.59,-0.46,-23.9,22.07,-1.34,0.1,-0.06,1.0,1000
17:42:17.555,-3.93,-5.52,-0.49,-24.88,22.8,-4.27,0.11,-0.08,0.99,1000
17:42:17.555,-4.44,-5.48,-0.55,-23.35,21.22,-5.79,0.1,-0.1,1.0,1000
17:42:17.557,-5.02,-5.19,-0.63,-21.04,18.84,-7.93,0.08,-0.12,1.0,1000
17:42:17.588,-5.42,-4.65,-0.74,-18.66,17.07,-11.71,0.05,-0.1,0.99,1000
17:42:17.588,-5.6,-3.86,-0.9,-15.73,15.06,-17.07,0.02,-0.11,1.0,1000
17:42:17.590,-5.71,-2.93,-1.12,-12.87,13.11,-23.35,-0.0,-0.09,1.01,1000
17:42:17.601,-5.57,-2.27,-1.41,-10.18,12.01,-27.8,0.02,-0.09,1.01,1000
17:42:17.612,-5.62,-1.88,-1.73,-7.13,10.85,-30.73,0.02,-0.11,1.02,1000
17:42:17.623,-5.67,-1.61,-2.08,-5.3,10.24,-32.56,0.02,-0.12,0.99,1000
17:42:17.636,-5.73,-1.53,-2.45,-2.26,11.59,-33.6,0.03,-0.11,1.01,1000
17:42:17.653,-6.28,-0.96,-2.83,0.79,11.59,-35.98,-0.04,-0.15,1.02,1000
17:42:17.656,-6.31,-0.08,-3.25,3.05,10.73,-39.39,-0.05,-0.09,1.05,1000
17:42:17.669,-6.06,0.5,-3.69,4.7,7.87,-39.51,-0.03,-0.12,1.07,1000
17:42:17.684,-6.29,0.99,-4.11,9.51,3.41,-38.29,-0.06,-0.15,1.06,1000
17:42:17.689,-6.33,1.43,-4.52,14.63,-2.93,-35.18,-0.04,-0.11,1.09,1000
17:42:17.710,-6.23,1.36,-4.88,18.96,-7.44,-30.18,-0.02,-0.14,1.08,1000
17:42:17.713,-6.41,1.09,-5.18,23.48,-10.3,-24.51,0.0,-0.14,1.03,1000
17:42:17.722,-6.29,0.56,-5.42,26.59,-10.91,-19.82,0.03,-0.13,1.03,1000
17:42:17.759,-6.32,0.02,-5.62,27.26,-8.9,-17.68,0.03,-0.14,1.0,1000
17:42:17.759,-6.64,-0.05,-5.82,26.46,-5.85,-18.9,-0.03,-0.16,1.0,1000
17:42:17.759,-6.9,0.46,-6.05,24.33,-3.54,-22.13,-0.03,-0.14,1.02,1000
17:42:17.776,-6.46,0.2,-6.26,20.91,-3.35,-20.73,0.04,-0.08,1.03,1000
17:42:17.778,-5.94,-0.54,-6.48,18.84,-2.5,-15.91,0.06,-0.1,1.01,1000
17:42:17.788,-5.76,-1.37,-6.63,16.34,-0.85,-12.26,0.08,-0.1,1.02,1000
17:42:17.806,-5.54,-2.19,-6.75,12.74,3.78,-9.82,0.1,-0.09,0.98,1000
17:42:17.814,-5.3,-2.94,-6.85,7.26,9.63,-9.02,0.1,-0.08,0.99,1000
17:42:17.821,-4.94,-3.35,-6.96,0.43,16.34,-11.04,0.08,-0.07,0.98,1000
17:42:17.832,-4.67,-3.43,-7.1,-6.16,22.26,-14.15,0.08,-0.06,0.98,1000
17:42:17.848,-4.86,-3.21,-7.28,-10.73,26.28,-18.48,0.04,-0.11,0.96,1000
17:42:17.856,-5.31,-2.38,-7.52,-14.51,26.04,-23.72,-0.01,-0.1,1.01,1000
17:42:17.869,-5.34,-1.51,-7.8,-16.83,21.77,-26.16,-0.01,-0.09,1.02,1000
17:42:17.883,-5.63,-1.1,-8.07,-16.46,14.45,-24.02,0.01,-0.11,1.03,1000
17:42:17.899,-5.86,-0.9,-8.31,-12.56,6.52,-19.82,0.01,-0.1,1.02,1000
17:42:17.899,-5.86,-0.85,-8.5,-8.29,-0.18,-15.24,0.02,-0.1,1.03,1000
17:42:17.909,-6.03,-0.99,-8.64,-5.3,-2.62,-11.4,0.03,-0.12,1.02,1000
17:42:17.921,-6.33,-0.74,-8.76,-3.6,-2.8,-10.85,-0.03,-0.13,1.05,1000
17:42:17.931,-6.18,-0.16,-8.89,-3.23,-2.56,-11.71,-0.03,-0.08,1.07,1000
17:42:17.966,-5.96,-0.07,-9.01,-2.56,-2.93,-10.12,0.01,-0.11,1.07,1000
17:42:17.966,-6.08,-0.35,-9.1,0.61,-2.99,-6.22,0.03,-0.12,1.04,1000
17:42:17.966,-6.23,-0.76,-9.15,3.41,-1.95,-2.07,0.04,-0.13,1.06,1000
17:42:17.976,-6.52,-1.1,-9.15,4.21,0.3,0.24,0.05,-0.15,1.04,1000
17:42:17.987,-6.78,-1.53,-9.15,4.94,4.15,1.04,0.06,-0.14,1.03,1000
17:42:18.000,-6.95,-1.6,-9.14,5.49,6.89,-0.91,0.02,-0.14,1.03,1000
17:42:18.008,-6.78,-1.38,-9.18,5.91,7.74,-4.94,0.02,-0.1,1.02,1000
17:42:18.024,-6.44,-1.29,-9.26,5.79,7.26,-8.41,0.02,-0.1,1.02,1000
17:42:18.030,-6.39,-1.27,-9.36,5.61,6.16,-11.4,0.03,-0.11,1.0,1000
17:42:18.041,-6.33,-1.28,-9.52,4.63,4.51,-14.7,0.03,-0.11,1.01,1000
17:42:18.052,-6.37,-1.28,-9.69,2.93,3.41,-16.95,0.02,-0.12,1.0,1000
17:42:18.064,-6.43,-1.17,-9.89,1.46,2.13,-18.78,0.01,-0.12,1.0,1000
17:42:18.078,-6.34,-0.98,-10.11,-0.43,0.73,-19.82,0.01,-0.1,1.01,1000
17:42:18.099,-6.1,-0.99,-10.32,-2.5,-0.79,-18.54,0.02,-0.09,1.0,1000
17:42:18.099,-6.06,-1.09,-10.51,-3.96,-1.65,-15.91,0.02,-0.1,0.99,1000
17:42:18.109,-6.07,-1.01,-10.67,-5.37,-2.2,-13.78,0.0,-0.12,1.0,1000
17:42:18.118,-6.65,-0.45,-10.81,-4.94,-3.54,-11.89,-0.06,-0.17,0.98,1000
17:42:18.166,-7.07,0.66,-10.93,-4.33,-5.91,-10.24,-0.08,-0.1,1.04,1000
17:42:18.166,-6.39,1.1,-11.01,-3.11,-12.5,-3.78,-0.05,-0.05,1.05,1000
17:42:18.166,-5.92,1.38,-10.99,0.67,-20.85,5.0,-0.06,-0.08,1.04,1000
17:42:18.166,-5.29,1.46,-10.89,5.67,-28.11,13.41,-0.04,-0.04,1.04,1000
17:42:18.176,-4.6,1.07,-10.69,7.74,-31.71,20.12,0.0,-0.04,1.05,1000
17:42:18.192,-4.23,0.11,-10.44,6.52,-30.06,23.96,0.05,-0.07,1.02,1000
17:42:18.199,-4.12,-0.88,-10.17,2.8,-23.48,23.96,0.07,-0.08,1.02,1000
17:42:18.207,-4.48,-1.62,-9.93,-0.79,-15.43,20.79,0.05,-0.13,0.98,1000
17:42:18.217,-5.19,-1.61,-9.74,-6.34,-8.11,13.78,0.02,-0.12,1.04,1000
17:42:18.228,-5.36,-1.9,-9.62,-11.22,-4.45,9.51,0.07,-0.1,1.03,1000
17:42:18.253,-5.64,-2.42,-9.52,-13.29,-3.11,8.6,0.07,-0.11,1.02,1000
17:42:18.253,-5.91,-2.76,-9.43,-12.93,-4.88,8.84,0.08,-0.11,1.02,1000
17:42:18.263,-6.16,-3.19,-9.33,-11.04,-7.07,9.45,0.08,-0.12,1.03,1000
17:42:18.272,-6.42,-3.6,-9.22,-8.54,-8.66,9.39,0.09,-0.12,1.01,1000
17:42:18.283,-6.29,-4.01,-9.13,-7.07,-9.09,7.74,0.09,-0.09,1.04,1000
17:42:18.305,-6.06,-4.27,-9.06,-6.34,-7.62,4.82,0.08,-0.09,1.02,1000
17:42:18.305,-5.94,-4.43,-9.03,-5.85,-4.57,0.85,0.08,-0.09,1.03,1000
17:42:18.321,-5.72,-4.39,-9.04,-6.04,-1.77,-2.74,0.07,-0.08,1.03,1000
17:42:18.327,-5.46,-4.17,-9.09,-6.46,0.61,-5.61,0.06,-0.08,1.06,1000
17:42:18.338,-5.52,-3.81,-9.16,-5.12,0.85,-6.65,0.04,-0.11,1.04,1000
17:42:18.351,-5.4,-3.59,-9.23,-4.39,0.18,-5.49,0.06,-0.08,1.11,1000
17:42:18.367,-5.14,-3.69,-9.26,-3.48,-0.61,-1.83,0.07,-0.1,1.07,1000
17:42:18.371,-5.38,-3.78,-9.27,-1.46,0.18,0.85,0.08,-0.12,1.08,1000
17:42:18.382,-5.64,-3.88,-9.25,0.49,3.72,1.4,0.08,-0.12,1.06,1000
17:42:18.408,-5.8,-3.83,-9.25,1.34,9.45,-0.98,0.07,-0.12,1.06,1000
17:42:18.408,-6.0,-3.65,-9.28,1.71,16.89,-4.94,0.07,-0.11,1.03,1000
17:42:18.416,-5.92,-3.59,-9.36,1.95,24.15,-8.54,0.08,-0.11,1.03,1000
17:42:18.426,-6.09,-3.45,-9.48,1.77,30.98,-12.2,0.07,-0.12,1.0,1000
17:42:18.437,-6.52,-2.94,-9.64,2.68,36.59,-17.13,0.02,-0.15,1.0,1000
17:42:18.449,-6.74,-1.94,-9.86,3.05,38.17,-22.2,-0.02,-0.12,1.01,1000
17:42:18.459,-6.66,-0.63,-10.14,3.23,35.12,-26.46,-0.05,-0.11,1.02,1000
17:42:18.472,-6.67,0.65,-10.44,5.06,27.07,-27.99,-0.07,-0.13,1.02,1000
17:42:18.488,-6.68,1.48,-10.74,8.17,16.59,-25.98,-0.06,-0.12,1.02,1000
17:42:18.509,-6.76,1.91,-11.0,12.01,6.4,-21.34,-0.06,-0.15,1.02,1000
17:42:18.509,-7.05,2.08,-11.2,14.63,-0.3,-16.95,-0.03,-0.15,1.0,1000
17:42:18.514,-7.18,1.93,-11.36,16.46,-2.38,-11.95,-0.02,-0.14,0.99,1000
17:42:18.530,-7.21,1.56,-11.47,16.1,-0.12,-8.29,0.0,-0.13,0.99,1000
17:42:18.536,-7.17,1.13,-11.54,14.7,4.45,-5.67,0.01,-0.14,0.97,1000
17:42:18.547,-7.17,0.96,-11.6,12.32,9.51,-4.7,-0.01,-0.12,0.99,1000
17:42:18.558,-6.67,0.92,-11.65,9.57,11.83,-3.84,0.0,-0.08,0.99,1000
17:42:18.576,-6.25,0.82,-11.68,7.07,10.85,-2.5,0.0,-0.09,1.0,1000
17:42:18.586,-5.82,0.5,-11.69,5.79,7.32,-0.37,0.02,-0.08,0.99,1000
17:42:18.591,-5.52,0.15,-11.68,3.78,2.99,2.13,0.03,-0.08,1.0,1000
17:42:18.604,-5.31,-0.39,-11.65,2.01,-0.61,2.8,0.03,-0.08,1.0,1000
17:42:18.616,-5.01,-0.67,-11.62,-0.79,-2.74,1.89,0.02,-0.06,1.02,1000
17:42:18.631,-4.55,-0.92,-11.62,-4.15,-4.45,-0.55,0.04,-0.05,1.01,1000
17:42:18.637,-4.36,-1.27,-11.63,-6.52,-4.94,-1.89,0.04,-0.06,1.02,1000
17:42:18.647,-4.31,-1.62,-11.66,-8.54,-5.3,-3.35,0.05,-0.07,1.01,1000
17:42:18.659,-4.34,-2.04,-11.7,-10.49,-4.88,-3.96,0.06,-0.08,1.03,1000
17:42:18.668,-4.63,-2.57,-11.74,-12.07,-4.02,-3.96,0.08,-0.1,1.03,1000
17:42:18.682,-5.02,-2.89,-11.79,-11.34,-2.8,-4.15,0.04,-0.11,1.02,1000
17:42:18.693,-5.44,-2.17,-11.85,-10.0,-3.17,-7.99,-0.03,-0.13,1.06,1000
17:42:18.709,-5.01,-1.75,-11.95,-9.57,-4.7,-9.33,0.02,-0.03,1.09,1000
17:42:18.714,-4.69,-1.81,-12.03,-8.11,-5.43,-7.01,0.03,-0.08,1.07,1000
17:42:18.724,-4.8,-1.85,-12.09,-4.7,-5.61,-3.54,0.04,-0.09,1.06,1000
17:42:18.734,-4.76,-1.94,-12.11,-2.2,-3.35,-0.55,0.04,-0.09,1.06,1000
17:42:18.745,-5.04,-1.86,-12.11,-1.83,1.71,0.49,0.03,-0.12,1.06,1000
17:42:18.762,-5.36,-1.74,-12.11,-2.07,8.54,0.0,0.03,-0.11,1.03,1000
17:42:18.785,-5.51,-1.55,-12.12,-2.74,14.7,-1.4,0.02,-0.12,1.03,1000
17:42:18.785,-5.82,-1.02,-12.15,-3.96,19.33,-4.63,-0.01,-0.12,1.03,1000
17:42:18.789,-5.99,-0.44,-12.22,-4.45,21.28,-7.32,-0.02,-0.11,1.03,1000
17:42:18.817,-6.39,0.24,-12.31,-4.33,19.88,-9.21,-0.04,-0.15,1.02,1000
17:42:18.817,-6.72,1.09,-12.42,-3.11,15.06,-10.85,-0.06,-0.12,1.04,1000
17:42:18.840,-6.55,1.64,-12.54,-1.22,8.35,-10.3,-0.05,-0.11,1.03,1000
17:42:18.840,-6.53,1.96,-12.64,1.46,1.28,-8.48,-0.05,-0.12,1.03,1000
17:42:18.846,-6.45,2.13,-12.72,4.39,-3.6,-6.71,-0.05,-0.11,1.03,1000
17:42:18.857,-6.4,2.24,-12.79,5.98,-5.12,-5.85,-0.04,-0.13,1.04,1000
17:42:18.876,-6.57,2.15,-12.85,6.83,-3.66,-4.63,-0.03,-0.13,1.02,1000
17:42:18.878,-6.76,2.1,-12.89,8.35,-2.07,-3.78,-0.04,-0.13,1.03,1000
17:42:18.888,-6.69,2.17,-12.93,9.09,-1.28,-2.87,-0.04,-0.12,1.02,1000
17:42:18.918,-6.71,2.09,-12.95,9.45,-1.71,-0.73,-0.03,-0.13,1.02,1000
17:42:18.919,-6.76,1.93,-12.94,9.63,-3.29,2.01,-0.02,-0.12,1.01,1000
17:42:18.921,-6.62,1.75,-12.9,9.33,-4.88,4.27,-0.02,-0.11,1.01,1000
17:42:18.932,-6.51,1.42,-12.84,8.35,-5.73,5.98,-0.0,-0.11,1.0,1000
17:42:18.943,-6.37,0.97,-12.77,6.95,-6.28,6.89,0.01,-0.1,0.99,1000
17:42:18.954,-6.14,0.59,-12.7,4.88,-5.98,6.65,0.01,-0.09,0.99,1000
17:42:18.966,-5.89,0.26,-12.63,2.62,-5.24,5.79,0.02,-0.09,0.98,1000
17:42:18.979,-5.63,-0.04,-12.57,-0.18,-4.76,4.09,0.02,-0.08,0.98,1000
17:42:18.988,-5.28,-0.34,-12.53,-2.8,-4.45,2.99,0.02,-0.06,0.98,1000
17:42:19.001,-5.03,-0.61,-12.51,-5.49,-4.76,1.95,0.02,-0.07,0.99,1000
17:42:19.027,-4.89,-0.82,-12.49,-7.99,-4.51,0.79,0.02,-0.07,0.99,1000
17:42:19.027,-4.64,-0.96,-12.49,-9.82,-4.27,0.18,0.02,-0.05,1.0,1000
17:42:19.031,-4.55,-1.01,-12.49,-11.46,-4.39,-0.98,0.02,-0.07,1.01,1000
17:42:19.048,-4.45,-1.16,-12.5,-11.95,-4.02,-0.91,0.03,-0.07,1.01,1000
17:42:19.053,-4.5,-1.26,-12.51,-12.32,-3.29,-0.67,0.02,-0.08,1.02,1000
17:42:19.066,-4.62,-1.34,-12.52,-12.5,-2.32,-0.67,0.03,-0.08,1.02,1000
17:42:19.075,-4.69,-1.32,-12.52,-11.89,-1.28,-0.43,0.01,-0.08,1.03,1000
17:42:19.087,-4.75,-1.13,-12.53,-11.22,-0.61,-0.98,0.01,-0.08,1.03,1000
17:42:19.102,-4.75,-1.0,-12.54,-10.18,-0.37,-1.04,0.01,-0.08,1.03,1000
17:42:19.119,-4.96,-0.82,-12.56,-9.02,-0.12,-1.59,-0.0,-0.1,1.03,1000
17:42:19.120,-5.13,-0.55,-12.58,-8.17,-0.43,-2.07,-0.01,-0.1,1.04,1000
17:42:19.134,-5.34,-0.39,-12.6,-7.8,-1.28,-2.01,0.0,-0.11,1.04,1000
17:42:19.141,-5.65,-0.35,-12.62,-7.01,-1.83,-1.59,0.0,-0.13,1.05,1000
17:42:19.152,-6.06,-0.25,-12.64,-6.28,-2.44,-1.46,-0.01,-0.14,1.05,1000
17:42:19.164,-6.41,-0.12,-12.65,-5.06,-3.35,-1.65,-0.01,-0.14,1.06,1000
17:42:19.174,-6.67,-0.11,-12.67,-3.84,-4.15,-1.59,0.0,-0.14,1.05,1000
17:42:19.190,-6.88,-0.13,-12.69,-1.65,-4.76,-1.4,-0.0,-0.14,1.04,1000
17:42:19.196,-7.07,-0.05,-12.71,1.4,-5.43,-2.07,-0.01,-0.14,1.04,1000
17:42:19.233,-7.1,0.15,-12.74,3.96,-6.34,-3.17,-0.02,-0.14,1.04,1000
17:42:19.233,-7.14,0.37,-12.78,6.4,-8.05,-4.09,-0.02,-0.13,1.04,1000
17:42:19.237,-7.04,0.34,-12.82,8.54,-10.49,-3.48,0.0,-0.12,1.04,1000
17:42:19.240,-6.98,0.06,-12.85,9.51,-11.89,-1.89,0.02,-0.13,1.03,1000
17:42:19.256,-6.92,-0.33,-12.86,9.94,-11.28,-0.24,0.03,-0.12,1.02,1000
17:42:19.262,-6.79,-0.65,-12.86,8.96,-8.48,0.0,0.02,-0.12,1.02,1000
17:42:19.273,-6.55,-0.91,-12.86,7.01,-3.96,-0.49,0.03,-0.1,1.01,1000
17:42:19.284,-6.16,-1.12,-12.87,4.88,0.3,-1.89,0.03,-0.08,1.02,1000
17:42:19.295,-5.66,-1.29,-12.9,2.26,4.39,-2.8,0.03,-0.07,1.01,1000
17:42:19.307,-5.2,-1.34,-12.93,0.73,6.89,-3.9,0.03,-0.06,1.01,1000
17:42:19.324,-4.89,-1.22,-12.99,-0.85,8.41,-5.37,0.01,-0.07,1.01,1000
17:42:19.346,-4.77,-0.99,-13.05,-2.44,8.66,-6.89,0.01,-0.08,1.02,1000
17:42:19.346,-4.77,-0.81,-13.14,-2.13,7.87,-8.05,0.0,-0.08,1.02,1000
17:42:19.350,-4.86,-0.59,-13.23,-1.52,6.89,-8.9,0.0,-0.1,1.03,1000
17:42:19.361,-4.98,-0.49,-13.33,-0.79,5.61,-8.84,0.02,-0.1,1.03,1000
17:42:19.372,-5.26,-0.41,-13.43,1.04,5.37,-8.48,0.0,-0.12,1.03,1000
17:42:19.383,-5.49,-0.35,-13.52,2.01,5.73,-8.11,0.01,-0.12,1.04,1000
17:42:19.405,-5.71,-0.31,-13.6,2.68,7.5,-7.32,0.01,-0.12,1.03,1000
17:42:19.406,-5.96,-0.22,-13.68,3.29,10.06,-6.34,0.0,-0.12,1.03,1000
17:42:19.425,-6.08,-0.01,-13.74,2.8,11.95,-5.79,-0.0,-0.12,1.04,1000
17:42:19.427,-6.18,0.3,-13.8,1.77,12.8,-5.18,-0.02,-0.12,1.02,1000
17:42:19.443,-6.28,0.71,-13.86,0.67,12.44,-4.57,-0.03,-0.12,1.03,1000
17:42:19.449,-6.27,1.04,-13.9,-0.67,10.67,-3.41,-0.03,-0.11,1.03,1000
17:42:19.460,-6.31,1.36,-13.93,-1.34,7.99,-2.2,-0.04,-0.12,1.02,1000
