Timestamp,Roll,Pitch,Yaw,Throttle
21:55:25.313,-6.22,-0.87,-40.44,1000
21:55:25.313,-6.47,-0.53,-40.39,1000
21:55:25.394,-6.41,-0.69,-40.36,1000
21:55:25.402,-6.43,-0.68,-40.44,1000
21:55:25.483,-6.44,-0.62,-40.43,1000
21:55:25.561,-6.08,-1.04,-40.32,1000
21:55:25.561,-5.56,-1.53,-39.87,1000
21:55:25.640,-6.09,-1.08,-39.67,1000
21:55:25.656,-6.27,-1.08,-39.75,1000
21:55:25.740,-5.52,-1.58,-39.61,1000
21:55:25.756,-5.74,-1.06,-39.36,1000
21:55:25.844,-6.31,-0.64,-39.61,1000
21:55:25.858,-6.16,-1.13,-39.74,1000
21:55:25.949,-5.73,-1.2,-39.41,1000
21:55:25.960,-6.05,-0.79,-38.9,1000
21:55:26.045,-6.43,-0.88,-38.79,1000
21:55:26.062,-6.52,-1.12,-38.76,1000
21:55:26.146,-6.69,-0.92,-38.88,1000
21:55:26.164,-6.72,-0.8,-39.04,1000
21:55:26.244,-6.75,-0.83,-39.02,1000
21:55:26.323,-6.99,-0.7,-38.93,1000
21:55:26.325,-7.14,-0.63,-38.89,1000
21:55:26.405,-6.89,-0.81,-38.77,1000
21:55:26.419,-7.07,-0.88,-38.47,1000
21:55:26.506,-7.34,-1.27,-38.18,1000
21:55:26.521,-7.41,-1.5,-37.89,1000
21:55:26.604,-7.34,-1.27,-37.86,1000
21:55:26.623,-7.24,-1.2,-38.11,1000
21:55:26.706,-7.33,-1.2,-38.54,1000
21:55:26.725,-7.41,-1.05,-38.96,1000
21:55:26.817,-7.5,-0.98,-39.18,1000
21:55:26.828,-7.51,-0.93,-39.17,1000
21:55:26.909,-7.55,-0.9,-39.08,1000
21:55:26.929,-7.53,-0.96,-39.2,1000
21:55:27.009,-7.01,-1.21,-39.05,1000
21:55:27.088,-7.27,-0.89,-38.98,1000
21:55:27.089,-7.29,-0.99,-39.13,1000
21:55:27.167,-7.25,-1.15,-39.21,1000
21:55:27.185,-7.46,-0.93,-39.25,1000
21:55:27.268,-7.25,-0.92,-39.26,1000
21:55:27.287,-7.21,-0.92,-39.24,1000
21:55:27.368,-7.32,-0.74,-39.09,1000
21:55:27.447,-7.54,-0.74,-38.9,1000
21:55:27.447,-7.79,-0.79,-38.74,1000
21:55:27.526,-7.72,-0.78,-38.79,1000
21:55:27.541,-7.69,-0.59,-39.03,1000
21:55:27.623,-7.67,-0.44,-39.32,1000
21:55:27.701,-7.65,-0.56,-39.25,1000
21:55:27.702,-7.61,-0.56,-39.11,1000
21:55:27.781,-7.6,-0.46,-38.87,1000
21:55:27.860,-7.52,-0.4,-39.11,1000
21:55:27.860,-7.32,-0.59,-39.32,1000
21:55:27.939,-7.3,-0.75,-39.86,1000
21:55:27.950,-7.14,-0.75,-40.48,1000
21:55:28.029,-6.32,-0.77,-41.07,1000
21:55:28.108,-5.78,-0.77,-41.78,1000
21:55:28.108,-5.49,-0.8,-41.89,1000
21:55:28.187,-4.86,-0.44,-41.64,1000
21:55:28.204,-4.5,-0.36,-41.62,1000
21:55:28.290,-4.25,-0.74,-41.6,1000
21:55:28.369,-4.79,-0.72,-41.48,1000
21:55:28.369,-5.47,-0.55,-41.78,1000
21:55:28.448,-5.13,-0.77,-41.54,1000
21:55:28.459,-5.12,-0.23,-41.67,1000
21:55:28.542,-5.1,-0.12,-41.92,1000
21:55:28.561,-4.73,-0.02,-42.02,1000
21:55:28.641,-4.75,0.4,-42.11,1000
21:55:28.720,-4.51,0.15,-42.17,1000
21:55:28.720,-4.56,0.07,-42.24,1000
21:55:28.799,-3.54,-0.62,-42.59,1000
21:55:28.818,-2.61,-0.99,-42.16,1000
21:55:28.899,-2.74,-0.5,-42.82,1000
21:55:28.983,-2.19,-1.1,-42.54,1000
21:55:28.983,-2.85,-1.01,-42.75,1000
21:55:29.065,-3.95,-0.93,-43.03,1000
21:55:29.071,-4.36,-0.96,-43.35,1000
21:55:29.150,-4.05,-0.82,-43.7,1000
21:55:29.229,-3.74,-0.68,-43.59,1000
21:55:29.229,-4.36,-0.24,-43.86,1000
21:55:29.308,-4.61,-0.53,-43.69,1000
21:55:29.326,-4.59,-0.33,-43.92,1000
21:55:29.411,-3.83,-0.75,-43.01,1000
21:55:29.428,-5.02,-0.08,-42.5,1000
21:55:29.511,-5.03,-1.52,-41.85,1000
21:55:29.531,-5.43,-3.5,-40.31,1000
21:55:29.616,-7.73,-3.65,-39.25,1000
21:55:29.632,-8.19,-2.63,-38.99,1000
21:55:29.712,-8.18,-2.66,-39.3,1000
21:55:29.792,-7.39,-1.66,-39.3,1000
21:55:29.792,-6.85,-1.75,-39.1,1000
21:55:29.871,-7.64,-2.24,-39.93,1000
21:55:29.887,-8.57,-2.23,-41.06,1000
21:55:29.968,-7.8,-0.87,-41.04,1000
21:55:30.047,-6.77,1.43,-41.69,1000
21:55:30.047,-6.62,3.26,-43.91,1000
21:55:30.127,-6.4,4.33,-46.18,1000
21:55:30.142,-5.48,4.86,-48.24,1000
21:55:30.221,-5.45,4.81,-49.06,1000
21:55:30.301,-5.84,3.92,-48.54,1000
21:55:30.301,-5.55,2.77,-47.47,1000
21:55:30.380,-5.16,1.91,-47.03,1000
21:55:30.397,-5.18,1.58,-46.79,1000
21:55:30.479,-5.17,1.32,-46.99,1000
21:55:30.499,-5.09,1.2,-47.18,1000
21:55:30.582,-5.32,1.11,-47.41,1000
21:55:30.601,-4.84,0.9,-48.23,1000
21:55:30.682,-4.31,1.1,-49.63,1000
21:55:30.762,-4.26,1.77,-50.63,1000
21:55:30.762,-4.1,2.29,-51.08,1000
21:55:30.841,-3.77,2.57,-51.09,1000
21:55:30.856,-3.93,2.61,-50.64,1000
21:55:30.943,-4.74,2.42,-49.94,1000
21:55:30.958,-6.65,2.48,-48.91,1000
21:55:31.046,-8.8,2.46,-48.11,1000
21:55:31.060,-10.09,2.21,-47.4,1000
21:55:31.140,-10.51,2.06,-46.71,1000
21:55:31.219,-10.46,2.08,-46.39,1000
21:55:31.219,-10.11,2.1,-46.17,1000
21:55:31.299,-9.81,1.83,-46.03,1000
21:55:31.315,-9.84,1.62,-46.06,1000
21:55:31.401,-9.92,1.67,-45.9,1000
21:55:31.417,-9.9,1.68,-45.69,1000
21:55:31.505,-9.91,1.78,-45.85,1000
21:55:31.519,-9.73,2.31,-46.34,1000
21:55:31.600,-9.28,2.75,-46.77,1000
21:55:31.679,-9.07,3.05,-46.83,1000
21:55:31.679,-9.26,2.9,-46.67,1000
21:55:31.758,-8.94,2.12,-46.47,1000
21:55:31.775,-8.62,1.92,-46.25,1000
21:55:31.854,-8.15,2.17,-46.9,1000
21:55:31.934,-7.88,2.43,-47.79,1000
21:55:31.934,-9.71,1.83,-46.76,1000
21:55:32.014,-9.4,0.29,-45.48,1000
21:55:32.029,-7.26,0.1,-46.35,1000
21:55:32.108,-7.43,1.18,-47.76,1000
21:55:32.188,-7.59,1.59,-48.78,1000
21:55:32.188,-7.23,1.56,-48.82,1000
21:55:32.267,-7.48,1.69,-48.49,1000
21:55:32.284,-7.32,1.8,-48.05,1000
21:55:32.371,-6.49,1.96,-47.81,1000
21:55:32.386,-6.34,1.92,-47.12,1000
21:55:32.466,-6.03,1.94,-46.31,1000
21:55:32.550,-6.52,2.39,-46.08,1000
21:55:32.550,-6.93,2.48,-46.3,1000
21:55:32.629,-6.6,2.55,-47.01,1000
21:55:32.643,-6.13,2.74,-47.73,1000
21:55:32.725,-5.34,3.09,-48.29,1000
21:55:32.804,-4.67,2.86,-48.25,1000
21:55:32.804,-3.75,2.02,-48.05,1000
21:55:32.883,-3.76,1.88,-48.35,1000
21:55:32.896,-4.53,1.99,-49.01,1000
21:55:32.976,-4.76,1.82,-49.92,1000
21:55:33.056,-4.44,1.69,-50.76,1000
21:55:33.056,-4.22,1.97,-51.97,1000
