Timestamp,Roll,Pitch,Yaw,Gyro_X,Gyro_Y,Gyro_Z,Accel_X,Accel_Y,Accel_Z,Throttle
16:50:25.212,-4.38,0.51,-110.47,1.52,-1.22,-1.77,-0.01,-0.08,1.03,1000
16:50:25.223,-4.36,0.51,-110.49,1.71,-1.04,-1.52,-0.01,-0.08,1.02,1000
16:50:25.234,-4.33,0.51,-110.51,1.28,-1.04,-1.28,-0.02,-0.08,1.02,1000
16:50:25.245,-4.32,0.52,-110.52,0.79,-1.04,-0.79,-0.02,-0.08,1.03,1000
16:50:25.256,-4.32,0.54,-110.52,-0.12,-1.22,0.06,-0.02,-0.08,1.03,1000
16:50:25.268,-4.32,0.55,-110.52,-0.3,-1.16,0.3,-0.02,-0.08,1.03,1000
16:50:25.278,-4.33,0.57,-110.52,-0.12,-0.98,0.06,-0.01,-0.08,1.03,1000
16:50:25.289,-4.34,0.58,-110.52,0.43,-0.85,-0.43,-0.01,-0.08,1.03,1000
16:50:25.301,-4.34,0.57,-110.53,1.16,-0.73,-1.59,-0.01,-0.08,1.03,1000
16:50:25.316,-4.34,0.56,-110.55,1.4,-0.91,-2.07,-0.01,-0.08,1.03,1000
16:50:25.322,-4.33,0.54,-110.57,1.28,-0.98,-2.38,0.0,-0.08,1.03,1000
16:50:25.333,-4.33,0.5,-110.6,0.91,-0.91,-2.38,0.0,-0.08,1.03,1000
16:50:25.347,-4.33,0.46,-110.63,0.12,-0.79,-2.13,-0.0,-0.08,1.03,1000
16:50:25.355,-4.33,0.43,-110.64,-0.43,-0.61,-1.59,-0.01,-0.08,1.03,1000
16:50:25.371,-4.35,0.43,-110.66,-1.16,-0.49,-1.28,-0.02,-0.08,1.03,1000
16:50:25.379,-4.37,0.45,-110.67,-1.34,-0.55,-0.91,-0.02,-0.08,1.04,1000
16:50:25.388,-4.39,0.49,-110.68,-1.4,-0.37,-1.1,-0.02,-0.08,1.04,1000
16:50:25.412,-4.41,0.53,-110.7,-1.1,-0.79,-1.28,-0.02,-0.08,1.04,1000
16:50:25.412,-4.4,0.56,-110.71,-0.91,-0.98,-1.34,-0.02,-0.07,1.03,1000
16:50:25.422,-4.39,0.57,-110.72,-0.61,-1.46,-1.22,-0.01,-0.07,1.03,1000
16:50:25.432,-4.37,0.57,-110.73,-0.3,-2.26,-1.1,-0.01,-0.07,1.03,1000
16:50:25.444,-4.34,0.55,-110.74,-0.24,-2.8,-0.79,-0.01,-0.08,1.03,1000
16:50:25.454,-4.32,0.51,-110.75,-0.18,-3.6,-0.3,-0.01,-0.07,1.02,1000
16:50:25.465,-4.3,0.46,-110.75,0.0,-4.39,-0.18,-0.01,-0.07,1.01,1000
16:50:25.478,-4.28,0.4,-110.75,0.55,-4.76,-0.24,0.0,-0.07,1.02,1000
16:50:25.489,-4.25,0.34,-110.76,1.16,-4.21,-0.91,-0.0,-0.07,1.01,1000
16:50:25.498,-4.21,0.28,-110.77,1.52,-3.35,-1.59,0.0,-0.07,1.01,1000
16:50:25.513,-4.16,0.23,-110.79,1.52,-2.32,-2.01,0.0,-0.07,1.01,1000
16:50:25.520,-4.13,0.19,-110.81,1.1,-1.22,-1.83,0.0,-0.07,1.01,1000
16:50:25.531,-4.11,0.17,-110.83,0.61,0.06,-1.28,-0.0,-0.07,1.01,1000
16:50:25.545,-4.1,0.18,-110.84,0.79,1.04,-1.16,-0.01,-0.08,1.01,1000
16:50:25.553,-4.1,0.21,-110.85,0.79,2.32,-1.04,-0.01,-0.08,1.02,1000
16:50:25.589,-4.1,0.25,-110.87,0.85,3.17,-0.91,-0.01,-0.08,1.02,1000
16:50:25.589,-4.09,0.33,-110.88,0.85,3.9,-0.91,-0.01,-0.07,1.03,1000
16:50:25.589,-4.08,0.39,-110.89,0.61,4.02,-0.91,-0.01,-0.07,1.04,1000
16:50:25.597,-4.07,0.43,-110.9,0.49,3.72,-0.79,-0.0,-0.08,1.04,1000
16:50:25.611,-4.07,0.46,-110.91,0.43,3.11,-1.04,-0.01,-0.08,1.04,1000
16:50:25.619,-4.08,0.49,-110.92,0.18,2.5,-1.1,-0.01,-0.08,1.04,1000
16:50:25.630,-4.09,0.5,-110.93,-0.3,1.4,-1.16,-0.01,-0.08,1.04,1000
16:50:25.641,-4.12,0.51,-110.95,-0.67,0.18,-1.65,-0.01,-0.08,1.03,1000
16:50:25.656,-4.14,0.51,-110.97,-0.98,-1.4,-1.83,-0.01,-0.08,1.03,1000
16:50:25.664,-4.17,0.49,-110.98,-1.16,-2.5,-1.89,-0.0,-0.08,1.03,1000
16:50:25.674,-4.2,0.46,-111.01,-0.49,-2.87,-2.32,-0.0,-0.08,1.03,1000
16:50:25.686,-4.23,0.41,-111.03,0.06,-3.05,-2.5,0.0,-0.08,1.03,1000
16:50:25.697,-4.25,0.35,-111.06,0.43,-2.62,-2.68,0.01,-0.08,1.03,1000
16:50:25.714,-4.27,0.3,-111.09,0.55,-2.13,-2.38,0.0,-0.08,1.03,1000
16:50:25.719,-4.27,0.26,-111.12,0.67,-1.52,-1.65,-0.01,-0.08,1.03,1000
16:50:25.730,-4.26,0.24,-111.13,0.49,-0.73,-0.73,-0.01,-0.07,1.02,1000
16:50:25.740,-4.24,0.24,-111.13,0.37,0.0,0.49,-0.01,-0.07,1.03,1000
16:50:25.751,-4.21,0.26,-111.12,-0.06,0.49,1.46,-0.01,-0.07,1.02,1000
16:50:25.762,-4.18,0.29,-111.1,-0.61,0.43,2.2,-0.01,-0.07,1.03,1000
16:50:25.773,-4.16,0.32,-111.07,-0.98,0.43,2.8,-0.01,-0.07,1.03,1000
16:50:25.788,-4.16,0.34,-111.04,-0.85,0.18,2.99,-0.01,-0.08,1.03,1000
16:50:25.795,-4.17,0.34,-111.01,-0.73,0.0,2.56,-0.0,-0.08,1.03,1000
16:50:25.806,-4.18,0.34,-110.99,-0.18,-0.3,1.59,-0.0,-0.08,1.03,1000
16:50:25.817,-4.2,0.32,-110.97,-0.06,-0.49,0.61,-0.0,-0.07,1.03,1000
16:50:25.828,-4.2,0.31,-110.97,-0.18,-0.91,-0.67,-0.0,-0.07,1.03,1000
16:50:25.839,-4.19,0.29,-110.98,-0.73,-1.34,-1.34,-0.01,-0.07,1.03,1000
16:50:25.850,-4.17,0.28,-111.0,-1.4,-2.32,-2.2,-0.01,-0.07,1.03,1000
16:50:25.861,-4.16,0.27,-111.02,-2.26,-2.93,-2.44,-0.0,-0.07,1.03,1000
16:50:25.872,-4.16,0.24,-111.05,-2.74,-3.6,-2.44,-0.0,-0.07,1.03,1000
16:50:25.883,-4.18,0.21,-111.07,-2.68,-3.78,-1.71,-0.0,-0.08,1.02,1000
16:50:25.898,-4.2,0.17,-111.09,-2.13,-3.84,-1.28,-0.0,-0.08,1.03,1000
16:50:25.905,-4.23,0.14,-111.11,-1.34,-2.93,-1.34,0.0,-0.08,1.03,1000
16:50:25.918,-4.25,0.1,-111.12,-0.55,-1.89,-1.1,0.01,-0.08,1.03,1000
16:50:25.927,-4.27,0.07,-111.13,-0.37,-0.37,-0.91,0.0,-0.08,1.03,1000
16:50:25.939,-4.28,0.06,-111.14,-0.49,0.49,-0.67,-0.0,-0.08,1.03,1000
16:50:25.951,-4.28,0.06,-111.15,-0.79,1.65,-0.73,-0.01,-0.07,1.03,1000
16:50:25.962,-4.28,0.09,-111.16,-0.91,2.38,-0.73,-0.01,-0.07,1.03,1000
16:50:25.971,-4.28,0.14,-111.17,-1.16,3.11,-0.67,-0.01,-0.07,1.03,1000
16:50:25.983,-4.27,0.19,-111.17,-1.04,3.41,-0.61,-0.0,-0.07,1.03,1000
16:50:25.994,-4.27,0.24,-111.18,-0.85,3.05,-0.24,-0.01,-0.08,1.03,1000
16:50:26.004,-4.27,0.28,-111.18,-0.73,2.32,-0.06,-0.01,-0.08,1.03,1000
16:50:26.016,-4.29,0.32,-111.18,-0.24,1.28,0.3,-0.01,-0.09,1.03,1000
16:50:26.029,-4.31,0.35,-111.17,0.0,0.49,0.73,-0.0,-0.08,1.03,1000
16:50:26.038,-4.32,0.35,-111.17,0.79,-0.12,0.43,-0.0,-0.08,1.03,1000
16:50:26.048,-4.32,0.34,-111.16,1.28,-0.37,-0.12,-0.01,-0.08,1.03,1000
16:50:26.059,-4.32,0.34,-111.17,1.65,-0.55,-0.91,-0.0,-0.08,1.03,1000
16:50:26.070,-4.3,0.33,-111.18,1.83,-0.67,-1.4,-0.0,-0.08,1.03,1000
16:50:26.081,-4.29,0.31,-111.2,1.71,-0.61,-1.52,0.0,-0.08,1.02,1000
16:50:26.093,-4.27,0.3,-111.22,1.16,-0.55,-1.77,-0.0,-0.08,1.02,1000
16:50:26.103,-4.26,0.28,-111.23,0.24,-0.85,-1.28,-0.0,-0.08,1.02,1000
16:50:26.115,-4.25,0.27,-111.25,-0.06,-0.61,-0.91,-0.01,-0.08,1.02,1000
16:50:26.129,-4.25,0.26,-111.26,-0.12,-0.43,-1.1,-0.0,-0.08,1.02,1000
16:50:26.136,-4.25,0.25,-111.27,-0.37,-0.18,-1.34,0.0,-0.07,1.02,1000
16:50:26.147,-4.25,0.25,-111.29,-0.85,0.06,-1.89,0.0,-0.07,1.02,1000
16:50:26.158,-4.25,0.23,-111.31,-1.46,0.18,-2.2,0.0,-0.07,1.02,1000
16:50:26.172,-4.25,0.22,-111.33,-1.71,0.3,-2.56,0.01,-0.08,1.02,1000
16:50:26.180,-4.27,0.19,-111.37,-2.2,0.43,-2.87,0.0,-0.08,1.02,1000
16:50:26.191,-4.3,0.17,-111.4,-2.56,0.06,-3.11,0.0,-0.08,1.02,1000
16:50:26.202,-4.33,0.16,-111.43,-2.5,0.18,-3.05,-0.0,-0.08,1.03,1000
16:50:26.213,-4.38,0.15,-111.47,-2.13,0.06,-2.99,-0.0,-0.08,1.03,1000
16:50:26.224,-4.41,0.14,-111.49,-1.4,0.06,-2.44,-0.0,-0.08,1.03,1000
16:50:26.236,-4.44,0.14,-111.52,-0.79,0.18,-2.07,-0.01,-0.09,1.03,1000
16:50:26.246,-4.46,0.15,-111.54,0.18,0.24,-1.34,-0.01,-0.08,1.04,1000
16:50:26.257,-4.47,0.16,-111.55,0.3,0.12,-0.61,-0.01,-0.08,1.04,1000
16:50:26.270,-4.47,0.17,-111.55,0.18,0.18,0.37,-0.01,-0.08,1.04,1000
16:50:26.280,-4.47,0.2,-111.55,-0.12,0.43,1.22,-0.02,-0.08,1.04,1000
16:50:26.292,-4.46,0.24,-111.53,0.0,0.49,1.28,-0.02,-0.08,1.04,1000
16:50:26.301,-4.45,0.28,-111.52,0.49,0.91,1.16,-0.01,-0.08,1.04,1000
16:50:26.312,-4.44,0.32,-111.51,0.91,1.34,0.67,-0.0,-0.08,1.04,1000
16:50:26.334,-4.43,0.34,-111.51,1.34,1.4,-0.24,-0.0,-0.08,1.03,1000
16:50:26.334,-4.41,0.35,-111.51,1.34,1.28,-0.73,-0.0,-0.08,1.04,1000
16:50:26.345,-4.39,0.35,-111.52,0.98,1.28,-1.16,0.0,-0.07,1.03,1000
16:50:26.356,-4.36,0.35,-111.54,0.37,0.43,-1.46,-0.01,-0.07,1.03,1000
16:50:26.367,-4.33,0.34,-111.55,-0.3,-0.3,-1.22,-0.01,-0.07,1.03,1000
16:50:26.378,-4.3,0.34,-111.56,-0.98,-1.34,-0.67,-0.01,-0.06,1.03,1000
16:50:26.389,-4.26,0.34,-111.57,-1.77,-1.83,-0.06,-0.02,-0.06,1.03,1000
16:50:26.400,-4.23,0.35,-111.56,-2.07,-2.13,0.67,-0.02,-0.06,1.03,1000
16:50:26.412,-4.2,0.37,-111.56,-2.38,-2.5,0.98,-0.01,-0.07,1.03,1000
16:50:26.422,-4.2,0.37,-111.55,-1.95,-2.62,1.4,-0.01,-0.08,1.03,1000
16:50:26.436,-4.21,0.36,-111.53,-1.59,-2.56,1.77,-0.0,-0.07,1.03,1000
16:50:26.444,-4.21,0.33,-111.51,-1.04,-2.5,1.95,0.0,-0.08,1.02,1000
16:50:26.455,-4.23,0.3,-111.49,-0.73,-2.5,1.89,0.0,-0.08,1.03,1000
16:50:26.466,-4.24,0.26,-111.47,-0.24,-2.8,2.01,-0.0,-0.08,1.02,1000
16:50:26.477,-4.26,0.22,-111.44,-0.3,-3.17,2.01,-0.0,-0.08,1.03,1000
16:50:26.488,-4.28,0.19,-111.42,-0.85,-3.35,1.52,-0.01,-0.08,1.03,1000
16:50:26.499,-4.3,0.17,-111.41,-1.22,-3.29,1.28,-0.01,-0.08,1.03,1000
16:50:26.512,-4.32,0.15,-111.4,-1.65,-3.17,0.37,-0.01,-0.07,1.02,1000
16:50:26.521,-4.34,0.13,-111.4,-2.07,-2.8,-0.06,0.0,-0.08,1.02,1000
16:50:26.533,-4.35,0.11,-111.4,-1.89,-2.2,-0.55,-0.0,-0.08,1.03,1000
16:50:26.543,-4.37,0.1,-111.41,-1.4,-1.71,-0.91,-0.0,-0.08,1.03,1000
16:50:26.554,-4.37,0.08,-111.41,-1.04,-1.1,-0.79,0.0,-0.08,1.03,1000
16:50:26.565,-4.38,0.06,-111.42,-0.67,-0.85,-0.12,0.01,-0.08,1.02,1000
16:50:26.576,-4.37,0.04,-111.42,-0.18,-0.61,0.3,0.01,-0.07,1.03,1000
16:50:26.588,-4.36,0.01,-111.41,0.3,-0.3,1.28,0.0,-0.08,1.02,1000
16:50:26.600,-4.34,0.0,-111.39,0.67,0.43,1.4,-0.0,-0.08,1.02,1000
16:50:26.614,-4.32,0.01,-111.38,0.67,0.98,1.52,-0.01,-0.08,1.02,1000
16:50:26.620,-4.3,0.04,-111.36,0.49,1.4,1.16,-0.01,-0.08,1.03,1000
16:50:26.641,-4.3,0.07,-111.35,-0.06,1.59,0.79,-0.0,-0.08,1.03,1000
16:50:26.644,-4.31,0.09,-111.34,-0.73,1.4,0.55,-0.0,-0.08,1.02,1000
16:50:26.653,-4.33,0.1,-111.34,-1.28,1.16,0.55,0.0,-0.08,1.02,1000
16:50:26.664,-4.37,0.09,-111.34,-1.65,1.04,0.24,0.0,-0.09,1.03,1000
16:50:26.675,-4.41,0.09,-111.34,-2.07,0.79,0.0,0.0,-0.08,1.03,1000
16:50:26.686,-4.45,0.09,-111.34,-2.38,0.67,0.49,0.0,-0.08,1.03,1000
16:50:26.697,-4.49,0.08,-111.33,-2.68,0.49,0.79,-0.0,-0.08,1.03,1000
16:50:26.708,-4.53,0.08,-111.32,-2.38,0.37,1.34,-0.0,-0.08,1.03,1000
16:50:26.720,-4.56,0.08,-111.3,-2.07,0.3,1.52,-0.0,-0.08,1.02,1000
16:50:26.730,-4.59,0.09,-111.29,-1.46,0.49,1.46,-0.01,-0.08,1.02,1000
16:50:26.743,-4.6,0.11,-111.27,-1.04,0.49,1.1,-0.01,-0.08,1.02,1000
16:50:26.752,-4.61,0.12,-111.26,-0.67,0.61,0.61,-0.0,-0.08,1.02,1000
16:50:26.763,-4.6,0.13,-111.26,-0.61,0.73,0.12,-0.0,-0.08,1.02,1000
16:50:26.774,-4.6,0.14,-111.26,-1.04,0.85,0.06,0.0,-0.08,1.03,1000
16:50:26.785,-4.6,0.14,-111.26,-1.4,0.91,-0.43,0.0,-0.09,1.03,1000
16:50:26.796,-4.62,0.13,-111.26,-1.34,0.79,-0.67,0.0,-0.09,1.02,1000
16:50:26.807,-4.65,0.13,-111.28,-0.98,1.4,-1.34,0.0,-0.1,1.02,1000
16:50:26.819,-4.69,0.12,-111.3,-0.18,1.59,-2.5,0.01,-0.1,1.03,1000
16:50:26.831,-4.72,0.12,-111.33,0.43,1.95,-3.35,0.0,-0.1,1.02,1000
16:50:26.840,-4.75,0.11,-111.37,0.85,1.77,-3.84,0.0,-0.08,1.02,1000
16:50:26.851,-4.75,0.11,-111.41,0.73,1.71,-3.78,0.0,-0.08,1.03,1000
16:50:26.862,-4.73,0.11,-111.45,-0.06,1.52,-2.93,-0.0,-0.08,1.02,1000
16:50:26.873,-4.72,0.11,-111.48,-1.4,1.1,-1.83,-0.0,-0.08,1.02,1000
16:50:26.884,-4.72,0.11,-111.5,-2.44,0.98,-1.1,0.0,-0.09,1.02,1000
16:50:26.895,-4.75,0.11,-111.5,-3.35,1.04,-0.37,0.0,-0.09,1.02,1000
16:50:26.906,-4.81,0.11,-111.51,-3.78,1.34,-0.18,-0.0,-0.09,1.03,1000
16:50:26.919,-4.86,0.13,-111.51,-3.29,1.52,-0.24,-0.01,-0.09,1.03,1000
16:50:26.928,-4.91,0.15,-111.51,-2.68,1.71,-0.49,-0.01,-0.09,1.03,1000
16:50:26.943,-4.95,0.19,-111.52,-1.71,1.71,-1.1,-0.01,-0.09,1.04,1000
16:50:26.953,-4.97,0.22,-111.53,-0.24,1.95,-1.46,0.0,-0.1,1.04,1000
16:50:26.961,-4.99,0.23,-111.55,1.04,1.77,-1.71,0.0,-0.1,1.03,1000
16:50:26.972,-5.01,0.24,-111.57,2.13,1.89,-2.13,-0.0,-0.1,1.03,1000
16:50:26.983,-5.01,0.25,-111.59,2.99,1.89,-2.74,-0.0,-0.1,1.03,1000
16:50:26.994,-5.01,0.26,-111.63,3.41,1.89,-3.23,-0.01,-0.09,1.03,1000
16:50:27.005,-4.99,0.28,-111.67,3.48,1.89,-3.9,-0.0,-0.09,1.03,1000
16:50:27.017,-4.97,0.3,-111.72,3.35,1.95,-4.82,-0.0,-0.08,1.03,1000
16:50:27.027,-4.92,0.32,-111.77,2.68,1.95,-5.0,-0.0,-0.08,1.02,1000
16:50:27.051,-4.88,0.33,-111.82,1.77,1.46,-4.94,-0.0,-0.07,1.03,1000
16:50:27.051,-4.82,0.33,-111.87,0.24,0.55,-3.96,-0.0,-0.06,1.02,1000
16:50:27.060,-4.76,0.32,-111.91,-1.71,-0.37,-2.87,-0.01,-0.06,1.02,1000
16:50:27.071,-4.72,0.3,-111.94,-3.29,-1.34,-1.77,-0.01,-0.07,1.02,1000
16:50:27.082,-4.69,0.29,-111.95,-4.45,-2.2,-0.49,-0.01,-0.07,1.02,1000
16:50:27.093,-4.69,0.29,-111.95,-4.82,-2.74,0.3,-0.01,-0.08,1.01,1000
16:50:27.104,-4.72,0.28,-111.95,-4.21,-2.5,0.79,-0.01,-0.09,1.02,1000
16:50:27.117,-4.76,0.27,-111.94,-2.74,-2.2,0.55,-0.0,-0.09,1.02,1000
16:50:27.126,-4.8,0.26,-111.94,-1.1,-1.1,-0.24,-0.01,-0.1,1.01,1000
16:50:27.137,-4.82,0.27,-111.95,0.49,0.12,-1.4,-0.01,-0.09,1.02,1000
16:50:27.154,-4.82,0.27,-111.97,1.77,1.22,-2.56,0.0,-0.08,1.02,1000
16:50:27.163,-4.79,0.29,-112.0,2.8,2.38,-3.29,-0.0,-0.07,1.02,1000
16:50:27.172,-4.72,0.31,-112.04,2.44,2.87,-3.41,-0.01,-0.07,1.02,1000
16:50:27.181,-4.65,0.35,-112.07,1.16,3.35,-2.87,-0.01,-0.06,1.02,1000
16:50:27.192,-4.57,0.4,-112.1,-0.79,3.54,-2.32,-0.02,-0.07,1.02,1000
16:50:27.203,-4.53,0.46,-112.13,-3.05,3.17,-1.89,-0.02,-0.07,1.03,1000
16:50:27.214,-4.51,0.53,-112.15,-4.88,2.99,-1.34,-0.02,-0.07,1.03,1000
16:50:27.229,-4.52,0.6,-112.16,-5.91,2.68,-1.04,-0.02,-0.08,1.02,1000
16:50:27.236,-4.56,0.67,-112.17,-6.65,2.74,-0.61,-0.02,-0.08,1.02,1000
16:50:27.247,-4.61,0.72,-112.17,-6.59,2.68,-0.24,-0.02,-0.08,1.02,1000
16:50:27.260,-4.66,0.79,-112.18,-5.98,2.5,-0.79,-0.03,-0.08,1.03,1000
16:50:27.269,-4.7,0.86,-112.19,-4.88,2.2,-1.34,-0.02,-0.08,1.04,1000
16:50:27.280,-4.72,0.91,-112.21,-3.35,2.2,-2.07,-0.02,-0.09,1.03,1000
16:50:27.295,-4.74,0.94,-112.23,-1.71,1.71,-3.11,-0.02,-0.09,1.03,1000
16:50:27.302,-4.75,0.97,-112.27,-0.3,1.65,-3.54,-0.02,-0.09,1.03,1000
16:50:27.316,-4.77,0.98,-112.31,0.3,1.59,-3.78,-0.01,-0.09,1.03,1000
16:50:27.331,-4.79,0.99,-112.36,1.04,1.4,-4.27,-0.02,-0.1,1.03,1000
16:50:27.335,-4.81,1.01,-112.4,1.52,0.91,-4.21,-0.02,-0.09,1.04,1000
16:50:27.355,-4.82,1.01,-112.45,1.95,0.37,-4.27,-0.02,-0.09,1.04,1000
16:50:27.361,-4.79,1.01,-112.5,2.07,-0.43,-4.27,-0.02,-0.08,1.04,1000
16:50:27.373,-4.75,1.01,-112.54,1.89,-1.34,-3.48,-0.02,-0.07,1.04,1000
16:50:27.381,-4.69,1.01,-112.57,0.98,-2.32,-1.71,-0.03,-0.07,1.03,1000
16:50:27.390,-4.63,1.0,-112.58,0.67,-2.93,0.18,-0.03,-0.08,1.02,1000
16:50:27.406,-4.59,1.0,-112.57,0.49,-3.35,2.26,-0.02,-0.09,1.01,1000
16:50:27.412,-4.59,0.99,-112.54,0.67,-3.29,3.23,-0.01,-0.1,1.01,1000
16:50:27.439,-4.61,0.96,-112.51,0.91,-2.26,2.74,0.0,-0.1,1.01,1000
16:50:27.439,-4.64,0.92,-112.48,1.34,-0.79,1.71,0.01,-0.1,1.01,1000
16:50:27.445,-4.67,0.87,-112.46,1.28,1.22,0.67,0.0,-0.09,1.01,1000
16:50:27.465,-4.7,0.83,-112.46,1.1,2.62,0.3,-0.0,-0.09,1.02,1000
16:50:27.467,-4.72,0.83,-112.46,0.55,4.09,0.3,-0.02,-0.08,1.01,1000
16:50:27.478,-4.72,0.86,-112.45,-0.43,4.45,0.24,-0.02,-0.08,1.02,1000
16:50:27.489,-4.71,0.92,-112.45,-1.59,4.7,0.67,-0.02,-0.08,1.02,1000
16:50:27.500,-4.7,0.99,-112.44,-3.23,3.84,1.59,-0.02,-0.07,1.03,1000
16:50:27.511,-4.68,1.04,-112.41,-5.0,2.68,2.44,-0.03,-0.07,1.03,1000
16:50:27.522,-4.67,1.09,-112.39,-6.71,0.85,3.17,-0.03,-0.07,1.04,1000
16:50:27.536,-4.69,1.13,-112.35,-8.17,-1.46,3.84,-0.03,-0.08,1.04,1000
16:50:27.544,-4.73,1.15,-112.31,-8.6,-3.17,4.15,-0.03,-0.09,1.04,1000
16:50:27.558,-4.79,1.15,-112.26,-8.23,-4.82,4.63,-0.03,-0.09,1.03,1000
16:50:27.567,-4.87,1.15,-112.2,-7.32,-5.98,5.0,-0.03,-0.09,1.04,1000
16:50:27.577,-4.95,1.14,-112.15,-5.73,-5.85,4.57,-0.04,-0.11,1.03,1000
16:50:27.588,-5.04,1.14,-112.1,-3.05,-5.24,3.6,-0.03,-0.1,1.03,1000
16:50:27.600,-5.09,1.13,-112.07,-0.06,-3.84,1.71,-0.03,-0.11,1.04,1000
16:50:27.610,-5.13,1.14,-112.06,2.13,-2.01,0.12,-0.03,-0.1,1.04,1000
16:50:27.626,-5.12,1.16,-112.06,4.45,-0.12,-0.67,-0.02,-0.1,1.03,1000
16:50:27.632,-5.08,1.18,-112.07,5.98,1.1,-0.98,-0.01,-0.09,1.03,1000
16:50:27.643,-5.02,1.18,-112.08,6.83,1.77,-0.55,-0.01,-0.09,1.03,1000
16:50:27.665,-4.95,1.18,-112.08,7.01,2.5,0.18,-0.01,-0.09,1.03,1000
16:50:27.667,-4.87,1.18,-112.08,6.59,2.99,0.91,-0.01,-0.09,1.02,1000
16:50:27.676,-4.81,1.19,-112.06,5.49,3.23,2.26,-0.01,-0.09,1.01,1000
16:50:27.687,-4.77,1.19,-112.03,4.27,3.23,3.11,-0.01,-0.09,1.02,1000
16:50:27.698,-4.75,1.18,-112.0,3.23,3.35,3.41,-0.01,-0.1,1.01,1000
16:50:27.709,-4.76,1.18,-111.96,2.5,2.99,3.6,-0.01,-0.1,1.01,1000
16:50:27.720,-4.79,1.17,-111.92,2.07,3.23,3.05,-0.0,-0.1,1.02,1000
16:50:27.731,-4.82,1.15,-111.89,1.83,3.48,2.07,-0.0,-0.1,1.01,1000
16:50:27.742,-4.84,1.13,-111.88,1.46,3.41,1.16,-0.0,-0.1,1.02,1000
16:50:27.753,-4.87,1.1,-111.87,0.98,3.35,0.55,-0.0,-0.09,1.02,1000
16:50:27.768,-4.9,1.07,-111.87,0.18,3.23,-0.3,-0.01,-0.09,1.02,1000
16:50:27.775,-4.92,1.07,-111.87,-1.16,3.48,-0.55,-0.01,-0.09,1.02,1000
16:50:27.786,-4.94,1.07,-111.87,-2.32,2.87,0.0,-0.02,-0.09,1.03,1000
16:50:27.797,-4.98,1.07,-111.87,-3.48,2.01,0.37,-0.02,-0.09,1.03,1000
16:50:27.808,-5.03,1.08,-111.86,-3.9,1.16,0.79,-0.02,-0.1,1.03,1000
16:50:27.819,-5.09,1.08,-111.86,-3.96,0.61,0.73,-0.02,-0.1,1.03,1000
16:50:27.830,-5.16,1.09,-111.85,-3.41,-0.12,0.79,-0.02,-0.1,1.03,1000
16:50:27.843,-5.23,1.1,-111.84,-2.62,-0.91,0.67,-0.03,-0.11,1.04,1000
16:50:27.852,-5.29,1.11,-111.84,-1.89,-1.52,0.61,-0.03,-0.1,1.03,1000
16:50:27.865,-5.33,1.12,-111.83,-0.79,-2.32,0.37,-0.03,-0.1,1.03,1000
16:50:27.874,-5.35,1.12,-111.83,0.12,-2.93,0.24,-0.02,-0.1,1.03,1000
16:50:27.885,-5.36,1.09,-111.83,0.61,-3.17,-0.61,-0.02,-0.09,1.03,1000
16:50:27.896,-5.34,1.06,-111.84,0.79,-3.66,-1.16,-0.01,-0.09,1.03,1000
16:50:27.908,-5.3,1.0,-111.85,1.04,-3.96,-1.46,-0.01,-0.08,1.02,1000
16:50:27.918,-5.27,0.94,-111.87,0.61,-4.15,-1.89,-0.01,-0.09,1.02,1000
16:50:27.930,-5.24,0.89,-111.89,0.24,-4.02,-1.65,-0.02,-0.09,1.01,1000
16:50:27.943,-5.22,0.85,-111.91,-0.12,-3.84,-1.95,-0.02,-0.09,1.02,1000
16:50:27.951,-5.21,0.82,-111.93,-0.37,-2.87,-2.01,-0.01,-0.09,1.02,1000
16:50:27.972,-5.21,0.79,-111.95,-0.73,-2.2,-2.01,-0.02,-0.08,1.01,1000
16:50:27.973,-5.2,0.78,-111.98,-1.46,-1.65,-2.07,-0.02,-0.08,1.02,1000
16:50:27.984,-5.18,0.77,-112.0,-2.74,-1.4,-2.07,-0.01,-0.08,1.01,1000
16:50:27.995,-5.18,0.76,-112.02,-4.09,-1.22,-1.89,-0.02,-0.08,1.01,1000
16:50:28.006,-5.19,0.75,-112.04,-4.82,-1.22,-1.95,-0.01,-0.08,1.01,1000
16:50:28.017,-5.21,0.74,-112.06,-5.37,-1.1,-2.13,-0.01,-0.09,1.02,1000
16:50:28.028,-5.23,0.72,-112.09,-5.0,-1.04,-2.44,-0.02,-0.09,1.02,1000
16:50:28.048,-5.26,0.74,-112.12,-4.21,-0.43,-3.23,-0.02,-0.11,1.02,1000
16:50:28.051,-5.31,0.75,-112.16,-2.56,0.37,-4.39,-0.01,-0.1,1.03,1000
16:50:28.061,-5.33,0.76,-112.21,-1.16,0.98,-4.82,-0.02,-0.09,1.03,1000
16:50:28.078,-5.33,0.78,-112.26,-0.12,1.28,-5.18,-0.02,-0.1,1.03,1000
16:50:28.083,-5.32,0.81,-112.32,0.55,1.16,-5.18,-0.01,-0.09,1.04,1000
16:50:28.094,-5.29,0.83,-112.38,1.46,1.4,-5.12,-0.02,-0.09,1.04,1000
16:50:28.105,-5.24,0.87,-112.43,1.52,1.04,-4.88,-0.03,-0.08,1.04,1000
16:50:28.116,-5.19,0.92,-112.48,1.4,0.55,-4.94,-0.03,-0.08,1.03,1000
16:50:28.127,-5.13,0.96,-112.53,1.16,-0.61,-4.39,-0.03,-0.08,1.04,1000
16:50:28.138,-5.08,0.99,-112.58,0.67,-1.46,-4.76,-0.02,-0.08,1.04,1000
16:50:28.150,-5.04,0.99,-112.65,0.67,-1.95,-5.85,-0.02,-0.09,1.04,1000
16:50:28.160,-5.0,1.0,-112.72,1.22,-2.13,-6.83,-0.03,-0.09,1.03,1000
16:50:28.171,-4.98,1.02,-112.79,1.52,-2.01,-8.23,-0.03,-0.09,1.04,1000
16:50:28.182,-4.95,1.02,-112.88,1.52,-2.13,-9.15,-0.02,-0.09,1.03,1000
16:50:28.193,-4.92,1.0,-112.99,1.59,-2.26,-9.09,-0.01,-0.09,1.03,1000
16:50:28.204,-4.91,0.97,-113.09,1.59,-2.56,-8.54,-0.02,-0.09,1.02,1000
16:50:28.215,-4.93,0.95,-113.18,1.04,-3.78,-6.83,-0.03,-0.11,1.03,1000
16:50:28.226,-4.95,0.94,-113.24,1.46,-4.94,-5.06,-0.01,-0.1,1.04,1000
16:50:28.237,-4.96,0.88,-113.29,2.26,-4.76,-3.48,0.0,-0.1,1.05,1000
16:50:28.251,-4.95,0.8,-113.32,3.35,-3.96,-2.56,-0.0,-0.1,1.04,1000
16:50:28.263,-4.95,0.74,-113.35,4.33,-3.29,-2.26,-0.01,-0.1,1.04,1000
16:50:28.285,-4.91,0.7,-113.37,4.39,-2.38,-1.83,-0.01,-0.09,1.03,1000
16:50:28.285,-4.88,0.69,-113.39,4.21,-1.22,-1.65,-0.02,-0.09,1.02,1000
16:50:28.292,-4.85,0.7,-113.41,3.66,0.49,-1.4,-0.02,-0.09,1.02,1000
16:50:28.303,-4.82,0.72,-113.42,2.68,1.89,-0.67,-0.01,-0.08,1.02,1000
16:50:28.314,-4.79,0.75,-113.42,1.34,3.29,0.49,-0.01,-0.08,1.02,1000
16:50:28.325,-4.78,0.78,-113.41,0.18,4.7,1.4,-0.01,-0.08,1.02,1000
16:50:28.337,-4.78,0.82,-113.39,-1.04,5.91,2.26,-0.0,-0.08,1.02,1000
16:50:28.348,-4.78,0.85,-113.36,-2.01,7.26,2.68,-0.01,-0.08,1.01,1000
16:50:28.358,-4.8,0.91,-113.34,-2.44,8.11,2.32,-0.01,-0.09,1.01,1000
16:50:28.371,-4.84,0.98,-113.31,-2.93,8.29,1.71,-0.02,-0.09,1.01,1000
16:50:28.380,-4.88,1.06,-113.29,-3.29,7.8,1.46,-0.02,-0.09,1.02,1000
16:50:28.391,-4.93,1.15,-113.28,-3.48,7.13,1.34,-0.02,-0.09,1.03,1000
16:50:28.402,-4.96,1.22,-113.27,-3.17,6.46,1.1,-0.03,-0.09,1.03,1000
16:50:28.413,-4.98,1.31,-113.26,-2.99,5.43,0.73,-0.04,-0.09,1.02,1000
16:50:28.424,-5.01,1.4,-113.25,-1.65,4.21,0.55,-0.03,-0.09,1.02,1000
16:50:28.437,-5.03,1.46,-113.24,-0.43,2.93,0.18,-0.03,-0.09,1.02,1000
16:50:28.446,-5.03,1.5,-113.24,0.67,1.52,-0.06,-0.03,-0.09,1.02,1000
16:50:28.463,-5.01,1.52,-113.24,1.65,-0.49,-0.12,-0.03,-0.09,1.02,1000
16:50:28.468,-4.99,1.51,-113.24,2.56,-2.44,0.24,-0.02,-0.08,1.02,1000
16:50:28.489,-4.94,1.47,-113.24,3.29,-3.48,0.3,-0.02,-0.09,1.04,1000
16:50:28.490,-4.89,1.42,-113.24,3.41,-4.33,0.0,-0.03,-0.09,1.03,1000
16:50:28.503,-4.85,1.38,-113.24,2.8,-4.51,-0.12,-0.03,-0.08,1.03,1000
16:50:28.514,-4.81,1.34,-113.24,1.83,-4.7,-0.37,-0.03,-0.08,1.03,1000
16:50:28.523,-4.78,1.32,-113.24,-0.3,-4.94,-0.49,-0.03,-0.05,1.05,1000
16:50:28.571,-4.75,1.28,-113.25,-2.32,-5.79,0.0,-0.03,-0.1,1.03,1000
16:50:28.572,-4.76,1.24,-113.25,-2.56,-6.83,0.24,-0.02,-0.08,1.03,1000
16:50:28.572,-4.81,1.2,-113.24,-3.9,-7.44,-0.06,-0.03,-0.1,1.04,1000
16:50:28.572,-4.86,1.14,-113.25,-4.27,-8.11,-0.37,-0.02,-0.1,1.04,1000
16:50:28.579,-4.9,1.07,-113.25,-2.99,-8.72,-0.85,-0.02,-0.1,1.04,1000
16:50:28.590,-4.94,0.99,-113.27,-1.59,-9.27,-1.89,-0.02,-0.09,1.03,1000
16:50:28.600,-4.97,0.89,-113.29,-0.24,-10.06,-2.56,-0.01,-0.09,1.03,1000
16:50:28.611,-4.97,0.78,-113.32,0.73,-10.37,-2.56,-0.0,-0.08,1.03,1000
16:50:28.624,-4.96,0.64,-113.35,1.46,-10.43,-2.62,0.0,-0.08,1.02,1000
16:50:28.633,-4.93,0.5,-113.38,1.4,-10.61,-2.2,-0.01,-0.08,1.02,1000
16:50:28.651,-4.89,0.38,-113.4,0.61,-10.49,-1.65,-0.01,-0.07,1.03,1000
16:50:28.664,-4.86,0.27,-113.42,0.61,-9.76,-0.85,-0.0,-0.09,1.01,1000
16:50:28.668,-4.83,0.19,-113.42,0.24,-8.41,-0.55,-0.01,-0.08,1.01,1000
16:50:28.686,-4.8,0.11,-113.43,0.12,-6.77,-0.55,0.0,-0.08,1.0,1000
16:50:28.688,-4.78,0.04,-113.43,0.3,-4.45,-0.18,0.0,-0.08,0.99,1000
16:50:28.701,-4.76,-0.02,-113.43,0.43,-2.5,0.06,0.01,-0.08,1.0,1000
16:50:28.710,-4.74,-0.07,-113.43,0.24,0.67,0.24,0.02,-0.08,1.0,1000
16:50:28.721,-4.72,-0.11,-113.43,-0.55,3.72,0.18,0.02,-0.07,1.0,1000
16:50:28.732,-4.7,-0.1,-113.43,-1.28,6.59,0.12,0.01,-0.08,1.0,1000
16:50:28.744,-4.68,-0.07,-113.43,-2.2,8.9,0.49,0.0,-0.07,1.01,1000
16:50:28.756,-4.67,0.01,-113.43,-3.48,10.85,0.43,-0.0,-0.08,1.01,1000
16:50:28.765,-4.68,0.12,-113.42,-4.15,12.26,1.04,0.0,-0.08,1.01,1000
16:50:28.777,-4.7,0.24,-113.41,-4.27,13.35,0.98,-0.0,-0.09,1.01,1000
16:50:28.793,-4.74,0.38,-113.4,-4.02,13.9,1.22,-0.0,-0.09,1.01,1000
16:50:28.800,-4.78,0.52,-113.38,-3.66,14.27,1.22,-0.0,-0.08,1.02,1000
16:50:28.811,-4.81,0.65,-113.37,-3.54,14.51,1.65,-0.01,-0.08,1.02,1000
16:50:28.822,-4.85,0.82,-113.35,-3.66,14.39,1.71,-0.02,-0.1,1.02,1000
16:50:28.831,-4.89,0.96,-113.33,-3.96,14.51,1.77,-0.02,-0.08,1.03,1000
16:50:28.842,-4.92,1.1,-113.31,-5.24,14.09,1.71,-0.02,-0.08,1.03,1000
16:50:28.853,-4.96,1.26,-113.29,-7.5,12.8,1.4,-0.03,-0.1,1.03,1000
16:50:28.868,-5.05,1.4,-113.28,-7.5,11.77,0.79,-0.03,-0.13,1.03,1000
16:50:28.877,-5.19,1.53,-113.28,-5.98,11.22,-1.22,-0.02,-0.14,1.04,1000
16:50:28.890,-5.35,1.65,-113.3,-4.88,10.43,-2.99,-0.03,-0.12,1.04,1000
16:50:28.908,-5.48,1.75,-113.34,-4.27,8.66,-4.09,-0.04,-0.11,1.05,1000
16:50:28.909,-5.59,1.86,-113.39,-3.66,5.79,-4.21,-0.04,-0.11,1.04,1000
16:50:28.919,-5.66,1.94,-113.43,-2.68,3.41,-3.96,-0.04,-0.11,1.05,1000
16:50:28.932,-5.71,1.99,-113.47,-1.22,0.98,-3.23,-0.04,-0.11,1.04,1000
16:50:28.941,-5.72,2.01,-113.5,0.24,-0.91,-2.5,-0.04,-0.1,1.04,1000
16:50:28.954,-5.71,2.02,-113.53,1.83,-2.74,-1.89,-0.04,-0.1,1.04,1000
16:50:28.964,-5.67,2.01,-113.55,3.48,-3.78,-1.4,-0.04,-0.09,1.04,1000
16:50:28.974,-5.59,1.98,-113.56,4.51,-4.63,-1.16,-0.03,-0.1,1.03,1000
16:50:28.988,-5.51,1.93,-113.57,5.18,-5.73,-0.3,-0.03,-0.1,1.02,1000
16:50:28.997,-5.45,1.87,-113.58,5.12,-6.52,0.24,-0.03,-0.09,1.03,1000
16:50:29.008,-5.37,1.8,-113.58,4.51,-6.95,0.24,-0.03,-0.09,1.03,1000
16:50:29.018,-5.31,1.73,-113.58,3.6,-7.5,-0.18,-0.04,-0.1,1.02,1000
16:50:29.029,-5.27,1.66,-113.58,2.8,-8.29,-0.85,-0.03,-0.1,1.02,1000
16:50:29.040,-5.24,1.57,-113.59,2.26,-7.62,-1.59,-0.02,-0.1,1.02,1000
16:50:29.051,-5.23,1.5,-113.61,1.59,-6.65,-1.95,-0.03,-0.1,1.01,1000
16:50:29.062,-5.22,1.43,-113.63,1.16,-5.79,-2.32,-0.03,-0.09,1.0,1000
16:50:29.075,-5.22,1.39,-113.66,0.24,-4.51,-2.38,-0.02,-0.09,1.01,1000
16:50:29.084,-5.2,1.35,-113.68,-0.67,-2.56,-2.01,-0.02,-0.08,1.01,1000
16:50:29.098,-5.2,1.32,-113.7,-1.65,-0.73,-1.77,-0.02,-0.09,1.01,1000
16:50:29.106,-5.2,1.32,-113.72,-3.11,0.91,-1.77,-0.02,-0.08,1.01,1000
16:50:29.117,-5.21,1.33,-113.74,-4.39,2.2,-1.46,-0.02,-0.09,1.01,1000
16:50:29.128,-5.23,1.36,-113.75,-5.67,3.05,-1.04,-0.02,-0.08,1.02,1000
16:50:29.141,-5.26,1.39,-113.76,-6.71,3.78,-0.43,-0.02,-0.09,1.02,1000
16:50:29.150,-5.31,1.43,-113.76,-7.38,3.84,0.37,-0.03,-0.09,1.02,1000
16:50:29.161,-5.36,1.48,-113.76,-7.38,4.15,1.34,-0.03,-0.1,1.03,1000
16:50:29.174,-5.43,1.54,-113.74,-7.32,4.15,2.32,-0.03,-0.1,1.03,1000
16:50:29.183,-5.5,1.6,-113.7,-6.89,3.78,3.17,-0.03,-0.09,1.02,1000
16:50:29.198,-5.56,1.65,-113.67,-5.85,3.48,3.35,-0.03,-0.11,1.03,1000
16:50:29.205,-5.62,1.7,-113.63,-3.05,3.11,2.93,-0.03,-0.11,1.04,1000
16:50:29.216,-5.65,1.74,-113.6,-0.18,2.5,1.83,-0.04,-0.1,1.04,1000
16:50:29.227,-5.63,1.77,-113.59,2.01,1.46,0.55,-0.04,-0.1,1.04,1000
16:50:29.238,-5.59,1.81,-113.59,4.51,0.49,-0.73,-0.04,-0.1,1.04,1000
16:50:29.249,-5.52,1.82,-113.6,5.79,-1.22,-1.16,-0.04,-0.09,1.05,1000
16:50:29.261,-5.42,1.82,-113.61,5.61,-2.8,-1.1,-0.04,-0.09,1.04,1000
16:50:29.277,-5.34,1.8,-113.62,5.24,-4.27,-0.79,-0.04,-0.09,1.03,1000
16:50:29.282,-5.27,1.78,-113.63,4.88,-5.55,-0.37,-0.03,-0.1,1.04,1000
16:50:29.305,-5.21,1.73,-113.63,4.33,-6.1,-0.43,-0.03,-0.1,1.03,1000
16:50:29.305,-5.17,1.67,-113.64,3.66,-5.98,-1.28,-0.03,-0.1,1.02,1000
16:50:29.318,-5.15,1.62,-113.66,3.11,-5.3,-2.07,-0.02,-0.1,1.02,1000
16:50:29.326,-5.15,1.57,-113.68,2.56,-4.51,-2.8,-0.02,-0.1,1.02,1000
16:50:29.337,-5.16,1.51,-113.72,2.01,-3.72,-3.6,-0.02,-0.1,1.01,1000
16:50:29.348,-5.15,1.44,-113.76,1.52,-3.17,-3.72,-0.01,-0.09,1.02,1000
16:50:29.359,-5.13,1.35,-113.8,0.79,-2.44,-3.41,-0.0,-0.08,1.01,1000
16:50:29.371,-5.1,1.26,-113.83,0.61,-1.77,-2.8,-0.0,-0.08,1.01,1000
16:50:29.382,-5.08,1.2,-113.86,-0.37,-0.98,-2.01,-0.02,-0.09,1.01,1000
16:50:29.392,-5.09,1.16,-113.88,-1.16,-0.3,-1.4,-0.03,-0.1,1.01,1000
16:50:29.408,-5.13,1.16,-113.89,-2.44,0.3,-1.34,-0.03,-0.1,1.02,1000
16:50:29.414,-5.19,1.19,-113.91,-3.17,1.16,-1.46,-0.03,-0.1,1.02,1000
16:50:29.437,-5.24,1.21,-113.92,-3.48,1.28,-1.83,-0.02,-0.1,1.02,1000
16:50:29.447,-5.3,1.22,-113.94,-3.11,1.52,-1.59,-0.02,-0.1,1.03,1000
16:50:29.455,-5.35,1.22,-113.96,-2.32,2.01,-1.52,-0.01,-0.1,1.03,1000
16:50:29.458,-5.39,1.2,-113.97,-1.04,1.77,-1.22,-0.01,-0.11,1.03,1000
16:50:29.469,-5.41,1.19,-113.99,0.06,1.46,-1.22,-0.01,-0.11,1.04,1000
16:50:29.480,-5.43,1.18,-114.0,1.04,0.49,-0.91,-0.02,-0.1,1.04,1000
16:50:29.491,-5.44,1.17,-114.01,1.46,-0.12,-0.67,-0.03,-0.11,1.04,1000
16:50:29.503,-5.45,1.17,-114.01,1.83,-0.85,-0.12,-0.03,-0.1,1.04,1000
16:50:29.513,-5.44,1.18,-114.01,1.95,-1.77,0.55,-0.03,-0.1,1.03,1000
16:50:29.524,-5.43,1.19,-114.0,2.07,-2.56,1.65,-0.03,-0.09,1.03,1000
16:50:29.535,-5.41,1.19,-113.98,1.89,-3.29,2.62,-0.02,-0.09,1.03,1000
16:50:29.546,-5.38,1.16,-113.95,2.13,-3.84,3.41,-0.02,-0.1,1.02,1000
16:50:29.557,-5.36,1.12,-113.91,2.32,-3.6,3.54,-0.02,-0.1,1.02,1000
16:50:29.568,-5.34,1.08,-113.87,2.38,-2.99,3.35,-0.02,-0.09,1.02,1000
16:50:29.582,-5.32,1.04,-113.84,2.2,-2.5,2.07,-0.01,-0.1,1.02,1000
16:50:29.620,-5.3,1.02,-113.82,1.77,-2.01,1.34,-0.02,-0.09,1.02,1000
16:50:29.620,-5.28,0.99,-113.81,0.91,-1.46,0.37,-0.01,-0.09,1.02,1000
16:50:29.620,-5.25,0.96,-113.81,-0.06,-1.16,-0.24,-0.01,-0.09,1.01,1000
16:50:29.641,-5.22,0.93,-113.82,-1.16,-0.67,-0.79,-0.01,-0.08,1.02,1000
16:50:29.643,-5.2,0.91,-113.83,-2.32,-0.49,-1.46,-0.02,-0.08,1.02,1000
16:50:29.645,-5.19,0.91,-113.85,-3.66,-0.12,-1.95,-0.02,-0.09,1.02,1000
16:50:29.656,-5.2,0.93,-113.87,-4.21,-0.18,-1.95,-0.02,-0.09,1.02,1000
16:50:29.673,-5.22,0.95,-113.9,-4.33,0.12,-2.38,-0.03,-0.09,1.02,1000
16:50:29.679,-5.25,0.99,-113.92,-3.84,0.12,-2.68,-0.03,-0.09,1.03,1000
16:50:29.689,-5.28,1.02,-113.95,-2.74,0.18,-2.99,-0.03,-0.1,1.03,1000
16:50:29.700,-5.3,1.05,-113.99,-1.59,0.0,-3.72,-0.03,-0.1,1.03,1000
16:50:29.715,-5.31,1.07,-114.04,-0.18,-0.12,-4.27,-0.02,-0.1,1.03,1000
16:50:29.722,-5.31,1.08,-114.09,1.04,-0.12,-4.7,-0.02,-0.09,1.03,1000
16:50:29.733,-5.29,1.07,-114.14,2.2,-0.24,-4.57,-0.02,-0.09,1.03,1000
16:50:29.744,-5.26,1.07,-114.19,2.56,-0.55,-4.21,-0.02,-0.09,1.02,1000
16:50:29.755,-5.22,1.07,-114.23,2.87,-0.79,-3.48,-0.02,-0.09,1.03,1000
16:50:29.766,-5.19,1.07,-114.26,2.93,-0.85,-2.74,-0.02,-0.09,1.02,1000
16:50:29.779,-5.15,1.07,-114.29,2.99,-0.91,-1.77,-0.02,-0.09,1.02,1000
16:50:29.789,-5.11,1.07,-114.31,2.56,-1.1,-1.28,-0.02,-0.1,1.03,1000
16:50:29.799,-5.09,1.08,-114.32,2.38,-0.85,-0.91,-0.02,-0.09,1.02,1000
16:50:29.813,-5.06,1.08,-114.33,1.77,-0.98,-0.3,-0.02,-0.09,1.02,1000
16:50:29.821,-5.05,1.08,-114.33,1.65,-0.79,0.0,-0.01,-0.09,1.02,1000
16:50:29.832,-5.04,1.06,-114.32,1.22,-0.3,0.37,-0.01,-0.09,1.02,1000
16:50:29.845,-5.04,1.03,-114.32,0.79,0.24,0.37,-0.01,-0.1,1.02,1000
16:50:29.855,-5.04,1.0,-114.32,0.49,0.79,0.06,-0.01,-0.1,1.02,1000
16:50:29.866,-5.06,0.99,-114.32,0.37,1.04,-0.37,-0.01,-0.1,1.02,1000
16:50:29.876,-5.09,0.99,-114.33,0.43,1.77,-1.28,-0.02,-0.1,1.03,1000
16:50:29.889,-5.12,1.0,-114.35,0.67,2.2,-1.95,-0.03,-0.1,1.02,1000
16:50:29.899,-5.14,1.04,-114.37,0.85,2.38,-1.95,-0.03,-0.09,1.02,1000
16:50:29.915,-5.14,1.09,-114.39,1.34,2.8,-2.01,-0.02,-0.09,1.02,1000
16:50:29.921,-5.13,1.15,-114.42,1.77,3.29,-2.01,-0.02,-0.08,1.02,1000
16:50:29.931,-5.09,1.2,-114.43,1.59,3.35,-1.83,-0.02,-0.07,1.02,1000
16:50:29.943,-5.03,1.24,-114.45,0.85,2.99,-1.28,-0.02,-0.07,1.03,1000
16:50:29.953,-4.96,1.27,-114.46,-0.43,2.5,-0.3,-0.02,-0.07,1.03,1000
16:50:29.964,-4.92,1.3,-114.46,-2.26,1.59,0.67,-0.02,-0.08,1.03,1000
16:50:29.975,-4.91,1.31,-114.45,-4.09,0.3,1.89,-0.03,-0.09,1.03,1000
16:50:29.987,-4.94,1.32,-114.42,-5.18,-0.79,2.44,-0.02,-0.1,1.03,1000
16:50:29.997,-5.0,1.31,-114.39,-5.79,-1.95,2.44,-0.03,-0.1,1.03,1000
16:50:30.021,-5.09,1.3,-114.37,-5.67,-3.11,2.26,-0.03,-0.1,1.04,1000
16:50:30.021,-5.17,1.28,-114.35,-5.12,-4.21,1.4,-0.03,-0.11,1.04,1000
16:50:30.030,-5.25,1.25,-114.34,-3.66,-5.43,0.12,-0.04,-0.11,1.03,1000
16:50:30.041,-5.32,1.24,-114.34,-1.77,-6.28,-0.49,-0.03,-0.1,1.04,1000
16:50:30.052,-5.34,1.21,-114.35,0.12,-7.01,-1.04,-0.03,-0.1,1.04,1000
16:50:30.063,-5.34,1.17,-114.36,1.65,-7.2,-1.22,-0.02,-0.1,1.03,1000
16:50:30.074,-5.32,1.11,-114.37,2.87,-6.89,-0.91,-0.02,-0.1,1.03,1000
16:50:30.086,-5.28,1.05,-114.38,3.48,-6.1,-0.55,-0.02,-0.09,1.02,1000
16:50:30.096,-5.23,1.0,-114.39,3.72,-5.18,-0.12,-0.01,-0.09,1.02,1000
16:50:30.107,-5.18,0.95,-114.39,3.54,-3.96,0.18,-0.02,-0.09,1.02,1000
16:50:30.124,-5.13,0.92,-114.39,2.68,-2.99,0.67,-0.02,-0.09,1.02,1000
16:50:30.129,-5.09,0.9,-114.38,1.65,-1.95,1.16,-0.02,-0.08,1.02,1000
16:50:30.140,-5.05,0.89,-114.36,0.67,-0.49,1.59,-0.02,-0.08,1.01,1000
16:50:30.151,-5.03,0.9,-114.34,-0.3,0.49,2.07,-0.02,-0.08,1.02,1000
16:50:30.162,-5.02,0.91,-114.32,-1.1,1.28,2.44,-0.01,-0.08,1.01,1000
16:50:30.173,-5.02,0.92,-114.29,-1.46,1.83,2.62,-0.01,-0.09,1.01,1000
16:50:30.184,-5.02,0.93,-114.26,-1.52,2.38,2.38,-0.01,-0.09,1.02,1000
16:50:30.198,-5.03,0.93,-114.24,-1.04,2.01,2.44,-0.01,-0.09,1.02,1000
16:50:30.208,-5.03,0.93,-114.21,-0.73,1.71,2.44,-0.01,-0.09,1.02,1000
16:50:30.219,-5.03,0.93,-114.19,-0.67,1.1,1.95,-0.02,-0.09,1.02,1000
16:50:30.228,-5.04,0.93,-114.17,-0.67,0.49,1.59,-0.01,-0.09,1.02,1000
16:50:30.239,-5.05,0.93,-114.15,-0.37,0.06,1.28,-0.02,-0.09,1.02,1000
16:50:30.250,-5.07,0.92,-114.14,0.12,-0.06,0.67,-0.01,-0.1,1.02,1000
16:50:30.261,-5.08,0.91,-114.14,0.43,-0.3,0.3,-0.01,-0.09,1.02,1000
16:50:30.272,-5.09,0.9,-114.14,0.85,-0.49,0.06,-0.01,-0.09,1.02,1000
16:50:30.285,-5.09,0.88,-114.14,0.85,-0.85,0.24,-0.01,-0.09,1.03,1000
16:50:30.294,-5.08,0.85,-114.14,0.85,-0.98,0.37,-0.01,-0.09,1.03,1000
16:50:30.305,-5.05,0.84,-114.13,0.43,-1.16,0.61,-0.02,-0.08,1.03,1000
16:50:30.317,-5.03,0.83,-114.12,-0.24,-1.16,1.22,-0.02,-0.08,1.04,1000
16:50:30.327,-5.0,0.82,-114.11,-1.1,-0.98,1.52,-0.02,-0.08,1.03,1000
16:50:30.338,-5.0,0.82,-114.09,-1.46,-0.91,2.26,-0.02,-0.09,1.03,1000
16:50:30.349,-5.0,0.83,-114.06,-1.52,-1.04,2.68,-0.02,-0.09,1.03,1000
16:50:30.360,-5.01,0.85,-114.03,-1.1,-1.16,2.99,-0.02,-0.09,1.03,1000
16:50:30.371,-5.02,0.85,-114.0,-0.24,-0.73,2.62,-0.02,-0.1,1.03,1000
16:50:30.382,-5.02,0.86,-113.97,0.98,-0.3,1.59,-0.01,-0.09,1.03,1000
16:50:30.393,-5.02,0.86,-113.96,2.26,0.12,0.79,-0.01,-0.09,1.03,1000
16:50:30.405,-4.99,0.85,-113.95,2.93,0.43,0.18,-0.01,-0.09,1.03,1000
16:50:30.415,-4.95,0.84,-113.95,3.29,0.79,-0.55,-0.01,-0.09,1.03,1000
16:50:30.428,-4.9,0.83,-113.96,3.11,1.1,-0.79,-0.01,-0.08,1.03,1000
16:50:30.437,-4.85,0.83,-113.97,2.38,1.1,-0.85,-0.02,-0.09,1.03,1000
16:50:30.448,-4.8,0.85,-113.98,1.65,0.49,-0.49,-0.02,-0.08,1.02,1000
16:50:30.459,-4.77,0.87,-113.98,0.91,0.18,-0.37,-0.02,-0.08,1.02,1000
16:50:30.470,-4.74,0.88,-113.99,0.12,-0.18,-0.43,-0.02,-0.08,1.02,1000
16:50:30.481,-4.72,0.88,-113.99,-0.73,-0.49,-0.73,-0.02,-0.08,1.02,1000
16:50:30.492,-4.71,0.88,-114.0,-1.83,-1.1,-0.67,-0.01,-0.08,1.02,1000
16:50:30.505,-4.71,0.86,-114.01,-2.56,-1.46,-0.61,-0.01,-0.08,1.02,1000
16:50:30.514,-4.74,0.84,-114.02,-3.11,-1.77,-0.49,-0.01,-0.09,1.02,1000
16:50:30.532,-4.76,0.81,-114.02,-2.93,-1.83,-0.85,-0.0,-0.09,1.02,1000
16:50:30.536,-4.81,0.78,-114.03,-2.68,-1.71,-1.34,-0.01,-0.09,1.03,1000
16:50:30.547,-4.84,0.74,-114.05,-2.62,-1.71,-1.71,-0.0,-0.09,1.02,1000
16:50:30.558,-4.87,0.7,-114.08,-2.2,-1.83,-2.32,-0.01,-0.08,1.03,1000
16:50:30.570,-4.89,0.66,-114.1,-2.38,-2.2,-2.99,-0.01,-0.08,1.02,1000
16:50:30.580,-4.9,0.64,-114.13,-2.2,-2.5,-2.99,-0.01,-0.09,1.02,1000
16:50:30.593,-4.92,0.62,-114.17,-1.89,-2.2,-3.35,-0.01,-0.09,1.03,1000
16:50:30.603,-4.94,0.61,-114.21,-1.83,-1.77,-3.54,-0.01,-0.09,1.03,1000
16:50:30.613,-4.95,0.61,-114.24,-1.71,-1.77,-3.29,-0.01,-0.09,1.03,1000
16:50:30.624,-4.97,0.6,-114.28,-1.4,-2.01,-2.68,-0.01,-0.1,1.03,1000
16:50:30.635,-5.0,0.58,-114.31,-0.43,-2.07,-2.32,-0.01,-0.1,1.03,1000
16:50:30.646,-5.03,0.57,-114.33,1.16,-2.44,-2.93,-0.03,-0.11,1.04,1000
16:50:30.657,-5.06,0.58,-114.37,2.87,-2.56,-4.15,-0.02,-0.11,1.05,1000
16:50:30.669,-5.04,0.56,-114.43,5.24,-2.56,-5.24,0.0,-0.08,1.04,1000
16:50:30.679,-4.99,0.52,-114.49,5.37,-3.66,-4.88,-0.0,-0.09,1.05,1000
16:50:30.690,-4.95,0.45,-114.53,3.78,-5.43,-3.35,0.0,-0.09,1.06,1000
16:50:30.701,-4.92,0.36,-114.56,0.91,-7.38,-1.28,0.01,-0.09,1.05,1000
16:50:30.713,-4.92,0.25,-114.56,-0.85,-8.78,1.1,-0.0,-0.11,1.05,1000
16:50:30.723,-4.93,0.15,-114.53,-1.65,-10.06,3.35,-0.01,-0.07,1.04,1000
16:50:30.738,-4.97,0.07,-114.49,-2.07,-9.7,5.12,-0.01,-0.1,1.03,1000
16:50:30.747,-5.02,0.01,-114.43,-0.91,-8.11,5.85,-0.01,-0.11,1.01,1000
16:50:30.756,-5.06,-0.04,-114.36,-1.52,-4.82,7.2,0.01,-0.08,1.02,1000
16:50:30.767,-5.13,-0.06,-114.27,-2.68,0.55,8.23,-0.0,-0.12,0.98,1000
16:50:30.779,-5.3,0.02,-114.18,-3.23,9.33,7.38,-0.01,-0.13,0.98,1000
16:50:30.789,-5.45,0.17,-114.11,-5.3,17.93,6.59,0.02,-0.1,0.99,1000
16:50:30.800,-5.55,0.37,-114.03,-9.76,26.52,6.83,0.02,-0.06,0.99,1000
16:50:30.812,-5.64,0.63,-113.95,-15.61,33.17,8.41,0.01,-0.05,0.99,1000
16:50:30.823,-5.74,0.96,-113.84,-21.95,37.26,11.04,-0.0,-0.05,1.0,1000
16:50:30.846,-5.8,1.25,-113.71,-27.74,38.6,13.9,-0.02,-0.06,1.0,1000
16:50:30.849,-5.99,1.62,-113.55,-32.38,39.15,16.52,-0.04,-0.1,1.0,1000
16:50:30.855,-6.29,2.04,-113.36,-33.48,38.66,17.99,-0.08,-0.13,0.98,1000
16:50:30.866,-6.66,2.56,-113.16,-26.89,37.44,16.89,-0.13,-0.17,0.98,1000
16:50:30.877,-7.04,3.21,-113.0,-13.29,34.7,12.38,-0.17,-0.18,1.02,1000
16:50:30.888,-7.24,3.9,-112.89,4.63,30.06,6.46,-0.1,-0.13,1.12,1000
16:50:30.899,-7.14,4.32,-112.83,20.67,22.56,4.27,-0.06,-0.11,1.14,1000
16:50:30.913,-6.8,4.51,-112.79,37.13,11.83,4.51,-0.06,-0.1,1.13,1000
16:50:30.921,-6.21,4.52,-112.72,50.79,-0.79,6.77,-0.04,-0.07,1.14,1000
16:50:30.941,-5.59,4.36,-112.64,55.98,-9.76,9.76,-0.03,-0.07,1.12,1000
16:50:30.946,-4.83,4.05,-112.51,53.54,-17.2,12.93,-0.02,-0.05,1.09,1000
16:50:30.954,-4.25,3.71,-112.37,46.16,-18.9,14.88,-0.02,-0.05,1.02,1000
16:50:30.965,-3.75,3.4,-112.2,35.49,-17.32,14.7,-0.08,-0.05,0.99,1000
16:50:30.976,-3.36,3.24,-112.05,25.55,-13.96,10.67,-0.15,-0.09,0.95,1000
16:50:30.987,-3.23,3.47,-111.97,21.04,-11.28,2.5,-0.25,-0.12,0.95,1000
16:50:30.998,-3.15,3.9,-112.0,17.8,-9.21,-7.74,-0.15,-0.02,1.01,1000
16:50:31.009,-2.98,4.11,-112.1,13.84,-7.99,-10.49,-0.07,-0.01,1.03,1000
16:50:31.020,-2.79,4.19,-112.21,10.0,-7.68,-9.15,-0.04,-0.02,1.01,1000
16:50:31.033,-2.65,4.08,-112.29,4.09,-8.54,-4.7,0.0,-0.05,1.01,1000
16:50:31.046,-2.64,3.76,-112.3,-9.02,-8.9,3.48,0.05,-0.04,1.0,1000
16:50:31.053,-2.77,3.31,-112.24,-21.34,-7.07,8.72,0.08,-0.07,0.97,1000
16:50:31.064,-3.07,2.82,-112.14,-26.52,-3.96,9.02,0.02,-0.14,0.9,1000
16:50:31.079,-3.61,2.49,-112.06,-28.48,1.89,3.6,-0.01,-0.08,0.99,1000
16:50:31.086,-4.0,2.35,-112.05,-27.56,2.13,-1.71,-0.04,-0.08,1.0,1000
16:50:31.101,-4.33,2.24,-112.09,-25.24,-0.06,-4.94,0.01,-0.08,1.06,1000
16:50:31.108,-4.6,2.13,-112.15,-21.89,-1.34,-5.3,0.03,-0.1,1.06,1000
16:50:31.122,-4.85,1.9,-112.2,-19.09,-2.8,-3.35,0.06,-0.12,1.07,1000
16:50:31.130,-5.11,1.59,-112.22,-17.56,-2.74,0.79,0.09,-0.11,1.07,1000
16:50:31.146,-5.33,1.24,-112.2,-16.52,-1.28,2.8,0.06,-0.14,1.03,1000
16:50:31.152,-5.62,0.96,-112.17,-13.84,0.67,0.18,-0.04,-0.13,1.04,1000
16:50:31.163,-5.86,0.9,-112.21,-6.46,0.91,-6.28,-0.08,-0.15,1.0,1000
16:50:31.174,-6.05,1.02,-112.3,2.07,-0.73,-13.35,-0.1,-0.15,1.08,1000
16:50:31.185,-6.1,1.19,-112.47,12.5,-4.51,-17.56,-0.06,-0.09,1.05,1000
16:50:31.196,-5.92,1.23,-112.67,19.51,-8.29,-17.07,0.0,-0.06,1.12,1000
16:50:31.207,-5.62,1.09,-112.84,23.29,-10.98,-14.15,0.03,-0.1,1.03,1000
16:50:31.222,-5.33,0.83,-112.98,22.38,-9.45,-10.79,0.06,-0.07,1.06,1000
16:50:31.229,-5.03,0.53,-113.1,17.56,-4.45,-9.7,0.02,-0.09,0.96,1000
16:50:31.248,-4.87,0.39,-113.21,13.48,1.16,-13.6,-0.04,-0.1,0.97,1000
16:50:31.251,-4.73,0.43,-113.39,9.45,6.1,-18.96,-0.04,-0.04,0.96,1000
16:50:31.262,-4.57,0.57,-113.62,4.63,9.82,-24.45,-0.06,-0.06,0.99,1000
16:50:31.273,-4.45,0.88,-113.92,2.99,10.06,-30.24,-0.1,-0.05,0.97,1000
16:50:31.284,-4.32,1.18,-114.28,3.29,6.4,-33.6,-0.08,-0.02,1.01,1000
16:50:31.295,-4.16,1.41,-114.65,3.48,0.85,-34.21,-0.06,-0.04,0.98,1000
16:50:31.306,-4.02,1.53,-115.02,3.17,-4.15,-32.44,-0.04,-0.04,0.99,1000
16:50:31.324,-3.88,1.54,-115.39,0.91,-8.17,-28.66,-0.04,-0.03,0.99,1000
16:50:31.328,-3.72,1.52,-115.69,-3.66,-9.94,-25.67,-0.03,-0.03,0.99,1000
16:50:31.353,-3.63,1.49,-115.93,-7.2,-10.49,-23.66,-0.08,-0.04,0.98,1000
16:50:31.353,-3.58,1.51,-116.21,-10.18,-9.21,-22.5,-0.07,0.01,1.01,1000
16:50:31.365,-3.49,1.59,-116.43,-12.87,-7.44,-20.91,-0.08,-0.02,1.05,1000
16:50:31.372,-3.48,1.67,-116.67,-14.82,-5.18,-19.09,-0.08,-0.02,1.04,1000
16:50:31.383,-3.46,1.8,-116.85,-15.18,-3.11,-16.34,-0.06,-0.03,1.08,1000
16:50:31.394,-3.48,1.9,-117.01,-16.46,-0.18,-12.87,-0.06,-0.06,1.06,1000
16:50:31.405,-3.57,2.0,-117.14,-17.01,2.99,-9.51,-0.06,-0.05,1.08,1000
16:50:31.425,-3.69,2.16,-117.23,-13.54,5.06,-7.87,-0.11,-0.11,1.01,1000
16:50:31.432,-3.86,2.46,-117.33,-7.99,5.73,-8.29,-0.13,-0.09,1.06,1000
16:50:31.438,-3.93,2.77,-117.41,-2.44,4.09,-8.29,-0.11,-0.06,1.04,1000
16:50:31.453,-3.89,3.04,-117.5,4.82,0.24,-6.22,-0.08,-0.07,1.05,1000
16:50:31.460,-3.8,3.16,-117.56,10.37,-3.54,-4.27,-0.07,-0.06,1.01,1000
16:50:31.471,-3.65,3.22,-117.59,14.27,-7.62,-2.26,-0.06,-0.06,1.01,1000
16:50:31.482,-3.47,3.19,-117.61,15.43,-10.67,-1.34,-0.05,-0.06,0.98,1000
16:50:31.493,-3.3,3.12,-117.63,17.87,-13.05,-2.2,-0.11,-0.08,0.91,1000
16:50:31.504,-3.12,3.21,-117.69,22.68,-16.1,-7.99,-0.14,-0.02,0.94,1000
16:50:31.515,-2.79,3.29,-117.79,23.48,-18.23,-10.67,-0.05,0.03,0.99,1000
16:50:31.529,-2.37,3.19,-117.9,21.59,-18.48,-10.06,-0.02,0.0,0.96,1000
16:50:31.537,-1.97,2.99,-118.01,18.11,-16.04,-8.29,0.01,0.01,0.94,1000
16:50:31.555,-1.64,2.74,-118.08,12.5,-11.28,-5.98,0.04,0.02,0.94,1000
16:50:31.560,-1.31,2.39,-118.14,3.05,-3.6,-3.96,0.04,0.02,0.92,1000
16:50:31.570,-1.11,2.14,-118.18,-4.63,4.09,-3.72,0.01,0.02,0.9,1000
16:50:31.581,-1.03,2.04,-118.22,-11.59,12.13,-5.24,-0.03,-0.0,0.9,1000
16:50:31.592,-1.02,2.13,-118.29,-17.07,18.84,-8.11,-0.04,0.03,0.92,1000
16:50:31.603,-1.03,2.35,-118.4,-21.71,22.56,-11.04,-0.05,0.01,0.96,1000
16:50:31.614,-1.12,2.66,-118.53,-23.72,21.59,-13.48,-0.08,-0.02,0.95,1000
16:50:31.626,-1.31,3.04,-118.71,-24.27,16.46,-15.79,-0.1,-0.02,1.03,1000
16:50:31.641,-1.48,3.31,-118.86,-23.72,9.94,-15.91,-0.07,-0.03,1.04,1000
16:50:31.648,-1.74,3.45,-119.04,-22.74,1.46,-12.5,-0.03,-0.11,1.08,1000
16:50:31.661,-2.1,3.4,-119.15,-21.83,-5.55,-7.32,0.01,-0.16,1.09,1000
16:50:31.669,-2.59,3.17,-119.21,-21.04,-9.15,-3.17,0.01,-0.18,1.1,1000
16:50:31.680,-3.12,2.91,-119.23,-20.49,-10.55,-1.77,-0.04,-0.18,1.1,1000
16:50:31.691,-3.65,2.76,-119.27,-18.05,-10.61,-5.85,-0.12,-0.19,1.11,1000
16:50:31.703,-4.16,2.78,-119.36,-12.44,-11.1,-12.2,-0.12,-0.19,1.11,1000
16:50:31.713,-4.52,2.79,-119.52,-5.91,-11.83,-16.52,-0.07,-0.18,1.15,1000
16:50:31.726,-4.88,2.76,-119.71,0.91,-12.32,-17.38,-0.04,-0.21,1.11,1000
16:50:31.735,-5.17,2.64,-119.9,7.68,-12.56,-15.98,-0.01,-0.23,1.11,1000
16:50:31.746,-5.53,2.43,-120.06,12.99,-12.99,-12.93,0.01,-0.22,1.06,1000
16:50:31.759,-5.8,2.16,-120.19,16.28,-13.17,-10.18,0.01,-0.22,1.04,1000
16:50:31.768,-5.99,1.92,-120.29,18.11,-12.01,-9.09,-0.02,-0.17,1.01,1000
16:50:31.779,-6.08,1.7,-120.39,17.74,-9.57,-8.23,0.01,-0.1,1.02,1000
16:50:31.790,-5.99,1.47,-120.48,14.88,-5.49,-6.77,0.03,-0.09,1.02,1000
16:50:31.801,-5.87,1.27,-120.54,12.13,-0.85,-5.73,0.0,-0.08,1.0,1000
16:50:31.812,-5.7,1.17,-120.6,8.35,4.21,-4.82,0.0,-0.06,1.03,1000
16:50:31.823,-5.54,1.12,-120.65,2.87,7.87,-2.62,0.02,-0.06,1.03,1000
16:50:31.836,-5.43,1.08,-120.66,-2.99,9.51,1.04,0.03,-0.07,1.03,1000
16:50:31.845,-5.38,1.0,-120.62,-8.78,9.76,5.98,0.04,-0.07,1.03,1000
16:50:31.862,-5.43,0.89,-120.53,-15.43,8.66,11.16,0.04,-0.1,1.03,1000
16:50:31.867,-5.59,0.81,-120.39,-21.28,7.5,14.45,0.01,-0.1,1.05,1000
16:50:31.878,-5.81,0.76,-120.22,-25.61,6.04,16.1,-0.02,-0.1,1.05,1000
16:50:31.889,-6.06,0.78,-120.04,-26.16,4.15,16.52,-0.04,-0.1,1.04,1000
16:50:31.900,-6.3,0.86,-119.87,-24.51,1.71,15.12,-0.06,-0.09,1.08,1000
16:50:31.911,-6.45,0.96,-119.7,-21.95,-1.65,14.33,-0.03,-0.07,1.09,1000
16:50:31.924,-6.54,0.98,-119.53,-18.6,-5.49,15.49,-0.01,-0.1,1.11,1000
16:50:31.939,-6.61,0.91,-119.37,-14.57,-7.93,17.32,0.0,-0.13,1.07,1000
16:50:31.944,-6.7,0.76,-119.17,-10.67,-9.02,18.6,0.02,-0.13,1.1,1000
16:50:31.955,-6.8,0.58,-118.96,-7.87,-8.84,18.96,0.02,-0.14,1.08,1000
16:50:31.971,-6.88,0.42,-118.76,-5.18,-7.44,17.44,0.02,-0.13,1.07,1000
16:50:31.979,-6.94,0.27,-118.58,-2.93,-5.0,14.45,0.01,-0.14,1.06,1000
16:50:31.988,-6.97,0.18,-118.44,-0.85,-1.77,10.43,-0.0,-0.12,1.05,1000
16:50:31.999,-7.0,0.15,-118.35,1.71,1.28,5.0,-0.02,-0.17,1.02,1000
16:50:32.011,-7.06,0.23,-118.33,4.82,2.99,-1.65,-0.05,-0.15,1.03,1000
16:50:32.041,-7.07,0.33,-118.37,7.8,2.8,-6.71,-0.01,-0.14,1.04,1000
16:50:32.041,-7.05,0.38,-118.47,9.88,0.37,-8.66,0.01,-0.15,1.04,1000
16:50:32.044,-7.02,0.32,-118.56,11.59,-3.29,-8.54,0.03,-0.13,1.02,1000
16:50:32.076,-6.94,0.19,-118.64,11.59,-6.52,-7.68,0.04,-0.13,1.04,1000
16:50:32.076,-6.86,-0.01,-118.72,9.21,-8.96,-6.59,0.04,-0.12,1.02,1000
16:50:32.076,-6.78,-0.25,-118.79,5.24,-8.9,-6.28,0.04,-0.1,1.02,1000
16:50:32.087,-6.71,-0.49,-118.87,1.16,-7.01,-7.32,0.02,-0.1,1.0,1000
16:50:32.098,-6.66,-0.63,-118.95,-1.46,-4.63,-9.15,0.01,-0.1,0.99,1000
16:50:32.109,-6.62,-0.71,-119.06,-2.38,-2.13,-11.83,-0.01,-0.1,0.97,1000
16:50:32.120,-6.59,-0.68,-119.21,-2.07,-0.91,-14.88,-0.04,-0.09,0.99,1000
16:50:32.131,-6.53,-0.55,-119.38,-1.28,-1.22,-16.59,-0.03,-0.09,1.0,1000
16:50:32.144,-6.46,-0.46,-119.58,-1.04,-3.05,-15.3,0.01,-0.1,1.03,1000
16:50:32.153,-6.41,-0.46,-119.72,-1.1,-4.63,-12.01,0.02,-0.11,1.01,1000
16:50:32.171,-6.39,-0.53,-119.83,-1.4,-5.67,-7.56,0.03,-0.12,1.02,1000
16:50:32.175,-6.4,-0.64,-119.89,-3.05,-5.3,-3.29,0.03,-0.11,1.01,1000
16:50:32.186,-6.44,-0.74,-119.92,-5.55,-3.6,-0.79,0.01,-0.11,1.01,1000
16:50:32.197,-6.51,-0.77,-119.92,-7.62,-0.85,-0.55,-0.01,-0.12,1.0,1000
16:50:32.208,-6.59,-0.73,-119.93,-7.8,2.2,-1.4,-0.01,-0.11,1.0,1000
16:50:32.219,-6.65,-0.62,-119.96,-6.59,4.02,-2.56,-0.01,-0.1,1.01,1000
16:50:32.230,-6.65,-0.51,-119.99,-4.63,4.82,-3.96,-0.01,-0.11,1.02,1000
16:50:32.246,-6.65,-0.4,-120.04,-1.4,5.24,-5.55,-0.0,-0.1,1.03,1000
16:50:32.253,-6.61,-0.32,-120.1,0.79,5.55,-6.16,0.01,-0.11,1.04,1000
16:50:32.268,-6.55,-0.26,-120.17,2.99,6.16,-6.83,0.02,-0.11,1.02,1000
16:50:32.276,-6.47,-0.22,-120.25,4.51,6.83,-8.17,0.01,-0.1,1.04,1000
16:50:32.285,-6.36,-0.17,-120.35,5.12,7.8,-9.88,0.02,-0.1,1.03,1000
16:50:32.296,-6.26,-0.12,-120.47,5.06,9.02,-11.89,0.01,-0.12,1.03,1000
16:50:32.307,-6.19,-0.04,-120.62,5.0,10.73,-15.37,-0.02,-0.11,1.05,1000
16:50:32.318,-6.13,0.08,-120.8,4.45,11.59,-18.96,0.0,-0.11,1.05,1000
16:50:32.330,-6.09,0.18,-121.02,4.57,12.2,-21.16,0.02,-0.13,1.04,1000
16:50:32.340,-6.07,0.25,-121.26,5.18,12.44,-22.13,0.04,-0.13,1.04,1000
16:50:32.351,-6.07,0.27,-121.51,5.12,12.99,-23.17,0.05,-0.13,1.04,1000
16:50:32.362,-6.11,0.18,-121.77,3.54,14.33,-23.9,0.07,-0.14,1.03,1000
16:50:32.379,-6.18,0.05,-122.03,1.95,16.34,-24.39,0.1,-0.14,1.01,1000
16:50:32.384,-6.23,-0.09,-122.3,-1.4,19.57,-25.55,0.09,-0.11,1.0,1000
16:50:32.395,-6.32,-0.18,-122.61,-2.8,21.95,-30.43,0.02,-0.19,0.96,1000
16:50:32.406,-6.57,-0.08,-123.03,3.23,22.38,-41.89,-0.11,-0.24,0.94,1000
16:50:32.418,-6.78,0.26,-123.5,8.54,23.11,-54.33,-0.03,-0.08,1.08,1000
16:50:32.428,-6.69,0.53,-124.13,11.16,23.29,-60.73,0.09,-0.05,1.11,1000
16:50:32.439,-6.51,0.53,-124.81,13.72,18.6,-62.62,0.11,-0.15,1.15,1000
16:50:32.451,-6.36,0.38,-125.51,19.09,11.28,-64.57,0.1,-0.14,1.09,1000
16:50:32.461,-6.17,0.13,-126.24,22.32,4.45,-67.8,0.09,-0.1,1.12,1000
16:50:32.478,-5.88,-0.28,-127.01,19.63,-0.18,-72.8,0.12,-0.06,1.1,1000
16:50:32.483,-5.6,-0.66,-127.83,16.4,-1.59,-77.5,0.08,-0.1,1.0,1000
16:50:32.494,-5.49,-0.92,-128.73,13.54,-0.61,-89.02,-0.06,-0.17,1.02,1000
16:50:32.505,-5.47,-0.86,-129.78,12.38,2.74,-104.09,-0.1,-0.1,1.01,1000
16:50:32.516,-5.4,-0.6,-131.0,11.59,8.05,-118.72,-0.08,-0.1,1.08,1000
16:50:32.527,-5.29,-0.28,-132.35,13.6,11.77,-128.11,-0.0,-0.09,1.09,1000
16:50:32.539,-5.14,-0.09,-133.9,19.39,12.01,-129.02,0.04,-0.14,1.12,1000
16:50:32.552,-5.03,-0.05,-135.31,26.83,9.76,-125.55,0.03,-0.17,1.08,1000
16:50:32.560,-4.89,-0.07,-136.54,33.05,7.13,-120.61,0.03,-0.15,1.09,1000
16:50:32.578,-4.73,-0.16,-137.84,36.28,5.85,-114.09,0.02,-0.1,1.03,1000
16:50:32.582,-4.45,-0.22,-139.17,34.21,5.55,-107.26,-0.02,-0.05,1.02,1000
16:50:32.593,-4.16,-0.13,-140.22,31.71,4.76,-103.6,-0.11,-0.08,0.94,1000
16:50:32.604,-3.85,0.24,-141.36,29.57,2.8,-103.48,-0.21,-0.03,0.99,1000
16:50:32.615,-3.42,0.89,-142.49,28.84,-1.1,-101.71,-0.19,0.0,0.99,1000
16:50:32.626,-2.95,1.47,-143.59,28.11,-5.79,-95.85,-0.12,-0.01,1.05,1000
16:50:32.638,-2.5,1.81,-144.59,30.43,-9.57,-84.76,-0.06,-0.02,1.01,1000
16:50:32.649,-2.1,1.86,-145.46,31.1,-10.61,-71.34,-0.01,-0.05,1.04,1000
16:50:32.660,-1.81,1.77,-146.17,29.63,-8.29,-56.46,0.01,-0.09,0.98,1000
16:50:32.679,-1.66,1.63,-146.73,26.34,-3.17,-44.02,-0.0,-0.08,0.99,1000
16:50:32.681,-1.62,1.57,-147.2,20.61,6.22,-34.33,-0.05,-0.04,0.95,1000
16:50:32.692,-1.56,1.73,-147.52,14.7,15.12,-30.12,-0.09,0.0,0.96,1000
16:50:32.703,-1.4,2.11,-147.84,6.04,24.7,-27.74,-0.09,0.04,0.96,1000
16:50:32.714,-1.27,2.58,-148.14,-0.06,31.95,-26.77,-0.14,-0.01,0.91,1000
16:50:32.725,-1.21,3.19,-148.44,-2.62,35.79,-27.13,-0.15,0.03,0.96,1000
16:50:32.736,-1.07,3.87,-148.73,-5.37,36.65,-25.37,-0.11,0.04,0.96,1000
16:50:32.749,-0.94,4.48,-148.99,-7.26,34.33,-21.89,-0.11,0.0,0.95,1000
16:50:32.762,-0.91,5.01,-149.24,-9.02,29.09,-18.23,-0.1,0.02,0.96,1000
16:50:32.772,-0.9,5.35,-149.41,-11.83,23.41,-15.24,-0.11,0.01,0.96,1000
16:50:32.783,-0.93,5.67,-149.56,-15.73,16.22,-13.48,-0.14,0.0,0.95,1000
16:50:32.791,-1.03,5.92,-149.71,-20.43,8.78,-13.29,-0.15,0.0,0.96,1000
16:50:32.802,-1.18,6.16,-149.86,-24.39,2.32,-14.15,-0.16,-0.01,0.96,1000
16:50:32.814,-1.39,6.36,-150.02,-26.34,-3.6,-15.67,-0.17,-0.01,0.97,1000
16:50:32.824,-1.57,6.56,-150.2,-26.65,-8.23,-16.83,-0.16,0.01,0.99,1000
16:50:32.835,-1.73,6.69,-150.39,-25.67,-11.59,-17.44,-0.19,0.0,1.0,1000
16:50:32.848,-1.86,6.8,-150.58,-23.78,-13.41,-17.07,-0.15,0.01,1.01,1000
16:50:32.858,-1.99,6.78,-150.76,-22.07,-13.54,-12.5,-0.08,-0.03,1.03,1000
16:50:32.868,-2.14,6.66,-150.86,-20.67,-10.85,-6.46,-0.05,-0.08,1.02,1000
16:50:32.882,-2.4,6.44,-150.9,-18.96,-5.06,1.16,-0.03,-0.09,1.03,1000
16:50:32.892,-2.71,6.22,-150.85,-18.11,2.56,7.68,-0.03,-0.1,1.02,1000
16:50:32.901,-3.05,6.05,-150.75,-17.93,10.85,11.89,-0.07,-0.08,1.02,1000
16:50:32.912,-3.35,6.05,-150.6,-17.5,17.56,12.68,-0.11,-0.06,1.03,1000
16:50:32.926,-3.54,6.17,-150.47,-17.26,20.67,11.59,-0.12,-0.05,1.04,1000
16:50:32.934,-3.69,6.38,-150.35,-16.95,20.79,10.24,-0.13,-0.06,1.05,1000
16:50:32.946,-3.84,6.64,-150.24,-15.49,17.56,8.05,-0.14,-0.08,1.04,1000
16:50:32.957,-4.0,6.86,-150.16,-14.21,12.87,6.16,-0.14,-0.1,1.05,1000
16:50:32.967,-4.19,7.01,-150.1,-13.41,6.16,4.33,-0.13,-0.12,1.05,1000
16:50:32.981,-4.42,7.07,-150.06,-12.32,0.12,3.48,-0.12,-0.13,1.05,1000
16:50:32.990,-4.68,7.03,-150.03,-10.61,-6.65,2.56,-0.12,-0.12,1.06,1000
16:50:33.000,-4.87,6.92,-150.01,-9.15,-11.95,1.83,-0.1,-0.12,1.05,1000
16:50:33.011,-5.08,6.69,-149.99,-7.44,-15.85,1.46,-0.09,-0.12,1.06,1000
16:50:33.022,-5.26,6.41,-149.97,-5.85,-17.32,0.85,-0.09,-0.12,1.05,1000
16:50:33.033,-5.39,6.13,-149.97,-4.88,-16.52,-0.49,-0.08,-0.1,1.06,1000
16:50:33.044,-5.46,5.85,-149.98,-3.96,-13.84,-1.04,-0.06,-0.1,1.06,1000
16:50:33.056,-5.52,5.57,-149.99,-2.8,-10.43,-1.34,-0.05,-0.1,1.05,1000
16:50:33.066,-5.56,5.33,-150.0,-0.91,-6.65,-0.91,-0.04,-0.1,1.05,1000
16:50:33.083,-5.58,5.11,-150.01,0.3,-3.84,-0.55,-0.04,-0.11,1.03,1000
16:50:33.095,-5.59,4.89,-150.01,1.71,-1.4,0.3,-0.03,-0.1,1.03,1000
16:50:33.099,-5.59,4.72,-150.01,3.05,0.67,0.37,-0.05,-0.11,1.02,1000
16:50:33.110,-5.57,4.54,-150.01,4.33,1.04,0.37,-0.04,-0.09,1.02,1000
16:50:33.121,-5.5,4.39,-150.0,4.27,0.61,0.67,-0.05,-0.08,1.03,1000
16:50:33.132,-5.41,4.27,-149.99,4.15,-1.1,1.04,-0.07,-0.08,1.02,1000
16:50:33.143,-5.29,4.19,-149.98,3.96,-3.54,0.91,-0.08,-0.05,1.04,1000
16:50:33.154,-5.12,4.11,-149.97,2.32,-6.65,2.2,-0.06,-0.06,1.03,1000
16:50:33.168,-5.02,3.97,-149.93,0.67,-9.57,5.0,-0.03,-0.1,1.02,1000
16:50:33.176,-4.99,3.75,-149.86,-1.65,-10.61,8.54,-0.02,-0.09,1.02,1000
16:50:33.194,-5.04,3.48,-149.75,-5.12,-9.51,11.04,-0.03,-0.12,1.03,1000
16:50:33.201,-5.17,3.27,-149.62,-9.21,-5.98,10.79,-0.05,-0.12,1.03,1000
16:50:33.212,-5.34,3.16,-149.51,-11.28,-2.56,8.84,-0.07,-0.12,1.03,1000
16:50:33.220,-5.5,3.14,-149.43,-11.65,0.37,5.61,-0.1,-0.09,1.05,1000
16:50:33.232,-5.59,3.22,-149.39,-10.12,2.5,1.83,-0.09,-0.05,1.06,1000
16:50:33.242,-5.59,3.31,-149.38,-6.71,3.48,0.24,-0.06,-0.06,1.07,1000
16:50:33.254,-5.51,3.35,-149.38,-2.62,3.54,0.55,-0.04,-0.08,1.06,1000
16:50:33.266,-5.4,3.33,-149.37,1.65,3.54,2.2,-0.04,-0.08,1.07,1000
16:50:33.275,-5.31,3.29,-149.34,2.93,4.21,3.17,-0.04,-0.1,1.05,1000
16:50:33.286,-5.25,3.27,-149.3,3.54,5.06,3.29,-0.05,-0.1,1.05,1000
16:50:33.297,-5.23,3.28,-149.27,3.23,5.55,2.38,-0.07,-0.11,1.05,1000
16:50:33.308,-5.21,3.32,-149.25,3.11,4.94,0.73,-0.08,-0.11,1.05,1000
16:50:33.319,-5.2,3.42,-149.26,4.88,3.17,-1.83,-0.11,-0.09,1.06,1000
16:50:33.333,-5.12,3.57,-149.3,7.68,-0.37,-4.88,-0.09,-0.08,1.08,1000
16:50:33.341,-5.02,3.62,-149.35,9.27,-2.8,-5.24,-0.07,-0.11,1.07,1000
16:50:33.352,-4.94,3.59,-149.4,10.67,-4.88,-4.63,-0.05,-0.13,1.05,1000
16:50:33.363,-4.92,3.5,-149.45,11.04,-5.12,-2.99,-0.03,-0.14,1.03,1000
16:50:33.375,-4.94,3.38,-149.47,9.94,-3.17,-1.83,-0.04,-0.14,1.01,1000
16:50:33.385,-4.98,3.28,-149.49,8.84,-1.34,-2.2,-0.07,-0.08,1.02,1000
16:50:33.399,-4.93,3.24,-149.52,7.8,0.0,-3.17,-0.06,-0.04,1.01,1000
16:50:33.407,-4.78,3.22,-149.56,6.34,1.1,-3.48,-0.05,-0.04,1.01,1000
16:50:33.418,-4.62,3.21,-149.6,5.3,2.07,-3.96,-0.05,-0.04,0.99,1000
16:50:33.431,-4.45,3.22,-149.64,3.9,3.48,-4.33,-0.06,-0.06,0.99,1000
16:50:33.440,-4.35,3.25,-149.69,1.77,4.88,-5.43,-0.07,-0.07,0.98,1000
16:50:33.451,-4.3,3.34,-149.77,-0.91,5.98,-6.77,-0.07,-0.08,0.98,1000
16:50:33.463,-4.32,3.43,-149.84,-2.99,6.83,-7.32,-0.07,-0.09,0.98,1000
16:50:33.475,-4.39,3.51,-149.92,-5.12,7.56,-7.44,-0.07,-0.09,0.99,1000
16:50:33.484,-4.51,3.62,-150.01,-5.43,7.38,-7.62,-0.09,-0.11,0.98,1000
16:50:33.499,-4.65,3.76,-150.09,-4.94,6.46,-8.48,-0.11,-0.09,1.02,1000
16:50:33.507,-4.73,3.92,-150.19,-4.09,4.21,-8.72,-0.1,-0.08,1.02,1000
16:50:33.517,-4.77,4.06,-150.28,-2.5,1.59,-7.8,-0.1,-0.1,1.02,1000
16:50:33.528,-4.81,4.15,-150.36,-0.85,-0.55,-6.59,-0.09,-0.09,1.02,1000
16:50:33.540,-4.83,4.21,-150.42,0.06,-2.13,-4.39,-0.09,-0.09,1.02,1000
16:50:33.550,-4.84,4.24,-150.46,0.06,-2.74,-2.26,-0.08,-0.08,1.02,1000
16:50:33.563,-4.83,4.24,-150.47,0.37,-2.2,0.0,-0.08,-0.08,0.99,1000
16:50:33.572,-4.82,4.26,-150.47,0.3,-1.1,0.37,-0.1,-0.07,1.02,1000
16:50:33.583,-4.78,4.33,-150.47,0.67,0.24,-0.43,-0.11,-0.08,1.0,1000
16:50:33.598,-4.74,4.47,-150.48,1.89,1.16,-2.44,-0.15,-0.08,1.03,1000
16:50:33.605,-4.69,4.63,-150.52,4.15,0.73,-3.96,-0.12,-0.07,1.05,1000
16:50:33.618,-4.6,4.74,-150.55,5.73,-0.49,-2.38,-0.08,-0.09,1.06,1000
16:50:33.627,-4.55,4.77,-150.57,6.95,-1.22,0.61,-0.07,-0.11,1.04,1000
16:50:33.638,-4.54,4.74,-150.54,7.32,-1.59,3.84,-0.05,-0.12,1.03,1000
16:50:33.649,-4.61,4.62,-150.48,5.67,-0.98,7.56,-0.04,-0.11,1.02,1000
16:50:33.660,-4.67,4.5,-150.39,4.27,0.06,9.15,-0.07,-0.1,0.98,1000
16:50:33.674,-4.71,4.46,-150.29,2.87,1.1,8.54,-0.08,-0.06,0.99,1000
16:50:33.683,-4.66,4.46,-150.2,1.16,0.79,7.01,-0.08,-0.03,0.99,1000
16:50:33.693,-4.55,4.47,-150.13,0.12,0.0,5.37,-0.09,-0.03,0.99,1000
16:50:33.704,-4.38,4.5,-150.08,-1.28,-0.18,3.66,-0.08,-0.02,1.0,1000
16:50:33.717,-4.2,4.51,-150.05,-2.68,-0.18,2.2,-0.07,-0.02,1.0,1000
16:50:33.726,-4.03,4.5,-150.03,-4.33,0.3,1.1,-0.08,-0.02,1.02,1000
16:50:33.737,-3.91,4.49,-150.02,-5.91,1.4,0.3,-0.07,-0.03,1.02,1000
16:50:33.748,-3.8,4.48,-150.02,-7.13,3.11,-0.18,-0.07,-0.05,1.03,1000
16:50:33.759,-3.76,4.49,-150.03,-7.5,4.88,-1.28,-0.08,-0.07,1.03,1000
16:50:33.770,-3.79,4.54,-150.05,-7.56,6.28,-2.38,-0.09,-0.07,1.04,1000
16:50:33.782,-3.85,4.62,-150.08,-7.01,6.77,-3.6,-0.09,-0.08,1.04,1000
16:50:33.792,-3.93,4.72,-150.12,-6.59,6.83,-4.45,-0.1,-0.09,1.04,1000
16:50:33.808,-4.04,4.84,-150.17,-5.85,6.59,-5.06,-0.11,-0.1,1.04,1000
16:50:33.815,-4.13,4.97,-150.23,-4.51,5.12,-5.85,-0.13,-0.09,1.05,1000
16:50:33.825,-4.2,5.09,-150.3,-3.29,2.74,-6.46,-0.14,-0.08,1.06,1000
16:50:33.836,-4.24,5.22,-150.37,-1.83,-0.43,-6.28,-0.13,-0.08,1.06,1000
16:50:33.847,-4.28,5.29,-150.43,-0.79,-2.99,-5.06,-0.11,-0.1,1.06,1000
16:50:33.858,-4.32,5.31,-150.48,-0.06,-4.63,-2.74,-0.1,-0.1,1.05,1000
16:50:33.872,-4.39,5.3,-150.49,0.12,-5.0,-0.3,-0.1,-0.1,1.05,1000
16:50:33.883,-4.43,5.27,-150.49,-0.12,-4.51,1.59,-0.1,-0.09,1.05,1000
16:50:33.891,-4.47,5.24,-150.46,-0.55,-2.74,3.84,-0.09,-0.09,1.05,1000
16:50:33.914,-4.52,5.21,-150.41,-0.73,-0.61,5.43,-0.09,-0.08,1.05,1000
16:50:33.914,-4.54,5.19,-150.34,-0.85,1.95,7.38,-0.08,-0.08,1.04,1000
16:50:33.925,-4.54,5.18,-150.26,-0.3,3.35,7.99,-0.09,-0.08,1.03,1000
16:50:33.935,-4.52,5.21,-150.17,0.06,3.96,7.87,-0.1,-0.06,1.03,1000
16:50:33.950,-4.46,5.27,-150.08,0.18,3.66,7.8,-0.1,-0.07,1.03,1000
16:50:33.957,-4.4,5.31,-150.0,0.06,2.93,7.8,-0.09,-0.08,1.03,1000
16:50:33.970,-4.37,5.33,-149.91,-0.18,2.07,8.29,-0.09,-0.09,1.02,1000
16:50:33.981,-4.39,5.33,-149.82,-0.79,1.04,8.35,-0.09,-0.09,1.01,1000
16:50:33.990,-4.44,5.31,-149.72,-0.61,-0.67,8.35,-0.09,-0.1,1.01,1000
16:50:34.009,-4.49,5.29,-149.63,-0.55,-2.87,7.93,-0.09,-0.1,1.02,1000
16:50:34.014,-4.52,5.25,-149.55,-0.43,-5.0,7.74,-0.08,-0.08,1.02,1000
16:50:34.023,-4.54,5.15,-149.46,-1.1,-6.65,8.23,-0.07,-0.09,1.02,1000
16:50:34.034,-4.58,4.99,-149.36,-1.95,-6.89,8.72,-0.06,-0.09,1.01,1000
16:50:34.047,-4.62,4.83,-149.27,-2.62,-6.28,8.6,-0.07,-0.08,1.01,1000
16:50:34.056,-4.66,4.72,-149.18,-3.35,-5.3,7.56,-0.07,-0.08,1.02,1000
16:50:34.068,-4.69,4.6,-149.1,-4.15,-4.21,7.38,-0.05,-0.09,1.02,1000
16:50:34.078,-4.76,4.48,-149.02,-4.45,-2.99,7.38,-0.05,-0.11,1.01,1000
16:50:34.092,-4.85,4.36,-148.93,-4.15,-1.95,7.5,-0.05,-0.11,1.01,1000
16:50:34.100,-4.96,4.24,-148.85,-3.54,-1.89,6.89,-0.06,-0.09,1.02,1000
16:50:34.113,-5.0,4.16,-148.78,-3.35,-2.5,6.65,-0.06,-0.07,1.03,1000
16:50:34.122,-5.01,4.07,-148.7,-3.78,-3.17,6.71,-0.05,-0.08,1.03,1000
16:50:34.133,-4.99,3.94,-148.63,-3.48,-3.72,7.07,-0.05,-0.07,1.03,1000
16:50:34.144,-4.97,3.8,-148.55,-3.6,-3.9,7.07,-0.05,-0.08,1.03,1000
16:50:34.155,-4.98,3.67,-148.47,-3.78,-3.9,6.71,-0.05,-0.1,1.03,1000
16:50:34.166,-5.02,3.55,-148.4,-4.09,-3.96,6.59,-0.04,-0.11,1.03,1000
16:50:34.177,-5.09,3.42,-148.33,-3.9,-4.33,6.04,-0.04,-0.11,1.02,1000
16:50:34.192,-5.18,3.27,-148.26,-3.9,-4.51,6.04,-0.03,-0.1,1.03,1000
16:50:34.199,-5.26,3.13,-148.19,-3.9,-4.94,5.85,-0.03,-0.1,1.02,1000
16:50:34.219,-5.32,2.96,-148.13,-3.48,-5.18,5.61,-0.03,-0.09,1.03,1000
16:50:34.221,-5.33,2.8,-148.07,-2.99,-5.12,4.33,-0.04,-0.08,1.03,1000
16:50:34.233,-5.31,2.69,-148.04,-2.5,-5.12,2.99,-0.04,-0.08,1.04,1000
16:50:34.244,-5.27,2.57,-148.01,-2.01,-4.76,2.2,-0.03,-0.09,1.04,1000
16:50:34.254,-5.24,2.46,-147.99,-1.16,-4.09,1.52,-0.03,-0.1,1.02,1000
16:50:34.265,-5.23,2.36,-147.97,-0.24,-3.23,0.98,-0.03,-0.09,1.03,1000
16:50:34.280,-5.22,2.27,-147.97,0.06,-2.38,-0.12,-0.03,-0.1,1.02,1000
16:50:34.287,-5.22,2.17,-147.98,0.37,-1.34,-1.28,-0.02,-0.09,1.02,1000
16:50:34.300,-5.22,2.1,-147.99,0.43,-0.3,-1.95,-0.02,-0.09,1.01,1000
16:50:34.310,-5.2,2.04,-148.02,1.28,0.61,-3.72,-0.05,-0.07,1.01,1000
16:50:34.321,-5.13,2.04,-148.07,2.01,1.04,-5.3,-0.04,-0.06,1.01,1000
16:50:34.331,-5.04,2.05,-148.13,2.26,1.28,-6.71,-0.04,-0.07,1.02,1000
16:50:34.342,-4.95,2.05,-148.21,2.38,1.65,-7.26,-0.03,-0.09,1.0,1000
16:50:34.353,-4.89,2.05,-148.29,2.44,2.07,-7.44,-0.04,-0.09,1.01,1000
16:50:34.364,-4.86,2.06,-148.37,2.2,2.62,-7.93,-0.04,-0.08,1.0,1000
16:50:34.375,-4.81,2.09,-148.46,1.28,3.54,-8.41,-0.05,-0.07,1.01,1000
16:50:34.386,-4.75,2.14,-148.56,-0.06,4.76,-9.09,-0.05,-0.06,1.01,1000
16:50:34.397,-4.67,2.23,-148.66,-1.65,6.46,-10.3,-0.06,-0.06,1.01,1000
16:50:34.408,-4.6,2.37,-148.78,-3.17,7.99,-12.13,-0.09,-0.05,1.02,1000
16:50:34.424,-4.52,2.59,-148.93,-3.78,8.54,-14.57,-0.1,-0.05,1.02,1000
16:50:34.430,-4.47,2.85,-149.1,-2.8,7.8,-16.52,-0.13,-0.08,1.03,1000
16:50:34.441,-4.44,3.18,-149.29,-0.3,5.61,-18.05,-0.13,-0.12,1.03,1000
16:50:34.452,-4.47,3.47,-149.49,1.83,3.29,-17.56,-0.09,-0.1,1.07,1000
16:50:34.463,-4.53,3.63,-149.67,3.72,1.22,-15.0,-0.09,-0.15,1.03,1000
16:50:34.474,-4.6,3.72,-149.82,4.7,0.49,-11.95,-0.08,-0.16,1.04,1000
16:50:34.485,-4.77,3.8,-149.93,4.76,0.3,-8.41,-0.07,-0.13,1.02,1000
