Timestamp,Roll,Pitch,Yaw,Gyro_X,Gyro_Y,Gyro_Z,Accel_X,Accel_Y,Accel_Z,Throttle
16:52:48.185,0.62,5.73,-107.79,0.85,-15.61,0.91,-0.11,-0.01,0.99,1000
16:52:48.196,0.58,5.61,-107.77,3.72,-9.27,1.22,-0.1,0.02,0.97,1000
16:52:48.207,0.67,5.59,-107.77,6.71,-5.18,-1.59,-0.13,0.08,0.94,1000
16:52:48.218,0.97,5.65,-107.81,9.02,-0.73,-6.04,-0.09,0.1,0.99,1000
16:52:48.231,1.35,5.68,-107.89,9.88,4.09,-8.9,-0.1,0.07,0.97,1000
16:52:48.240,1.66,5.75,-107.99,8.41,7.32,-9.27,-0.11,0.05,0.99,1000
16:52:48.254,1.82,5.87,-108.08,4.7,9.76,-6.52,-0.12,-0.01,0.98,1000
16:52:48.262,1.76,6.05,-108.13,0.3,10.79,-0.85,-0.15,-0.04,1.0,1000
16:52:48.273,1.55,6.3,-108.12,-4.45,10.91,3.41,-0.13,0.0,0.99,1000
16:52:48.286,1.36,6.48,-108.07,-8.35,9.15,5.67,-0.1,0.01,1.02,1000
16:52:48.295,1.23,6.58,-108.01,-11.1,5.79,5.79,-0.13,0.06,1.0,1000
16:52:48.306,1.17,6.64,-107.95,-13.48,2.07,4.51,-0.08,0.03,1.06,1000
16:52:48.325,1.04,6.51,-107.89,-15.18,1.04,6.04,-0.05,-0.01,1.06,1000
16:52:48.328,0.82,6.38,-107.82,-16.34,-0.43,8.78,-0.11,-0.04,1.03,1000
16:52:48.341,0.45,6.27,-107.7,-16.89,-2.62,11.77,-0.1,-0.06,1.03,1000
16:52:48.368,0.07,6.17,-107.56,-15.91,-4.02,14.39,-0.12,-0.07,1.04,1000
16:52:48.368,-0.3,6.13,-107.39,-13.54,-6.77,14.94,-0.13,-0.03,1.01,1000
16:52:48.372,-0.56,6.08,-107.24,-9.76,-9.33,13.6,-0.1,-0.04,1.04,1000
16:52:48.386,-0.77,5.99,-107.1,-5.0,-10.67,11.71,-0.12,-0.03,1.02,1000
16:52:48.399,-0.87,5.91,-106.98,-0.49,-12.68,8.72,-0.11,-0.02,1.01,1000
16:52:48.405,-0.88,5.79,-106.9,2.87,-11.95,5.67,-0.09,-0.01,1.03,1000
16:52:48.432,-0.85,5.65,-106.85,4.7,-10.67,3.35,-0.09,-0.01,1.0,1000
16:52:48.432,-0.8,5.54,-106.82,5.06,-7.01,1.52,-0.09,-0.02,1.04,1000
16:52:48.447,-0.77,5.44,-106.81,4.39,-2.99,1.59,-0.06,-0.04,1.01,1000
16:52:48.449,-0.79,5.35,-106.79,3.6,0.0,1.34,-0.08,-0.03,1.03,1000
16:52:48.465,-0.81,5.32,-106.78,3.41,3.29,0.0,-0.1,-0.0,1.02,1000
16:52:48.476,-0.74,5.35,-106.8,3.84,3.54,-3.41,-0.1,0.04,1.02,1000
16:52:48.485,-0.57,5.41,-106.86,4.63,2.62,-7.8,-0.13,0.06,1.04,1000
16:52:48.496,-0.31,5.5,-106.96,5.49,2.99,-11.04,-0.11,0.04,1.07,1000
16:52:48.504,-0.12,5.56,-107.09,4.88,3.11,-11.89,-0.1,0.01,1.04,1000
16:52:48.515,0.0,5.65,-107.22,3.6,2.8,-10.49,-0.14,-0.02,1.05,1000
16:52:48.526,0.01,5.81,-107.32,2.26,2.74,-7.68,-0.14,-0.02,1.03,1000
16:52:48.539,-0.02,5.97,-107.39,1.1,1.22,-6.04,-0.14,0.01,1.02,1000
16:52:48.548,-0.0,6.1,-107.46,0.67,0.06,-5.61,-0.12,0.02,1.03,1000
16:52:48.562,0.03,6.14,-107.52,0.73,-0.91,-5.24,-0.1,0.0,1.02,1000
16:52:48.570,0.06,6.11,-107.58,1.22,-2.93,-5.49,-0.11,0.03,1.0,1000
16:52:48.581,0.18,6.06,-107.64,1.65,-3.96,-6.95,-0.09,0.03,1.01,1000
16:52:48.593,0.31,5.97,-107.72,1.04,-5.06,-7.32,-0.1,0.03,1.0,1000
16:52:48.603,0.39,5.91,-107.8,0.43,-4.39,-7.01,-0.1,0.01,1.03,1000
16:52:48.614,0.39,5.84,-107.86,-1.1,-1.77,-3.96,-0.1,-0.03,1.02,1000
16:52:48.627,0.25,5.81,-107.89,-2.26,0.12,0.12,-0.11,-0.05,1.01,1000
16:52:48.636,0.05,5.82,-107.87,-2.87,1.71,3.23,-0.1,-0.03,1.02,1000
16:52:48.647,-0.12,5.83,-107.82,-2.56,2.44,5.0,-0.09,-0.03,1.02,1000
16:52:48.658,-0.23,5.83,-107.77,-1.22,2.8,4.94,-0.09,0.0,1.03,1000
16:52:48.672,-0.26,5.81,-107.72,-0.12,1.77,3.9,-0.1,0.01,1.01,1000
16:52:48.681,-0.21,5.8,-107.69,1.34,-0.67,1.46,-0.11,0.05,1.03,1000
16:52:48.695,-0.13,5.78,-107.68,2.07,-2.26,0.12,-0.07,-0.01,1.05,1000
16:52:48.703,-0.09,5.66,-107.67,2.01,-1.89,2.44,-0.07,-0.04,1.05,1000
16:52:48.713,-0.16,5.58,-107.63,1.52,-1.46,5.49,-0.12,-0.06,1.03,1000
16:52:48.724,-0.3,5.56,-107.56,1.34,-0.67,7.74,-0.08,-0.04,1.04,1000
16:52:48.735,-0.44,5.53,-107.46,1.95,0.43,8.6,-0.15,-0.01,1.01,1000
16:52:48.746,-0.44,5.61,-107.38,2.5,0.18,5.55,-0.1,0.05,1.03,1000
16:52:48.757,-0.29,5.59,-107.34,2.74,-0.37,2.26,-0.05,0.01,1.04,1000
16:52:48.771,-0.2,5.52,-107.32,3.23,0.37,1.04,-0.11,-0.02,1.07,1000
16:52:48.780,-0.18,5.52,-107.31,3.84,-0.3,0.3,-0.12,0.0,1.01,1000
16:52:48.790,-0.14,5.54,-107.32,4.27,-0.85,-1.52,-0.1,0.0,1.07,1000
16:52:48.801,-0.09,5.56,-107.34,4.76,-1.95,-3.48,-0.13,0.01,1.0,1000
16:52:48.813,0.0,5.58,-107.39,4.63,-3.48,-6.34,-0.09,0.03,1.06,1000
16:52:48.823,0.13,5.53,-107.47,4.45,-3.48,-8.23,-0.1,0.0,1.03,1000
16:52:48.834,0.21,5.49,-107.57,3.96,-3.72,-8.96,-0.11,0.01,1.04,1000
16:52:48.846,0.29,5.48,-107.67,3.54,-3.05,-9.63,-0.11,0.03,1.02,1000
16:52:48.856,0.38,5.47,-107.78,3.48,-2.5,-10.37,-0.1,0.02,1.03,1000
16:52:48.874,0.46,5.47,-107.89,3.29,-1.4,-10.06,-0.11,0.01,1.0,1000
16:52:48.879,0.52,5.5,-108.0,3.29,-0.06,-9.63,-0.1,0.0,1.02,1000
16:52:48.889,0.55,5.52,-108.1,3.72,1.83,-8.48,-0.09,-0.01,1.01,1000
16:52:48.900,0.53,5.52,-108.19,5.3,2.87,-6.83,-0.08,-0.01,1.0,1000
16:52:48.912,0.5,5.52,-108.26,7.62,3.84,-5.73,-0.1,-0.03,1.01,1000
16:52:48.922,0.47,5.52,-108.32,10.79,5.06,-4.57,-0.07,-0.03,1.02,1000
16:52:48.938,0.46,5.53,-108.36,14.57,3.35,-4.21,-0.13,-0.01,0.98,1000
16:52:48.945,0.56,5.6,-108.42,17.93,0.98,-6.89,-0.11,0.06,1.02,1000
16:52:48.955,0.86,5.58,-108.52,21.28,-0.06,-11.04,-0.04,0.05,1.04,1000
16:52:48.972,1.2,5.45,-108.66,22.56,0.0,-13.41,-0.11,0.06,1.04,1000
16:52:48.981,1.56,5.44,-108.82,20.73,-0.49,-15.85,-0.12,0.09,1.01,1000
16:52:48.988,1.93,5.46,-109.0,15.18,2.38,-16.34,-0.07,0.06,1.06,1000
16:52:48.999,2.16,5.49,-109.16,7.93,7.13,-13.66,-0.15,0.03,1.02,1000
16:52:49.011,2.17,5.71,-109.29,-0.67,9.88,-8.78,-0.15,0.01,1.02,1000
16:52:49.023,2.06,5.96,-109.37,-7.8,12.8,-4.88,-0.14,0.02,1.02,1000
16:52:49.036,1.89,6.24,-109.41,-12.93,13.48,-2.44,-0.15,0.03,1.01,1000
16:52:49.043,1.72,6.5,-109.43,-14.76,12.2,-1.77,-0.11,0.04,1.04,1000
16:52:49.055,1.58,6.66,-109.45,-13.48,9.82,-2.56,-0.13,0.03,1.04,1000
16:52:49.065,1.48,6.76,-109.49,-10.3,5.79,-3.96,-0.11,0.05,1.05,1000
16:52:49.079,1.45,6.78,-109.54,-6.28,1.16,-5.79,-0.11,0.04,1.04,1000
16:52:49.087,1.46,6.74,-109.61,-1.89,-3.11,-7.32,-0.12,0.03,1.05,1000
16:52:49.098,1.48,6.66,-109.7,0.91,-6.4,-7.32,-0.11,0.01,1.03,1000
16:52:49.109,1.45,6.57,-109.77,2.62,-7.62,-5.67,-0.13,-0.0,1.04,1000
16:52:49.120,1.39,6.51,-109.82,3.11,-7.44,-3.48,-0.14,0.01,1.01,1000
16:52:49.141,1.36,6.5,-109.85,2.44,-7.93,-2.74,-0.14,0.05,1.0,1000
16:52:49.145,1.4,6.48,-109.88,1.59,-8.9,-3.11,-0.15,0.05,1.01,1000
16:52:49.155,1.44,6.47,-109.92,0.37,-6.95,-2.13,-0.11,0.02,1.04,1000
16:52:49.164,1.43,6.42,-109.93,-0.18,-5.79,-1.28,-0.13,0.02,1.01,1000
16:52:49.181,1.41,6.37,-109.95,-0.67,-5.24,-0.73,-0.09,0.02,1.01,1000
16:52:49.186,1.4,6.27,-109.95,-0.3,-3.66,-0.67,-0.08,0.03,1.02,1000
16:52:49.197,1.42,6.15,-109.97,0.79,-1.95,-1.46,-0.09,0.05,1.01,1000
16:52:49.208,1.49,6.05,-109.99,2.01,-0.67,-2.68,-0.07,0.03,1.02,1000
16:52:49.219,1.55,5.94,-110.02,3.96,1.4,-3.17,-0.09,0.02,1.03,1000
16:52:49.230,1.6,5.91,-110.06,5.73,2.44,-4.21,-0.12,0.03,1.02,1000
16:52:49.241,1.73,5.98,-110.12,6.95,1.34,-6.28,-0.16,0.09,1.01,1000
16:52:49.252,2.01,6.11,-110.21,7.2,-0.61,-10.3,-0.13,0.11,1.03,1000
16:52:49.263,2.31,6.18,-110.33,6.34,-0.91,-11.65,-0.12,0.06,1.05,1000
16:52:49.283,2.49,6.22,-110.45,4.51,-1.52,-10.24,-0.13,0.04,1.03,1000
16:52:49.285,2.54,6.29,-110.55,1.65,-1.83,-7.56,-0.13,0.02,1.04,1000
16:52:49.296,2.48,6.35,-110.62,-1.52,-1.04,-4.21,-0.12,0.02,1.03,1000
16:52:49.309,2.37,6.39,-110.65,-4.09,-0.06,-1.59,-0.12,0.03,1.02,1000
16:52:49.321,2.27,6.41,-110.66,-5.91,0.37,-0.61,-0.11,0.04,1.02,1000
16:52:49.329,2.19,6.4,-110.66,-7.2,0.55,-0.37,-0.09,0.04,1.03,1000
16:52:49.340,2.11,6.34,-110.66,-7.56,0.61,-0.24,-0.1,0.03,1.02,1000
16:52:49.351,2.0,6.28,-110.66,-7.56,-0.06,-0.18,-0.11,0.03,1.01,1000
16:52:49.363,1.92,6.23,-110.67,-6.59,-0.43,-1.1,-0.09,0.04,1.02,1000
16:52:49.380,1.86,6.16,-110.68,-5.85,-1.1,-1.28,-0.1,0.02,1.01,1000
16:52:49.386,1.77,6.1,-110.69,-4.76,-1.4,-0.12,-0.11,-0.0,1.02,1000
16:52:49.395,1.63,6.07,-110.68,-3.72,-1.65,1.28,-0.11,0.0,1.01,1000
16:52:49.406,1.5,6.05,-110.66,-2.5,-1.89,2.07,-0.11,-0.0,1.02,1000
16:52:49.420,1.37,6.03,-110.64,-1.77,-2.87,2.99,-0.11,0.01,1.01,1000
16:52:49.428,1.31,6.01,-110.61,-1.46,-4.88,2.44,-0.11,0.02,1.01,1000
16:52:49.439,1.25,5.95,-110.58,-2.26,-5.73,2.38,-0.09,0.01,1.03,1000
16:52:49.452,1.17,5.83,-110.55,-3.66,-6.22,2.8,-0.1,0.0,1.01,1000
16:52:49.461,1.07,5.74,-110.51,-5.12,-7.07,3.23,-0.11,0.01,0.99,1000
16:52:49.474,0.98,5.64,-110.48,-6.1,-7.32,2.26,-0.08,0.04,1.0,1000
16:52:49.483,0.96,5.5,-110.47,-6.95,-7.56,0.61,-0.06,0.03,0.99,1000
16:52:49.494,0.92,5.34,-110.47,-7.8,-6.89,-0.12,-0.07,0.02,0.99,1000
16:52:49.505,0.86,5.17,-110.47,-8.96,-5.55,-0.18,-0.06,0.02,0.98,1000
16:52:49.516,0.77,5.01,-110.47,-10.49,-3.11,0.12,-0.06,0.01,0.98,1000
16:52:49.527,0.64,4.9,-110.46,-11.71,-0.73,1.28,-0.08,0.0,0.97,1000
16:52:49.538,0.49,4.86,-110.45,-12.01,2.2,1.65,-0.08,0.0,0.99,1000
16:52:49.549,0.35,4.87,-110.43,-11.4,4.76,2.01,-0.09,0.01,0.97,1000
16:52:49.563,0.24,4.94,-110.41,-10.24,7.01,1.59,-0.08,0.01,1.0,1000
16:52:49.572,0.16,4.99,-110.39,-8.41,9.09,1.1,-0.07,0.0,1.0,1000
16:52:49.582,0.08,5.03,-110.38,-6.95,10.79,1.22,-0.06,-0.02,1.03,1000
16:52:49.593,-0.04,5.05,-110.36,-4.82,12.5,1.95,-0.07,-0.02,1.03,1000
16:52:49.604,-0.14,5.08,-110.34,-2.2,13.48,2.32,-0.08,-0.02,1.04,1000
16:52:49.615,-0.22,5.15,-110.31,0.3,12.93,1.71,-0.1,-0.0,1.04,1000
16:52:49.626,-0.21,5.27,-110.31,3.35,11.4,-0.24,-0.11,0.02,1.05,1000
16:52:49.638,-0.12,5.4,-110.32,6.28,9.21,-2.38,-0.11,0.01,1.06,1000
16:52:49.648,-0.0,5.52,-110.36,9.09,6.4,-4.09,-0.13,-0.0,1.06,1000
16:52:49.659,0.13,5.67,-110.41,11.04,3.54,-5.79,-0.14,0.02,1.05,1000
16:52:49.672,0.31,5.8,-110.48,11.83,1.22,-7.74,-0.14,0.03,1.06,1000
16:52:49.682,0.52,5.91,-110.58,11.71,-1.65,-10.06,-0.15,0.06,1.04,1000
16:52:49.699,0.78,6.01,-110.7,10.12,-4.39,-12.44,-0.14,0.05,1.05,1000
16:52:49.703,1.0,6.06,-110.84,8.29,-3.29,-12.07,-0.11,0.02,1.08,1000
16:52:49.717,1.1,6.07,-110.96,6.71,-2.5,-10.37,-0.14,0.0,1.04,1000
16:52:49.726,1.13,6.08,-111.06,5.49,-2.74,-8.66,-0.12,-0.0,1.05,1000
16:52:49.737,1.15,6.09,-111.15,4.94,-2.44,-7.93,-0.12,0.03,1.04,1000
16:52:49.747,1.21,6.1,-111.25,6.04,-3.41,-8.66,-0.13,0.04,1.03,1000
16:52:49.759,1.33,6.12,-111.35,7.68,-4.39,-10.12,-0.12,0.05,1.04,1000
16:52:49.771,1.48,6.11,-111.47,8.78,-6.28,-11.22,-0.13,0.04,1.02,1000
16:52:49.780,1.64,6.11,-111.59,9.21,-8.29,-11.65,-0.12,0.05,1.02,1000
16:52:49.794,1.82,6.09,-111.72,8.66,-10.0,-11.52,-0.12,0.05,0.99,1000
16:52:49.803,1.97,6.05,-111.84,7.07,-11.04,-10.24,-0.13,0.05,0.98,1000
16:52:49.813,2.09,6.03,-111.94,4.57,-10.91,-7.99,-0.14,0.04,0.96,1000
16:52:49.824,2.14,6.06,-112.02,1.1,-10.98,-5.0,-0.14,0.02,0.95,1000
16:52:49.837,2.1,6.11,-112.05,-3.29,-9.39,-0.98,-0.12,0.02,0.95,1000
16:52:49.846,1.99,6.08,-112.05,-7.56,-5.73,3.11,-0.05,0.01,0.96,1000
16:52:49.857,1.8,5.88,-111.99,-10.61,0.12,6.83,0.0,-0.01,0.99,1000
16:52:49.870,1.54,5.55,-111.89,-12.01,7.44,11.1,0.03,-0.02,1.01,1000
16:52:49.880,1.25,5.22,-111.76,-10.85,14.45,13.9,0.03,-0.03,1.03,1000
16:52:49.902,0.99,4.98,-111.6,-7.26,19.7,15.37,-0.03,-0.01,1.04,1000
16:52:49.902,0.82,4.92,-111.43,-1.1,21.83,14.39,-0.08,0.01,1.06,1000
16:52:49.912,0.79,5.04,-111.28,5.73,17.8,11.77,-0.17,0.04,1.01,1000
16:52:49.923,0.96,5.42,-111.18,12.56,10.18,6.59,-0.2,0.06,1.08,1000
16:52:49.934,1.22,5.75,-111.12,16.52,2.38,4.02,-0.16,0.02,1.07,1000
16:52:49.945,1.41,6.02,-111.08,17.68,-4.33,3.54,-0.22,-0.0,1.08,1000
16:52:49.958,1.52,6.29,-111.04,15.91,-10.55,3.96,-0.17,0.01,1.02,1000
16:52:49.968,1.6,6.38,-110.99,11.28,-13.96,3.84,-0.12,0.02,1.06,1000
16:52:49.978,1.64,6.34,-110.95,5.67,-13.41,3.84,-0.12,0.03,1.01,1000
16:52:49.995,1.63,6.23,-110.91,0.67,-11.34,3.05,-0.06,0.03,1.02,1000
16:52:50.001,1.6,6.04,-110.89,-3.78,-6.34,1.4,-0.09,0.04,1.0,1000
16:52:50.011,1.59,5.92,-110.89,-6.83,-3.11,-1.65,-0.1,0.07,0.98,1000
16:52:50.022,1.63,5.86,-110.93,-8.6,0.24,-5.49,-0.08,0.07,1.01,1000
16:52:50.035,1.68,5.84,-111.0,-8.66,4.21,-7.99,-0.12,0.04,1.01,1000
16:52:50.044,1.65,5.91,-111.09,-8.41,5.98,-8.54,-0.12,0.01,1.0,1000
16:52:50.055,1.55,6.04,-111.18,-7.74,7.56,-7.68,-0.13,0.0,1.02,1000
16:52:50.069,1.42,6.2,-111.26,-6.52,8.48,-6.65,-0.13,0.01,0.99,1000
16:52:50.077,1.29,6.35,-111.33,-5.24,8.66,-5.73,-0.11,0.01,1.02,1000
16:52:50.088,1.19,6.45,-111.39,-3.23,9.63,-5.3,-0.1,0.01,1.01,1000
16:52:50.103,1.12,6.52,-111.45,-1.34,9.33,-5.06,-0.1,0.02,1.01,1000
16:52:50.110,1.1,6.58,-111.5,0.73,8.23,-5.49,-0.11,0.04,1.02,1000
16:52:50.121,1.16,6.64,-111.57,2.62,7.01,-6.65,-0.14,0.05,1.0,1000
16:52:50.133,1.33,6.77,-111.65,3.17,2.38,-8.84,-0.16,0.09,1.01,1000
16:52:50.143,1.52,6.86,-111.75,2.74,-0.43,-9.27,-0.09,0.04,1.06,1000
16:52:50.211,1.64,6.81,-111.84,1.95,-0.3,-6.4,-0.13,0.01,1.05,1000
16:52:50.211,1.61,6.8,-111.89,0.37,-1.77,-1.83,-0.13,-0.0,1.01,1000
16:52:50.213,1.5,6.79,-111.89,-1.28,-0.67,2.07,-0.1,-0.0,1.05,1000
16:52:50.213,1.4,6.75,-111.85,-2.01,2.01,5.24,-0.12,0.02,1.01,1000
16:52:50.213,1.34,6.75,-111.78,-1.52,4.51,6.95,-0.1,0.03,1.04,1000
16:52:50.213,1.33,6.78,-111.71,0.18,8.6,7.56,-0.14,0.03,1.02,1000
16:52:50.220,1.35,6.92,-111.62,2.5,8.35,7.32,-0.2,0.06,0.97,1000
16:52:50.231,1.49,7.18,-111.56,4.27,8.11,4.76,-0.16,0.08,1.03,1000
16:52:50.242,1.68,7.4,-111.51,5.43,7.74,3.66,-0.15,0.03,1.01,1000
16:52:50.255,1.79,7.62,-111.47,5.61,6.89,4.57,-0.17,0.01,1.04,1000
16:52:50.267,1.8,7.81,-111.41,4.57,6.1,6.34,-0.14,0.02,1.01,1000
16:52:50.275,1.79,7.91,-111.34,2.68,4.76,7.68,-0.13,0.01,1.03,1000
16:52:50.288,1.73,7.96,-111.25,0.43,4.15,8.54,-0.14,0.01,1.02,1000
16:52:50.307,1.64,7.98,-111.15,-2.2,2.44,8.66,-0.13,0.02,1.02,1000
16:52:50.308,1.56,7.95,-111.06,-4.7,1.59,7.74,-0.13,0.03,1.04,1000
16:52:50.320,1.49,7.92,-110.98,-6.59,-0.18,6.04,-0.13,0.03,1.03,1000
16:52:50.330,1.44,7.89,-110.92,-8.35,-3.66,4.45,-0.16,0.04,1.03,1000
16:52:50.342,1.39,7.88,-110.88,-9.57,-4.88,2.99,-0.14,0.03,1.07,1000
16:52:50.352,1.26,7.8,-110.85,-10.37,-5.12,3.78,-0.14,-0.02,1.05,1000
16:52:50.363,1.03,7.75,-110.8,-10.79,-5.73,5.67,-0.16,-0.03,1.05,1000
16:52:50.374,0.75,7.74,-110.73,-10.06,-5.61,7.13,-0.13,-0.03,1.04,1000
16:52:50.389,0.49,7.69,-110.65,-7.87,-4.7,7.68,-0.14,-0.02,1.04,1000
16:52:50.396,0.34,7.66,-110.57,-5.12,-5.3,5.73,-0.14,0.04,1.02,1000
16:52:50.410,0.34,7.59,-110.52,-2.01,-5.0,2.8,-0.1,0.02,1.06,1000
16:52:50.418,0.35,7.47,-110.5,0.73,-2.93,1.71,-0.12,-0.01,1.04,1000
16:52:50.429,0.33,7.38,-110.48,1.95,-2.26,1.46,-0.13,-0.0,1.02,1000
16:52:50.460,0.32,7.34,-110.46,2.01,-2.68,0.98,-0.13,0.0,1.03,1000
16:52:50.461,0.31,7.3,-110.45,1.65,-2.07,1.34,-0.13,-0.01,1.05,1000
16:52:50.464,0.26,7.28,-110.43,1.28,-1.34,2.5,-0.15,-0.02,1.04,1000
16:52:50.479,0.18,7.28,-110.4,1.4,-2.13,2.5,-0.14,-0.0,1.02,1000
16:52:50.484,0.15,7.28,-110.38,1.71,-3.41,0.79,-0.14,0.02,1.02,1000
16:52:50.495,0.25,7.24,-110.39,1.83,-4.82,-2.44,-0.12,0.06,1.03,1000
16:52:50.513,0.42,7.16,-110.43,1.16,-6.59,-5.55,-0.12,0.04,1.02,1000
16:52:50.517,0.55,7.07,-110.5,0.18,-6.83,-6.95,-0.12,0.03,1.05,1000
16:52:50.528,0.61,6.94,-110.58,-1.04,-6.89,-6.28,-0.09,0.01,1.02,1000
16:52:50.539,0.59,6.81,-110.64,-2.74,-5.79,-4.51,-0.13,-0.01,1.03,1000
16:52:50.550,0.5,6.74,-110.68,-3.72,-4.21,-2.93,-0.12,-0.0,1.0,1000
16:52:50.561,0.42,6.67,-110.71,-3.54,-3.05,-2.01,-0.1,0.01,1.01,1000
16:52:50.572,0.39,6.62,-110.73,-2.26,-1.22,-2.62,-0.12,0.01,1.0,1000
16:52:50.585,0.38,6.59,-110.76,-0.43,0.98,-3.17,-0.11,0.01,1.0,1000
16:52:50.595,0.42,6.61,-110.8,1.34,2.56,-4.7,-0.12,0.03,0.99,1000
16:52:50.615,0.52,6.65,-110.86,2.74,3.11,-6.52,-0.09,0.04,1.0,1000
16:52:50.616,0.66,6.64,-110.94,4.21,3.84,-8.05,-0.12,0.05,1.0,1000
16:52:50.628,0.86,6.65,-111.04,4.76,3.96,-10.18,-0.11,0.06,1.01,1000
16:52:50.638,1.04,6.65,-111.16,4.33,4.27,-10.37,-0.1,0.02,1.04,1000
16:52:50.649,1.13,6.66,-111.26,3.41,4.33,-8.11,-0.14,0.0,1.02,1000
16:52:50.660,1.14,6.74,-111.34,1.83,3.6,-5.85,-0.13,0.01,1.02,1000
16:52:50.671,1.12,6.79,-111.39,0.37,2.8,-3.96,-0.12,0.02,1.03,1000
16:52:50.682,1.1,6.82,-111.43,-0.12,2.26,-2.8,-0.13,0.02,1.03,1000
16:52:50.694,1.08,6.86,-111.46,-0.24,1.4,-2.32,-0.12,0.02,1.03,1000
16:52:50.707,1.09,6.86,-111.48,0.55,1.04,-2.56,-0.12,0.03,1.03,1000
16:52:50.721,1.13,6.84,-111.52,1.34,0.73,-3.41,-0.13,0.04,1.01,1000
16:52:50.727,1.23,6.84,-111.56,1.89,-1.22,-5.73,-0.12,0.09,1.01,1000
16:52:50.739,1.43,6.83,-111.64,1.65,-2.93,-8.17,-0.11,0.06,1.04,1000
16:52:50.748,1.57,6.79,-111.73,0.55,-1.89,-7.26,-0.12,0.03,1.05,1000
16:52:50.759,1.61,6.76,-111.8,-0.79,-0.98,-4.76,-0.13,0.01,1.02,1000
16:52:50.770,1.54,6.77,-111.83,-2.32,-0.55,-1.65,-0.12,-0.0,1.03,1000
16:52:50.783,1.43,6.79,-111.84,-3.35,1.04,0.91,-0.14,0.0,1.02,1000
16:52:50.794,1.35,6.84,-111.82,-3.29,1.16,2.2,-0.13,0.03,1.02,1000
16:52:50.803,1.33,6.87,-111.8,-1.95,0.98,1.71,-0.11,0.04,1.02,1000
16:52:50.821,1.39,6.86,-111.79,-0.37,-0.55,-0.3,-0.12,0.08,1.02,1000
16:52:50.825,1.52,6.83,-111.8,0.91,-2.5,-2.01,-0.12,0.05,1.04,1000
16:52:50.839,1.61,6.76,-111.83,0.79,-2.74,-1.77,-0.12,0.02,1.06,1000
16:52:50.849,1.62,6.71,-111.84,0.55,-2.68,-0.24,-0.12,0.01,1.02,1000
16:52:50.858,1.58,6.68,-111.83,-0.37,-2.56,1.52,-0.11,0.0,1.04,1000
16:52:50.869,1.51,6.64,-111.81,-0.73,-0.85,2.56,-0.12,0.01,1.02,1000
16:52:50.880,1.44,6.62,-111.78,0.0,1.22,2.87,-0.1,0.01,1.02,1000
16:52:50.891,1.4,6.6,-111.75,1.22,3.9,2.5,-0.1,0.02,1.01,1000
16:52:50.902,1.37,6.6,-111.72,2.56,6.83,1.71,-0.11,0.01,1.0,1000
16:52:50.925,1.38,6.67,-111.71,3.9,8.54,-0.06,-0.14,0.04,0.99,1000
16:52:50.925,1.48,6.79,-111.72,4.94,9.33,-2.5,-0.1,0.04,1.0,1000
16:52:50.935,1.59,6.86,-111.76,5.61,10.0,-4.82,-0.12,0.04,1.02,1000
16:52:50.946,1.69,6.95,-111.83,5.98,8.96,-6.16,-0.13,0.02,1.02,1000
16:52:50.959,1.74,7.04,-111.89,5.98,8.23,-6.28,-0.14,0.0,1.04,1000
16:52:50.968,1.73,7.16,-111.96,5.61,5.43,-5.98,-0.16,0.01,1.02,1000
16:52:50.982,1.7,7.3,-112.03,5.0,1.1,-6.46,-0.15,0.02,1.04,1000
16:52:50.990,1.71,7.36,-112.11,4.09,-2.2,-7.93,-0.13,0.03,1.06,1000
16:52:51.001,1.74,7.34,-112.19,2.99,-6.34,-8.84,-0.15,0.04,1.03,1000
16:52:51.024,1.78,7.26,-112.3,1.46,-9.02,-9.45,-0.1,0.03,1.08,1000
16:52:51.026,1.77,7.05,-112.4,0.06,-9.02,-8.54,-0.09,0.01,1.04,1000
16:52:51.034,1.71,6.88,-112.48,-1.46,-9.27,-7.13,-0.11,0.0,1.04,1000
16:52:51.045,1.6,6.71,-112.56,-2.5,-8.41,-5.37,-0.11,0.01,1.03,1000
16:52:51.058,1.49,6.59,-112.61,-2.44,-6.95,-4.51,-0.13,0.01,1.02,1000
16:52:51.067,1.42,6.56,-112.66,-1.22,-5.73,-4.45,-0.14,0.02,1.01,1000
16:52:51.078,1.4,6.57,-112.71,0.79,-4.63,-5.24,-0.13,0.04,1.0,1000
16:52:51.090,1.45,6.59,-112.77,2.87,-4.09,-6.46,-0.14,0.05,0.99,1000
16:52:51.102,1.56,6.63,-112.85,5.0,-3.72,-7.8,-0.13,0.06,0.98,1000
16:52:51.111,1.74,6.65,-112.95,5.79,-2.56,-9.94,-0.1,0.08,1.01,1000
16:52:51.127,1.95,6.6,-113.06,4.82,-0.67,-10.24,-0.08,0.05,1.0,1000
16:52:51.133,2.07,6.54,-113.17,3.05,2.2,-8.72,-0.12,0.02,1.03,1000
16:52:51.144,2.08,6.56,-113.25,1.34,4.45,-6.34,-0.13,0.03,1.0,1000
16:52:51.157,2.06,6.66,-113.31,0.3,5.37,-4.76,-0.14,0.04,1.02,1000
16:52:51.166,2.07,6.79,-113.36,0.43,5.3,-4.7,-0.15,0.05,1.01,1000
16:52:51.177,2.12,6.93,-113.42,1.4,3.48,-5.49,-0.13,0.05,1.02,1000
16:52:51.188,2.2,7.02,-113.49,2.87,0.79,-6.52,-0.14,0.05,1.01,1000
16:52:51.201,2.29,7.09,-113.56,4.76,-2.26,-8.05,-0.14,0.06,1.0,1000
16:52:51.210,2.41,7.11,-113.66,6.16,-5.79,-9.88,-0.14,0.08,0.99,1000
16:52:51.223,2.59,7.1,-113.78,6.83,-8.35,-12.07,-0.13,0.08,1.0,1000
16:52:51.233,2.79,7.05,-113.92,5.91,-10.67,-13.6,-0.12,0.09,0.98,1000
16:52:51.243,3.01,6.99,-114.07,3.54,-14.27,-14.51,-0.13,0.11,0.98,1000
16:52:51.255,3.24,6.85,-114.23,0.67,-13.23,-14.45,-0.05,0.1,1.06,1000
16:52:51.265,3.36,6.56,-114.38,-3.54,-8.54,-11.28,-0.04,0.05,1.04,1000
16:52:51.276,3.3,6.25,-114.48,-7.44,-5.3,-5.98,-0.1,0.0,1.05,1000
16:52:51.289,3.06,6.09,-114.51,-10.12,-0.91,0.37,-0.11,0.0,1.04,1000
16:52:51.300,2.8,6.07,-114.49,-10.06,3.05,4.15,-0.15,0.01,1.04,1000
16:52:51.309,2.56,6.2,-114.43,-7.44,5.3,6.95,-0.16,0.01,1.03,1000
16:52:51.320,2.38,6.38,-114.35,-2.99,6.28,7.07,-0.15,0.04,1.02,1000
16:52:51.331,2.35,6.58,-114.28,1.65,6.22,4.94,-0.14,0.06,1.03,1000
16:52:51.343,2.42,6.75,-114.23,5.91,3.78,2.62,-0.15,0.07,1.0,1000
16:52:51.353,2.57,6.87,-114.22,8.84,2.26,0.06,-0.13,0.06,1.04,1000
16:52:51.364,2.71,6.89,-114.22,8.96,1.46,-0.06,-0.09,0.03,1.01,1000
16:52:51.376,2.73,6.82,-114.21,6.77,0.98,2.07,-0.09,0.0,1.03,1000
16:52:51.386,2.66,6.72,-114.17,3.23,1.95,5.0,-0.07,0.0,1.01,1000
16:52:51.397,2.51,6.56,-114.11,-0.61,3.48,7.26,-0.06,0.01,1.03,1000
16:52:51.409,2.34,6.41,-114.02,-3.48,5.12,8.66,-0.09,0.02,1.02,1000
16:52:51.419,2.18,6.33,-113.92,-4.7,5.49,8.23,-0.09,0.02,1.03,1000
16:52:51.436,2.05,6.29,-113.84,-3.78,5.24,6.83,-0.11,0.03,1.03,1000
16:52:51.441,1.98,6.31,-113.77,-1.95,3.6,4.39,-0.13,0.04,1.02,1000
16:52:51.454,1.96,6.36,-113.74,0.24,1.52,1.16,-0.13,0.04,1.03,1000
16:52:51.463,1.98,6.41,-113.74,2.38,-0.06,-1.34,-0.13,0.04,1.02,1000
16:52:51.474,2.02,6.45,-113.77,4.15,-0.91,-4.02,-0.12,0.03,1.03,1000
16:52:51.485,2.05,6.46,-113.82,5.37,-0.98,-5.3,-0.12,0.04,1.02,1000
16:52:51.496,2.09,6.48,-113.89,5.73,-0.55,-6.95,-0.13,0.04,1.01,1000
16:52:51.508,2.19,6.51,-113.97,5.18,-0.06,-8.84,-0.11,0.07,1.01,1000
16:52:51.519,2.3,6.52,-114.08,3.72,0.49,-10.12,-0.11,0.05,1.01,1000
16:52:51.539,2.38,6.52,-114.19,1.65,2.07,-9.82,-0.11,0.05,1.01,1000
16:52:51.540,2.42,6.53,-114.28,-0.3,3.48,-9.02,-0.1,0.04,1.0,1000
16:52:51.551,2.41,6.55,-114.38,-2.38,5.18,-7.56,-0.12,0.04,1.02,1000
16:52:51.562,2.37,6.6,-114.46,-3.78,7.13,-6.28,-0.14,0.04,1.0,1000
16:52:51.573,2.32,6.72,-114.52,-4.21,8.48,-5.55,-0.14,0.05,1.02,1000
16:52:51.584,2.3,6.88,-114.58,-4.09,8.23,-5.3,-0.17,0.07,1.0,1000
16:52:51.596,2.41,7.12,-114.65,-3.78,3.17,-7.44,-0.18,0.13,1.02,1000
16:52:51.606,2.59,7.25,-114.74,-2.68,0.91,-8.54,-0.1,0.07,1.11,1000
16:52:51.619,2.67,7.24,-114.82,-1.4,-1.04,-6.16,-0.17,0.03,1.07,1000
16:52:51.638,2.63,7.26,-114.87,-0.98,-5.85,-1.65,-0.16,-0.0,1.07,1000
16:52:51.640,2.49,7.24,-114.86,-0.12,-9.09,3.17,-0.14,-0.0,1.08,1000
16:52:51.653,2.35,7.18,-114.81,2.01,-11.65,6.28,-0.16,0.01,1.05,1000
16:52:51.661,2.27,7.14,-114.73,4.76,-14.94,7.44,-0.14,0.04,1.03,1000
16:52:51.674,2.29,7.03,-114.66,7.38,-15.91,6.1,-0.13,0.06,1.04,1000
16:52:51.683,2.41,6.89,-114.6,8.84,-15.49,4.57,-0.14,0.06,1.01,1000
16:52:51.694,2.58,6.79,-114.56,8.17,-15.18,2.44,-0.13,0.08,1.0,1000
16:52:51.706,2.77,6.71,-114.54,5.43,-13.6,0.98,-0.13,0.07,0.99,1000
16:52:51.717,2.9,6.65,-114.53,1.22,-10.24,1.04,-0.13,0.05,1.0,1000
16:52:51.727,2.9,6.64,-114.51,-3.48,-5.85,2.74,-0.14,0.03,0.99,1000
16:52:51.741,2.78,6.68,-114.47,-7.44,-1.89,5.18,-0.12,0.02,0.99,1000
16:52:51.749,2.61,6.72,-114.4,-10.24,1.4,6.59,-0.11,0.04,0.99,1000
16:52:51.760,2.46,6.74,-114.33,-10.67,2.87,6.28,-0.1,0.04,1.0,1000
16:52:51.771,2.33,6.71,-114.26,-9.33,3.23,6.28,-0.09,0.03,1.02,1000
16:52:51.783,2.19,6.65,-114.19,-7.32,2.68,6.28,-0.09,0.02,1.02,1000
16:52:51.793,2.04,6.57,-114.12,-4.51,1.28,6.71,-0.09,0.0,1.02,1000
16:52:51.804,1.9,6.46,-114.05,-1.46,-0.37,6.65,-0.09,0.02,1.02,1000
16:52:51.815,1.83,6.36,-113.98,0.73,-2.74,5.67,-0.1,0.04,1.01,1000
16:52:51.827,1.85,6.26,-113.92,3.05,-4.15,4.09,-0.1,0.04,1.03,1000
16:52:51.845,1.9,6.18,-113.88,3.66,-6.04,3.29,-0.12,0.04,1.0,1000
16:52:51.848,1.95,6.13,-113.85,3.54,-7.38,3.11,-0.1,0.02,1.05,1000
16:52:51.859,1.94,6.02,-113.8,2.2,-6.83,5.0,-0.12,0.0,1.03,1000
16:52:51.870,1.84,5.97,-113.74,0.24,-6.22,6.65,-0.12,0.0,1.02,1000
16:52:51.883,1.72,5.92,-113.66,-1.59,-3.9,7.5,-0.08,0.02,1.03,1000
16:52:51.892,1.63,5.86,-113.58,-2.74,-1.59,6.52,-0.1,0.03,1.0,1000
16:52:51.904,1.57,5.82,-113.52,-2.74,0.67,4.76,-0.08,0.03,1.02,1000
16:52:51.914,1.54,5.77,-113.48,-2.13,2.87,2.32,-0.07,0.03,1.01,1000
16:52:51.925,1.52,5.73,-113.46,-0.98,3.78,0.06,-0.1,0.02,1.02,1000
16:52:51.946,1.51,5.73,-113.47,0.24,4.57,-2.87,-0.1,0.04,1.01,1000
16:52:51.947,1.54,5.76,-113.52,1.46,5.06,-5.49,-0.11,0.04,1.02,1000
16:52:51.959,1.58,5.82,-113.59,2.13,5.49,-7.38,-0.12,0.03,1.0,1000
16:52:51.969,1.65,5.9,-113.68,2.07,5.3,-9.82,-0.1,0.06,1.01,1000
16:52:51.980,1.74,5.94,-113.79,1.46,5.12,-11.34,-0.09,0.04,1.02,1000
16:52:51.991,1.79,5.97,-113.93,0.55,6.28,-11.22,-0.11,0.03,1.03,1000
16:52:52.002,1.8,6.01,-114.04,-0.61,6.04,-10.91,-0.1,0.04,1.01,1000
16:52:52.013,1.8,6.06,-114.17,-2.01,5.67,-10.67,-0.1,0.04,1.02,1000
16:52:52.025,1.82,6.1,-114.29,-3.17,5.0,-11.34,-0.11,0.06,1.02,1000
16:52:52.049,1.85,6.13,-114.41,-3.48,3.66,-11.4,-0.1,0.05,1.02,1000
16:52:52.050,1.88,6.16,-114.54,-2.56,2.8,-10.85,-0.13,0.04,1.03,1000
16:52:52.059,1.89,6.22,-114.65,-0.98,2.56,-10.12,-0.12,0.04,1.02,1000
16:52:52.068,1.91,6.27,-114.76,0.49,2.5,-9.15,-0.12,0.04,1.03,1000
16:52:52.079,1.94,6.32,-114.86,2.13,2.62,-8.6,-0.12,0.05,1.01,1000
16:52:52.090,2.01,6.35,-114.95,3.41,3.41,-9.15,-0.09,0.07,1.03,1000
16:52:52.101,2.17,6.35,-115.06,3.9,4.21,-9.88,-0.12,0.09,1.02,1000
16:52:52.115,2.4,6.39,-115.17,4.33,4.82,-10.91,-0.12,0.09,1.05,1000
16:52:52.126,2.59,6.46,-115.29,3.96,6.77,-10.3,-0.15,0.07,1.04,1000
16:52:52.134,2.74,6.62,-115.4,3.05,8.05,-9.21,-0.18,0.07,1.05,1000
16:52:52.152,2.87,6.92,-115.49,1.95,9.51,-7.2,-0.18,0.07,1.04,1000
16:52:52.156,2.95,7.19,-115.57,0.85,9.27,-6.1,-0.17,0.08,1.04,1000
16:52:52.167,3.05,7.44,-115.63,-0.24,7.26,-5.3,-0.15,0.09,1.03,1000
16:52:52.181,3.18,7.59,-115.69,-1.4,5.0,-5.98,-0.14,0.1,1.05,1000
16:52:52.189,3.32,7.65,-115.76,-2.68,2.01,-6.22,-0.13,0.09,1.03,1000
16:52:52.200,3.42,7.67,-115.82,-3.78,-1.28,-5.12,-0.15,0.07,1.05,1000
16:52:52.211,3.45,7.68,-115.87,-5.24,-3.17,-3.54,-0.16,0.06,1.02,1000
16:52:52.222,3.43,7.69,-115.9,-6.52,-5.12,-1.77,-0.15,0.07,1.03,1000
16:52:52.233,3.38,7.71,-115.91,-7.93,-6.16,0.0,-0.15,0.06,1.02,1000
16:52:52.247,3.32,7.69,-115.9,-8.6,-6.59,1.71,-0.14,0.04,1.02,1000
16:52:52.256,3.21,7.66,-115.88,-8.72,-6.04,3.41,-0.14,0.04,1.01,1000
16:52:52.266,3.12,7.63,-115.84,-8.84,-7.26,3.84,-0.12,0.09,0.99,1000
16:52:52.278,3.13,7.54,-115.8,-8.35,-7.56,2.5,-0.11,0.08,1.02,1000
16:52:52.288,3.14,7.43,-115.78,-8.17,-6.59,3.17,-0.13,0.05,1.0,1000
16:52:52.299,3.04,7.3,-115.72,-8.23,-5.0,5.61,-0.09,0.02,0.99,1000
16:52:52.313,2.9,7.17,-115.65,-8.17,-2.62,8.29,-0.1,0.02,1.0,1000
16:52:52.321,2.72,7.04,-115.54,-8.05,-0.55,10.49,-0.1,0.02,0.98,1000
16:52:52.332,2.55,6.96,-115.42,-7.07,2.5,12.32,-0.1,0.02,1.01,1000
16:52:52.351,2.39,6.92,-115.28,-5.3,5.79,13.41,-0.1,0.01,0.99,1000
16:52:52.357,2.26,6.9,-115.14,-3.23,8.48,13.6,-0.1,0.02,1.01,1000
16:52:52.365,2.17,6.95,-114.98,-0.37,12.07,12.74,-0.11,0.02,1.01,1000
16:52:52.376,2.12,7.06,-114.85,2.07,12.32,11.4,-0.15,0.03,0.99,1000
16:52:52.387,2.15,7.24,-114.73,4.57,12.56,8.78,-0.14,0.05,1.04,1000
16:52:52.398,2.24,7.41,-114.65,5.91,10.91,6.89,-0.16,0.05,1.01,1000
16:52:52.409,2.34,7.61,-114.58,6.22,8.29,4.76,-0.17,0.04,1.08,1000
16:52:52.421,2.39,7.76,-114.53,4.21,6.22,5.18,-0.17,0.0,1.04,1000
16:52:52.431,2.32,7.89,-114.47,1.1,2.44,6.71,-0.17,-0.0,1.05,1000
16:52:52.443,2.18,7.99,-114.39,-2.74,-0.24,7.74,-0.16,0.01,1.04,1000
16:52:52.460,2.01,8.02,-114.3,-6.1,-1.71,8.23,-0.15,0.01,1.04,1000
16:52:52.464,1.83,8.04,-114.21,-9.39,-3.41,7.99,-0.14,0.03,1.03,1000
16:52:52.475,1.63,8.04,-114.13,-11.4,-2.56,7.07,-0.13,-0.0,1.03,1000
16:52:52.486,1.41,8.01,-114.05,-12.5,-1.89,5.85,-0.14,0.01,1.01,1000
16:52:52.500,1.21,8.0,-114.0,-12.93,-2.32,4.15,-0.16,0.02,1.0,1000
16:52:52.508,1.06,8.02,-113.97,-12.38,-2.07,0.91,-0.16,0.03,1.03,1000
16:52:52.519,0.96,8.03,-113.97,-11.65,-2.56,-1.34,-0.14,0.0,1.01,1000
16:52:52.534,0.8,8.01,-113.98,-11.22,-3.41,-0.91,-0.13,-0.03,1.03,1000
16:52:52.541,0.57,7.96,-113.99,-10.91,-3.96,0.73,-0.12,-0.04,1.01,1000
16:52:52.555,0.27,7.86,-113.97,-10.61,-5.18,2.68,-0.11,-0.05,1.01,1000
16:52:52.563,-0.04,7.73,-113.93,-10.0,-6.22,4.51,-0.11,-0.06,1.0,1000
16:52:52.574,-0.36,7.56,-113.87,-8.66,-6.77,6.04,-0.1,-0.06,1.0,1000
16:52:52.585,-0.66,7.36,-113.8,-7.68,-6.46,6.65,-0.08,-0.04,1.0,1000
16:52:52.596,-0.87,7.12,-113.74,-6.71,-5.73,7.2,-0.07,-0.05,1.0,1000
16:52:52.609,-1.1,6.84,-113.64,-5.43,-2.2,8.11,-0.06,-0.04,1.01,1000
16:52:52.620,-1.28,6.61,-113.55,-4.45,1.95,8.48,-0.06,-0.05,1.0,1000
16:52:52.631,-1.46,6.44,-113.46,-3.17,7.01,9.51,-0.08,-0.07,1.03,1000
16:52:52.640,-1.64,6.38,-113.35,-1.59,11.83,10.37,-0.11,-0.07,1.03,1000
16:52:52.662,-1.78,6.45,-113.23,0.98,15.12,9.57,-0.12,-0.04,1.05,1000
16:52:52.663,-1.8,6.61,-113.14,3.6,14.15,6.71,-0.14,0.02,1.04,1000
16:52:52.673,-1.65,6.82,-113.09,6.28,11.59,2.5,-0.14,0.0,1.1,1000
16:52:52.687,-1.51,6.96,-113.07,7.8,9.63,1.52,-0.14,-0.03,1.11,1000
16:52:52.700,-1.43,7.05,-113.05,7.93,6.28,1.16,-0.16,-0.04,1.08,1000
16:52:52.706,-1.38,7.12,-113.04,6.71,1.77,0.73,-0.13,-0.03,1.09,1000
16:52:52.720,-1.33,7.12,-113.04,5.73,-1.28,-0.55,-0.14,-0.01,1.08,1000
16:52:52.733,-1.25,7.09,-113.05,5.06,-4.94,-3.05,-0.15,0.02,1.05,1000
16:52:52.741,-1.11,7.05,-113.1,4.63,-7.8,-6.65,-0.14,0.03,1.07,1000
16:52:52.750,-0.93,6.99,-113.19,4.51,-8.35,-9.57,-0.15,0.03,1.03,1000
16:52:52.772,-0.71,6.98,-113.32,4.02,-9.88,-13.23,-0.16,0.04,1.01,1000
16:52:52.774,-0.46,7.01,-113.48,2.87,-11.1,-16.46,-0.16,0.05,0.99,1000
16:52:52.783,-0.21,7.01,-113.67,1.71,-11.34,-18.78,-0.14,0.06,0.98,1000
16:52:52.794,0.06,6.96,-113.88,0.18,-10.98,-19.94,-0.1,0.06,0.98,1000
16:52:52.805,0.26,6.82,-114.1,-1.83,-9.57,-19.7,-0.09,0.04,0.96,1000
16:52:52.816,0.42,6.68,-114.31,-3.66,-7.68,-17.32,-0.1,0.04,0.96,1000
16:52:52.827,0.54,6.56,-114.49,-5.06,-5.12,-14.7,-0.1,0.04,0.94,1000
16:52:52.839,0.63,6.49,-114.63,-5.85,-1.89,-11.77,-0.11,0.04,0.94,1000
16:52:52.849,0.68,6.49,-114.75,-5.73,2.01,-8.29,-0.11,0.03,0.95,1000
16:52:52.866,0.72,6.51,-114.82,-4.76,4.63,-4.82,-0.1,0.02,0.95,1000
16:52:52.871,0.75,6.54,-114.86,-2.74,7.99,-1.1,-0.1,0.02,0.95,1000
16:52:52.882,0.79,6.56,-114.85,-0.73,11.83,2.5,-0.09,0.03,0.94,1000
16:52:52.893,0.87,6.63,-114.81,1.59,15.43,5.55,-0.1,0.02,0.96,1000
16:52:52.904,0.98,6.75,-114.73,3.9,16.16,8.11,-0.13,0.04,0.93,1000
16:52:52.915,1.14,6.96,-114.63,6.04,16.16,9.39,-0.14,0.05,1.0,1000
16:52:52.933,1.32,7.17,-114.52,8.23,15.12,10.55,-0.13,0.02,0.99,1000
16:52:52.939,1.43,7.36,-114.4,10.18,13.78,12.56,-0.15,-0.01,1.04,1000
16:52:52.950,1.48,7.55,-114.25,11.65,11.89,14.63,-0.15,-0.01,1.02,1000
16:52:52.959,1.51,7.7,-114.08,11.77,9.57,15.37,-0.14,-0.01,1.07,1000
16:52:52.972,1.5,7.82,-113.91,11.59,8.29,15.55,-0.16,-0.0,1.06,1000
16:52:52.981,1.51,7.91,-113.74,11.1,6.65,14.88,-0.14,-0.01,1.09,1000
16:52:52.992,1.47,7.96,-113.59,10.0,6.1,13.9,-0.16,-0.02,1.09,1000
16:52:53.004,1.43,8.04,-113.44,8.9,4.45,12.44,-0.17,-0.0,1.08,1000
16:52:53.014,1.4,8.12,-113.32,7.44,2.87,9.27,-0.18,0.02,1.09,1000
16:52:53.025,1.43,8.21,-113.23,5.85,1.28,5.49,-0.19,0.04,1.08,1000
16:52:53.037,1.48,8.32,-113.2,3.78,-0.49,1.4,-0.19,0.03,1.09,1000
16:52:53.051,1.51,8.41,-113.19,1.77,-1.77,-1.16,-0.19,0.02,1.08,1000
16:52:53.059,1.51,8.49,-113.22,-0.18,-2.99,-3.48,-0.18,0.02,1.07,1000
16:52:53.073,1.48,8.54,-113.27,-1.28,-3.84,-5.12,-0.18,0.02,1.06,1000
16:52:53.080,1.47,8.58,-113.33,-2.13,-5.3,-7.44,-0.17,0.05,1.03,1000
16:52:53.091,1.5,8.59,-113.43,-2.44,-7.07,-9.63,-0.16,0.06,1.02,1000
16:52:53.102,1.58,8.57,-113.54,-3.35,-8.29,-11.89,-0.18,0.06,1.02,1000
16:52:53.113,1.64,8.53,-113.68,-4.76,-8.11,-12.8,-0.14,0.04,1.02,1000
16:52:53.124,1.66,8.46,-113.82,-6.22,-7.99,-13.11,-0.16,0.04,1.01,1000
16:52:53.135,1.66,8.42,-113.96,-7.38,-7.01,-12.74,-0.16,0.04,1.0,1000
16:52:53.147,1.64,8.4,-114.1,-7.8,-5.91,-12.5,-0.15,0.04,1.0,1000
16:52:53.157,1.61,8.38,-114.24,-7.01,-4.02,-12.13,-0.15,0.04,1.0,1000
16:52:53.175,1.6,8.36,-114.37,-5.79,-2.68,-12.13,-0.13,0.04,0.99,1000
16:52:53.180,1.6,8.33,-114.49,-4.02,-0.73,-12.01,-0.14,0.03,1.0,1000
16:52:53.190,1.62,8.34,-114.63,-1.52,1.1,-11.59,-0.15,0.03,0.99,1000
16:52:53.203,1.65,8.35,-114.76,0.79,2.44,-10.79,-0.14,0.02,0.99,1000
16:52:53.212,1.68,8.37,-114.86,3.05,3.84,-9.33,-0.14,0.01,0.99,1000
16:52:53.223,1.7,8.42,-114.96,5.06,5.37,-6.46,-0.16,0.01,0.99,1000
16:52:53.235,1.7,8.52,-115.02,6.59,5.79,-4.33,-0.15,0.03,1.0,1000
16:52:53.247,1.75,8.58,-115.05,7.62,6.4,-2.2,-0.13,0.03,1.01,1000
16:52:53.256,1.82,8.59,-115.07,7.93,6.34,-0.49,-0.14,0.03,1.03,1000
16:52:53.271,1.88,8.6,-115.06,7.74,4.39,1.16,-0.16,0.03,1.01,1000
16:52:53.280,1.97,8.61,-115.05,7.13,1.83,1.77,-0.16,0.06,1.07,1000
16:52:53.289,2.08,8.59,-115.03,5.79,-0.67,2.2,-0.15,0.03,1.06,1000
16:52:53.300,2.12,8.55,-115.0,4.33,-2.99,3.54,-0.16,0.02,1.08,1000
16:52:53.312,2.1,8.54,-114.95,2.74,-4.94,5.06,-0.17,0.02,1.06,1000
16:52:53.322,2.06,8.51,-114.89,1.52,-6.04,6.1,-0.17,0.02,1.06,1000
16:52:53.335,1.99,8.5,-114.83,-0.06,-6.71,6.34,-0.18,0.03,1.05,1000
16:52:53.344,1.95,8.49,-114.76,-1.4,-7.56,5.73,-0.17,0.03,1.05,1000
16:52:53.356,1.92,8.45,-114.7,-2.56,-7.07,4.88,-0.16,0.04,1.05,1000
16:52:53.366,1.88,8.39,-114.65,-3.48,-6.46,3.96,-0.15,0.03,1.04,1000
16:52:53.382,1.83,8.33,-114.61,-3.96,-5.67,3.23,-0.15,0.03,1.04,1000
16:52:53.388,1.77,8.28,-114.58,-4.09,-4.7,2.44,-0.14,0.03,1.02,1000
16:52:53.399,1.73,8.22,-114.56,-3.72,-4.21,1.65,-0.13,0.02,1.02,1000
16:52:53.410,1.67,8.14,-114.54,-2.99,-3.29,1.28,-0.13,0.01,1.01,1000
16:52:53.421,1.59,8.06,-114.53,-1.95,-2.56,1.59,-0.11,-0.01,1.02,1000
16:52:53.433,1.49,7.96,-114.51,-0.91,-2.2,1.89,-0.13,-0.0,1.0,1000
16:52:53.445,1.37,7.89,-114.48,0.37,-2.74,2.74,-0.14,-0.02,1.01,1000
16:52:53.454,1.25,7.85,-114.45,1.65,-3.23,2.74,-0.14,-0.0,1.0,1000
16:52:53.465,1.17,7.81,-114.43,3.05,-6.46,1.52,-0.14,0.04,0.97,1000
16:52:53.483,1.22,7.72,-114.42,4.76,-7.99,-1.1,-0.11,0.04,1.03,1000
16:52:53.487,1.31,7.55,-114.44,5.73,-9.88,-3.11,-0.12,0.03,0.99,1000
16:52:53.498,1.39,7.41,-114.48,5.55,-12.26,-4.21,-0.14,0.01,1.01,1000
16:52:53.511,1.41,7.31,-114.53,3.72,-12.8,-3.48,-0.14,-0.0,1.0,1000
16:52:53.520,1.35,7.22,-114.56,0.49,-12.5,-1.59,-0.15,-0.03,1.02,1000
16:52:53.531,1.18,7.18,-114.56,-2.99,-10.24,0.55,-0.15,-0.02,0.99,1000
16:52:56.251,0.71,0.09,-2.14,-1.89,-12.01,-6.52,0.31,-0.19,0.87,1250
16:52:57.260,3.67,-4.94,-15.02,11.52,-15.55,-17.93,0.68,0.04,0.92,1270
16:52:57.271,3.56,-5.07,-15.22,23.72,-11.22,-19.39,-0.28,-0.58,0.49,1270
16:52:57.282,3.43,-5.07,-15.42,-8.54,12.44,-22.32,0.01,0.6,1.07,1270
16:52:57.293,3.39,-5.1,-15.62,27.5,7.87,-18.72,-0.41,-0.63,0.87,1270
16:52:58.305,1.9,-3.06,-10.87,2.01,-14.63,-2.93,-0.35,-0.19,1.19,1270
16:53:01.320,1.59,-3.08,-16.01,20.67,-1.16,4.33,0.22,0.32,1.12,1260
16:53:02.332,-0.22,-3.53,-15.41,3.66,-1.77,-4.33,0.26,-0.35,0.93,1260
16:53:02.344,-0.26,-3.51,-15.41,-5.98,-0.24,-1.34,-0.28,0.11,1.13,1260
16:53:02.354,-0.22,-3.51,-15.41,-3.23,2.99,3.05,0.16,0.0,1.23,1260
16:53:02.364,-0.21,-3.57,-15.4,7.74,11.4,6.04,-0.19,-0.02,1.19,1260
16:53:03.379,0.7,-2.41,-10.1,13.6,-1.95,-2.32,-0.15,-0.02,1.11,1260
16:53:04.388,0.95,-2.75,-11.69,-5.79,15.06,8.05,-0.31,-0.4,1.1,1260
16:53:04.403,0.79,-2.67,-11.61,22.87,-1.89,8.96,-0.15,0.07,0.98,1260
16:53:04.413,0.48,-2.56,-11.53,-4.94,12.32,6.46,0.12,-0.55,1.2,1260
16:53:04.421,0.35,-2.44,-11.44,9.51,-10.18,8.48,0.49,0.68,1.1,1260
16:53:05.433,-3.51,-0.9,-14.39,-0.43,2.5,-8.72,0.22,0.77,1.37,1260
16:53:06.446,-2.84,-2.37,-14.05,-6.59,-7.01,-21.1,0.43,0.57,0.85,1260
16:53:06.456,-2.83,-2.31,-14.23,-6.52,-4.02,-18.96,-0.47,-0.96,0.83,1260
16:53:06.467,-3.01,-2.28,-14.4,5.0,0.55,-9.57,0.17,0.94,1.48,1260
16:53:06.481,-2.98,-2.18,-14.59,-7.44,0.3,-11.95,-0.06,-0.93,0.96,1260
16:53:06.489,-2.87,-2.04,-14.78,7.56,-1.34,-16.46,0.21,0.06,1.01,1260
16:53:07.457,-1.48,-1.33,-8.15,40.67,-12.5,-16.34,-0.13,-0.94,1.04,1260
16:53:07.468,-1.42,-1.37,-8.31,8.6,-4.94,-9.45,0.01,0.23,1.26,1260
16:53:07.479,-1.26,-1.4,-8.47,29.33,-0.67,-7.68,0.2,-0.07,1.36,1260
16:53:07.489,-1.2,-1.53,-8.64,21.4,-14.02,-16.46,0.02,-0.08,0.73,1260
16:53:09.502,1.15,-4.54,-20.13,29.27,-18.35,-1.46,-0.02,0.53,0.8,1260
16:53:10.514,-1.51,-3.31,-16.73,8.84,13.66,-46.59,-0.16,-0.8,1.04,1260
16:53:10.526,-1.42,-3.24,-17.22,12.62,6.1,-47.07,0.42,1.17,1.09,1260
16:53:10.541,-1.14,-3.32,-17.66,8.54,-12.8,-45.85,-0.07,-1.11,0.91,1260
16:53:10.547,-1.16,-3.36,-18.09,12.93,-0.18,-32.13,0.19,0.16,1.23,1260
16:53:11.560,1.16,-3.72,-12.65,-3.35,-3.29,10.06,-0.41,0.08,0.94,1260
16:53:14.574,0.33,-4.39,-16.24,-22.8,-3.05,-3.66,0.14,-0.04,1.16,1260
16:53:17.588,1.69,-3.89,-13.04,-9.76,-0.85,-14.27,-0.15,-0.56,1.0,1260
16:53:19.600,0.29,-3.14,-15.33,-4.15,19.63,-2.68,0.2,1.4,1.25,1260
16:53:20.622,-0.84,-2.54,-14.74,4.76,-1.52,-2.87,-0.06,-0.71,0.99,1260
16:53:20.624,-1.01,-2.48,-14.78,-8.54,0.79,-2.32,0.58,0.83,1.21,1260
16:53:20.634,-1.16,-2.39,-14.83,19.09,-20.24,-7.26,0.14,-1.09,0.67,1260
16:53:20.646,-1.1,-2.39,-14.86,-6.22,0.0,-4.21,-0.07,0.72,1.1,1260
16:53:21.657,0.5,-3.41,-19.14,15.3,-22.07,-12.38,0.13,-0.92,0.75,1260
16:53:22.669,-0.49,-2.95,-18.69,20.24,3.96,-13.35,-0.02,-1.34,0.71,1260
16:53:22.680,-0.78,-2.98,-18.82,-8.35,16.04,-15.67,0.6,1.21,1.13,1260
16:53:22.692,-0.5,-3.11,-18.95,-25.79,-0.06,-14.51,-0.22,-1.22,1.12,1260
16:53:22.703,-0.63,-3.05,-19.07,17.26,-4.27,-8.41,0.56,0.61,1.13,1260
16:53:22.714,-0.67,-3.07,-19.19,-17.26,21.59,-6.46,-0.48,0.36,1.36,1260
16:53:23.691,1.44,-3.98,-18.3,9.45,8.17,6.4,0.79,0.86,1.19,1260
16:53:23.692,1.34,-4.21,-18.33,-1.46,-10.06,-5.73,-0.38,-0.27,0.75,1260
16:53:23.703,1.27,-4.14,-18.37,-1.59,-4.45,-11.71,0.53,-0.24,0.74,1260
16:53:23.716,1.06,-4.15,-18.41,9.15,-11.4,-5.67,-0.3,-0.1,0.79,1260
16:53:27.686,-2.29,-2.46,-13.42,4.27,-4.27,6.65,0.19,0.11,1.14,1260
16:53:29.709,-1.98,-2.18,-14.71,-8.54,2.68,4.88,-0.21,0.29,1.26,1260
16:53:30.721,-2.44,-4.09,-11.33,6.46,-4.88,-24.76,0.51,0.6,1.26,1260
16:53:30.732,-2.35,-4.68,-11.54,8.23,-4.02,-14.57,-0.65,-0.83,0.72,1260
16:53:30.747,-2.45,-5.13,-11.77,-3.29,2.8,-27.44,0.47,0.75,1.39,1260
16:53:33.759,-2.15,-1.18,-8.92,-0.43,-6.1,-21.59,-0.1,-0.61,1.11,1260
16:53:34.769,-0.92,-0.95,-15.58,-33.66,-23.84,25.18,0.0,-1.04,1.03,1260
16:53:37.784,-0.77,0.45,-11.74,-9.57,-4.45,22.32,-0.04,-1.0,1.04,1260
16:53:38.795,-1.12,-3.4,-19.75,7.01,-7.38,-28.35,-0.18,0.1,0.82,1260
16:53:38.808,-0.57,-3.57,-20.08,-31.95,33.48,-31.46,-0.11,0.06,1.2,1260
16:53:38.817,-0.35,-3.73,-20.41,5.73,6.95,-28.29,-0.49,0.04,0.78,1260
16:53:38.828,-0.13,-3.88,-20.72,-20.18,24.45,-26.83,0.69,0.73,1.34,1260
16:53:39.841,-3.84,2.52,-2.32,11.59,-9.7,-14.21,0.24,-0.14,1.19,1260
16:53:41.853,-2.95,1.57,-13.87,-0.85,3.84,-31.1,-0.05,0.94,1.44,1260
16:53:42.864,0.3,-5.88,-10.12,6.65,10.98,29.33,0.25,0.1,1.13,1260
16:53:42.875,0.23,-5.96,-9.82,-5.55,-13.6,26.28,0.47,0.59,0.97,1260
16:53:42.886,0.34,-6.07,-9.51,-14.21,-2.56,26.52,-0.11,-0.94,0.98,1260
16:53:42.898,0.05,-6.08,-9.2,5.0,-9.09,31.65,0.18,0.79,1.13,1260
16:53:42.909,0.0,-6.03,-8.88,-23.41,15.73,30.06,-0.35,-0.54,0.9,1260
16:53:43.877,-1.82,-1.56,-5.83,15.43,-11.28,-30.73,0.26,-0.59,0.93,1260
16:53:43.887,-1.86,-1.56,-6.13,6.71,-15.37,-29.51,-0.31,-0.19,1.21,1260
16:53:43.898,-1.84,-1.41,-6.42,0.67,9.09,-25.18,0.2,-0.13,1.37,1260
16:53:43.910,-2.01,-1.21,-6.72,16.04,-17.8,-27.87,0.42,0.42,1.28,1260
16:53:45.868,0.49,-3.28,-13.63,1.52,-0.85,26.59,0.02,-0.95,0.75,1260
16:53:47.880,-4.0,-0.31,-8.1,-5.06,1.89,0.43,0.08,-0.69,0.85,1260
16:53:48.892,-4.47,0.76,-5.17,-10.24,-2.07,-69.21,0.47,0.68,1.23,1260
16:53:48.903,-4.28,0.66,-5.92,20.98,-22.38,-76.52,-0.21,-0.38,0.71,1260
16:53:48.914,-4.2,0.65,-6.68,-8.29,-15.43,-74.39,-0.44,-0.3,0.96,1260
16:53:48.925,-4.13,0.64,-7.44,10.3,0.98,-59.88,-0.17,-0.16,1.19,1260
16:53:49.937,2.01,-3.17,-5.57,-45.12,-1.04,24.21,-0.01,0.12,1.1,1260
16:53:52.952,4.39,34.67,106.27,3.6,-2.5,2.01,-0.63,-0.02,1.11,1000
16:53:52.962,4.29,34.4,106.3,2.87,-3.66,1.52,-0.65,0.11,1.01,1000
16:53:52.976,4.24,34.11,106.32,1.71,-7.01,0.79,-0.51,0.06,0.89,1000
16:53:52.986,4.21,33.89,106.34,-0.3,-3.17,-0.24,-0.46,0.09,0.95,1000
16:53:52.995,4.21,33.65,106.36,2.01,-0.73,2.68,-0.46,-0.01,0.95,1000
16:53:53.009,4.15,33.43,106.37,-3.78,-8.11,-1.59,-0.48,0.06,0.92,1000
16:53:53.017,4.13,33.26,106.38,-4.27,-5.85,-0.73,-0.49,0.01,0.79,1000
16:53:53.028,4.15,33.06,106.38,1.34,-0.73,-0.18,-0.5,0.0,0.79,1000
16:53:53.039,4.12,32.85,106.38,-0.79,1.95,-0.55,-0.51,0.07,0.82,1000
16:53:53.051,4.09,32.73,106.37,-4.57,0.85,-1.52,-0.5,0.04,0.95,1000
16:53:53.061,4.05,32.62,106.36,-1.34,-2.32,-0.55,-0.5,0.08,0.94,1000
16:53:53.073,3.97,32.49,106.35,-4.45,-2.99,-2.01,-0.45,-0.06,0.86,1000
16:53:53.083,3.91,32.4,106.33,-2.74,-2.62,-2.01,-0.51,-0.03,0.89,1000
16:53:53.094,3.82,32.31,106.32,2.99,4.02,-0.43,-0.56,0.06,0.81,1000
16:53:53.105,3.73,32.25,106.31,1.28,1.95,-0.91,-0.54,0.05,0.89,1000
16:53:53.116,3.65,32.2,106.3,-1.52,0.79,-0.85,-0.49,0.08,0.88,1000
16:53:53.127,3.59,32.14,106.29,-3.84,0.55,-0.73,-0.54,0.02,0.91,1000
16:53:53.139,3.51,32.06,106.28,-0.73,-1.4,-0.55,-0.48,-0.01,0.9,1000
16:53:53.149,3.46,32.0,106.28,0.37,1.04,-0.61,-0.54,0.04,0.93,1000
16:53:53.160,3.38,31.92,106.28,1.34,-2.87,-1.04,-0.4,-0.02,0.86,1000
16:53:53.183,3.33,31.84,106.28,-0.43,-3.54,-0.37,-0.51,0.02,0.93,1000
16:53:53.183,3.28,31.75,106.28,4.76,-0.3,-0.24,-0.57,0.09,0.89,1000
16:53:53.193,3.24,31.64,106.27,0.0,-2.62,0.0,-0.47,0.02,0.87,1000
16:53:53.204,3.23,31.55,106.27,0.98,0.06,-0.67,-0.49,-0.04,0.87,1000
16:53:53.216,3.19,31.46,106.27,1.22,-0.55,0.37,-0.51,0.09,0.89,1000
16:53:53.227,3.19,31.4,106.27,0.67,0.55,-0.91,-0.51,0.04,0.93,1000
16:53:53.243,3.18,31.34,106.26,-0.67,-1.1,-0.3,-0.54,0.05,0.9,1000
16:53:53.248,3.18,31.33,106.25,-2.44,0.43,-1.28,-0.51,0.07,0.92,1000
16:53:53.259,3.15,31.26,106.25,0.55,0.85,-0.43,-0.52,0.0,0.88,1000
16:53:53.270,3.12,31.19,106.25,-3.23,-0.55,-0.3,-0.54,-0.04,1.04,1000
16:53:53.285,3.04,31.12,106.24,-0.98,-1.16,-0.85,-0.48,0.05,0.88,1000
16:53:53.293,3.01,31.07,106.24,-2.26,-1.52,-1.59,-0.5,-0.01,0.91,1000
16:53:53.303,2.98,31.02,106.23,0.12,-0.73,-0.24,-0.49,0.04,0.89,1000
16:53:53.314,2.93,30.95,106.22,-1.71,-0.24,-1.04,-0.47,0.05,0.92,1000
16:53:53.325,2.91,30.92,106.21,-1.71,0.61,-0.61,-0.53,-0.0,0.89,1000
16:53:53.336,2.88,30.9,106.21,0.91,-0.67,-0.91,-0.5,0.02,0.83,1000
16:53:53.349,2.87,30.87,106.2,-0.49,-1.1,-0.43,-0.5,0.03,0.89,1000
16:53:53.358,2.84,30.84,106.2,0.98,0.18,-0.55,-0.53,0.04,0.87,1000
16:53:53.369,2.8,30.8,106.19,-0.37,-1.04,-0.73,-0.49,0.04,0.91,1000
16:53:53.390,2.79,30.75,106.19,-0.61,-1.16,-0.18,-0.5,0.02,0.9,1000
16:53:53.391,2.77,30.71,106.18,-0.49,-0.06,-0.73,-0.51,0.07,0.9,1000
16:53:53.402,2.76,30.66,106.18,-0.24,0.3,-1.04,-0.51,-0.01,0.9,1000
16:53:53.413,2.76,30.63,106.17,-0.55,-0.37,-0.12,-0.51,0.07,0.89,1000
16:53:53.425,2.76,30.61,106.17,-0.49,0.49,-0.67,-0.52,0.02,0.91,1000
16:53:53.435,2.75,30.58,106.16,-0.3,-0.67,-0.79,-0.49,0.05,0.88,1000
16:53:53.448,2.73,30.54,106.16,-1.4,-0.06,-0.85,-0.49,0.04,0.9,1000
16:53:53.458,2.72,30.49,106.15,0.18,-0.12,-0.79,-0.49,0.04,0.91,1000
16:53:53.468,2.7,30.43,106.15,-0.06,0.61,-0.55,-0.49,0.03,0.9,1000
16:53:53.490,2.68,30.39,106.14,-0.79,-0.43,-0.91,-0.49,0.02,0.91,1000
16:53:53.491,2.68,30.37,106.14,-0.43,-0.91,-0.37,-0.51,0.05,0.91,1000
16:53:53.501,2.66,30.33,106.13,0.43,0.12,-0.79,-0.51,0.04,0.91,1000
16:53:53.512,2.64,30.31,106.13,-0.49,-1.65,-0.61,-0.49,0.02,0.9,1000
16:53:53.523,2.63,30.28,106.12,0.49,-0.12,-0.12,-0.52,0.05,0.9,1000
16:53:53.534,2.61,30.25,106.12,-0.49,-0.85,-0.61,-0.52,0.05,0.91,1000
16:53:53.549,2.6,30.22,106.11,0.12,-0.49,-0.43,-0.52,0.05,0.9,1000
16:53:53.556,2.59,30.2,106.1,-0.18,-0.06,-0.49,-0.49,0.05,0.9,1000
16:53:53.567,2.58,30.16,106.1,-0.06,0.06,-0.43,-0.5,0.03,0.89,1000
16:53:53.582,2.57,30.12,106.1,-0.43,-0.43,-0.3,-0.5,0.04,0.89,1000
16:53:53.591,2.57,30.1,106.09,-0.18,-0.18,-0.61,-0.51,0.02,0.89,1000
16:53:53.600,2.57,30.07,106.09,0.18,-0.55,-0.18,-0.49,0.01,0.89,1000
16:53:53.612,2.54,30.03,106.08,-0.55,-0.3,-0.49,-0.49,0.04,0.9,1000
16:53:53.623,2.53,30.0,106.08,-0.3,-0.49,-0.91,-0.48,0.03,0.89,1000
16:53:53.633,2.53,29.96,106.07,-0.3,0.18,-0.12,-0.49,0.05,0.9,1000
16:53:53.644,2.51,29.94,106.07,-0.61,0.06,-0.91,-0.48,0.04,0.9,1000
16:53:53.656,2.51,29.92,106.06,-0.24,0.06,-0.3,-0.5,0.03,0.9,1000
16:53:53.668,2.51,29.89,106.05,-0.85,0.18,-0.49,-0.5,0.05,0.9,1000
16:53:53.677,2.5,29.87,106.05,-0.24,0.3,-1.1,-0.5,0.03,0.9,1000
16:53:53.694,2.5,29.84,106.04,-0.55,0.0,0.0,-0.5,0.03,0.9,1000
16:53:53.699,2.48,29.83,106.03,-0.49,-0.18,-0.55,-0.5,0.05,0.89,1000
16:53:53.711,2.47,29.82,106.03,-0.37,-0.06,-0.73,-0.5,0.03,0.9,1000
16:53:53.721,2.46,29.8,106.02,-0.37,-0.3,-0.18,-0.5,0.04,0.89,1000
16:53:53.732,2.46,29.79,106.02,-0.06,-0.55,-0.61,-0.49,0.04,0.9,1000
16:53:53.743,2.46,29.77,106.01,-0.3,-0.3,-0.43,-0.5,0.03,0.9,1000
16:53:53.754,2.45,29.76,106.01,-0.24,-0.49,-0.55,-0.49,0.05,0.89,1000
16:53:53.767,2.44,29.73,106.0,-0.12,-0.3,-0.61,-0.49,0.04,0.91,1000
16:53:53.776,2.44,29.71,106.0,-0.06,-0.3,-0.3,-0.5,0.03,0.89,1000
16:53:53.799,2.43,29.69,105.99,-0.49,-0.24,-0.49,-0.49,0.04,0.9,1000
16:53:53.800,2.42,29.68,105.99,-0.43,-0.24,-0.55,-0.5,0.03,0.9,1000
16:53:53.809,2.42,29.66,105.98,-0.24,-0.37,-0.61,-0.49,0.04,0.89,1000
16:53:53.820,2.42,29.64,105.98,-0.24,-0.06,-0.55,-0.49,0.04,0.9,1000
16:53:53.831,2.41,29.62,105.97,-0.43,-0.06,-0.43,-0.5,0.03,0.9,1000
16:53:53.842,2.4,29.6,105.96,-0.18,-0.24,-0.61,-0.49,0.05,0.9,1000
16:53:53.854,2.39,29.59,105.96,-0.37,-0.24,-0.73,-0.5,0.03,0.9,1000
16:53:53.864,2.39,29.58,105.95,-0.37,-0.24,-0.55,-0.49,0.04,0.89,1000
16:53:53.875,2.38,29.56,105.95,-0.37,-0.18,-0.61,-0.5,0.04,0.91,1000
16:53:53.898,2.37,29.55,105.94,-0.18,-0.49,-0.3,-0.5,0.03,0.9,1000
16:53:53.899,2.36,29.53,105.94,-0.3,-0.3,-0.43,-0.49,0.05,0.9,1000
16:53:53.908,2.36,29.51,105.93,-0.37,-0.37,-0.73,-0.5,0.04,0.9,1000
16:53:53.919,2.35,29.5,105.92,-0.18,-0.24,-0.18,-0.5,0.04,0.9,1000
16:53:53.931,2.35,29.48,105.92,-0.43,-0.24,-0.61,-0.5,0.04,0.9,1000
16:53:53.941,2.34,29.47,105.91,-0.18,-0.18,-0.61,-0.49,0.03,0.9,1000
16:53:53.953,2.34,29.45,105.91,-0.37,-0.24,-0.49,-0.49,0.04,0.9,1000
16:53:53.964,2.34,29.45,105.9,-0.3,-0.18,-0.49,-0.5,0.04,0.9,1000
16:53:53.974,2.33,29.43,105.9,-0.37,-0.18,-0.49,-0.5,0.04,0.9,1000
16:53:53.987,2.33,29.42,105.89,-0.37,-0.24,-0.55,-0.5,0.04,0.9,1000
16:53:54.002,2.32,29.41,105.88,-0.43,-0.12,-0.61,-0.49,0.04,0.9,1000
16:53:54.007,2.32,29.41,105.88,-0.37,-0.18,-0.55,-0.49,0.04,0.9,1000
16:53:54.018,2.31,29.4,105.87,-0.3,-0.18,-0.49,-0.5,0.04,0.89,1000
16:53:54.029,2.3,29.38,105.86,-0.3,-0.18,-0.55,-0.5,0.04,0.9,1000
16:53:54.041,2.3,29.38,105.86,-0.43,-0.18,-0.55,-0.5,0.04,0.9,1000
16:53:54.051,2.29,29.37,105.85,-0.18,-0.18,-0.49,-0.5,0.04,0.9,1000
16:53:54.062,2.28,29.36,105.85,-0.18,-0.18,-0.43,-0.49,0.04,0.9,1000
16:53:54.075,2.28,29.34,105.84,-0.3,-0.55,-0.61,-0.5,0.04,0.9,1000
16:53:54.084,2.28,29.33,105.84,-0.18,-0.24,-0.49,-0.5,0.04,0.9,1000
16:53:54.107,2.28,29.32,105.83,0.06,0.18,-0.55,-0.5,0.03,0.9,1000
16:53:54.107,2.27,29.32,105.82,0.55,-0.61,-0.37,-0.5,0.04,0.9,1000
16:53:54.123,2.26,29.31,105.82,0.49,-1.28,-0.12,-0.51,0.03,0.9,1000
16:53:54.128,2.25,29.31,105.82,0.79,-2.01,0.24,-0.5,0.03,0.89,1000
16:53:54.139,2.24,29.31,105.82,0.3,-4.45,0.73,-0.5,0.03,0.89,1000
16:53:54.154,2.24,29.3,105.83,0.91,-4.88,0.61,-0.51,0.05,0.9,1000
16:53:54.162,2.27,29.3,105.84,0.37,-5.18,0.85,-0.51,0.05,0.9,1000
16:53:54.172,2.29,29.28,105.85,0.73,-4.88,1.16,-0.49,0.03,0.89,1000
16:53:54.183,2.27,29.21,105.86,2.2,-4.09,1.28,-0.47,0.02,0.91,1000
16:53:54.206,2.26,29.11,105.87,2.99,-2.68,0.85,-0.49,0.04,0.91,1000
16:53:54.207,2.29,29.04,105.88,2.74,-2.2,0.85,-0.49,0.04,0.9,1000
16:53:54.216,2.33,28.99,105.89,2.01,-0.98,0.55,-0.48,0.05,0.9,1000
16:53:54.227,2.38,28.93,105.89,1.52,0.55,0.06,-0.47,0.04,0.91,1000
16:53:54.238,2.42,28.84,105.89,0.85,1.83,-0.3,-0.47,0.05,0.9,1000
16:53:54.249,2.47,28.78,105.89,-1.04,1.95,-1.34,-0.49,0.07,0.9,1000
16:53:54.261,2.55,28.77,105.87,-2.56,2.01,-1.59,-0.48,0.05,0.89,1000
16:53:54.272,2.58,28.78,105.85,-2.99,2.87,-1.95,-0.49,0.04,0.91,1000
16:53:54.283,2.56,28.8,105.83,-2.32,3.41,-1.83,-0.5,0.04,0.91,1000
16:53:54.294,2.52,28.85,105.81,-2.07,2.93,-1.59,-0.5,0.03,0.89,1000
16:53:54.327,2.48,28.9,105.79,-1.4,2.5,-1.46,-0.51,0.03,0.9,1000
16:53:54.327,2.43,28.94,105.78,0.49,2.68,-0.98,-0.49,0.01,0.9,1000
16:53:54.327,2.36,28.98,105.77,2.32,2.8,-0.67,-0.49,0.01,0.91,1000
16:53:54.337,2.28,29.01,105.76,4.51,1.34,-0.06,-0.53,0.0,0.9,1000
16:53:54.349,2.23,29.07,105.77,6.83,-0.67,1.04,-0.53,0.01,0.92,1000
16:53:54.359,2.15,29.13,105.79,10.3,-1.77,2.62,-0.53,-0.02,0.91,1000
16:53:54.374,2.07,29.22,105.83,15.18,-4.51,5.61,-0.58,-0.04,0.96,1000
16:53:54.382,2.04,29.27,105.91,26.89,-5.06,10.37,-0.62,-0.08,1.03,1000
16:53:54.392,1.97,29.3,106.05,41.04,-10.85,16.65,-0.7,-0.19,1.24,1000
16:53:54.411,1.85,29.17,106.27,63.35,-21.28,23.41,-0.74,-0.32,1.3,1000
16:53:54.414,1.77,28.93,106.55,94.82,-29.63,27.32,-0.78,-0.32,1.32,1000
16:53:54.427,1.88,28.72,106.85,122.5,-37.8,26.77,-0.84,-0.18,1.19,1000
16:53:54.436,2.53,28.56,107.13,132.93,-51.95,23.29,-0.71,0.01,1.1,1000
16:53:54.447,3.55,28.27,107.36,122.8,-70.43,18.84,-0.58,0.17,0.99,1000
16:53:54.458,4.75,27.76,107.54,99.88,-87.87,13.29,-0.61,0.25,0.94,1000
16:53:54.469,6.04,27.04,107.66,73.78,-119.82,8.9,-0.61,0.24,0.9,1000
16:53:54.485,7.12,25.98,107.76,41.34,-143.84,7.62,-0.45,0.35,0.93,1000
16:53:54.493,7.91,24.54,107.84,13.9,-162.2,7.8,-0.41,0.28,0.95,1000
16:53:54.521,8.48,22.8,107.93,-8.72,-175.06,8.96,-0.35,0.26,0.97,1000
16:53:54.522,8.7,20.8,108.03,-28.6,-178.78,9.15,-0.29,0.22,1.04,1000
16:53:54.524,8.57,18.89,108.13,-42.74,-175.0,10.61,-0.25,0.16,1.08,1000
16:53:54.536,8.01,16.55,108.27,-53.9,-166.65,12.74,-0.19,0.1,1.2,1000
16:53:54.546,7.25,14.44,108.42,-56.16,-157.99,14.88,-0.17,0.05,1.25,1000
16:53:54.557,6.3,12.4,108.59,-54.82,-146.16,17.38,-0.16,0.0,1.27,1000
16:53:54.570,5.28,10.54,108.79,-51.95,-132.5,19.21,-0.12,-0.02,1.23,1000
16:53:54.580,4.36,8.94,109.01,-45.55,-119.21,21.34,-0.07,-0.03,1.17,1000
16:53:54.590,3.44,7.52,109.25,-38.29,-107.13,22.44,-0.12,-0.06,1.12,1000
16:53:54.601,2.6,6.33,109.5,-32.32,-96.59,22.62,-0.12,-0.02,1.09,1000
16:53:54.614,1.97,5.39,109.75,-28.23,-83.96,22.62,-0.13,0.01,1.08,1000
16:53:54.623,1.49,4.7,110.0,-25.85,-70.85,22.07,-0.16,0.03,1.11,1000
16:53:54.636,1.13,4.27,110.24,-24.7,-59.02,21.4,-0.18,0.04,1.21,1000
16:53:54.645,0.85,3.94,110.47,-23.54,-50.43,20.98,-0.17,0.04,1.24,1000
16:53:54.656,0.63,3.77,110.7,-21.28,-39.39,20.55,-0.14,0.03,1.22,1000
16:53:54.668,0.44,3.67,110.92,-17.5,-26.52,19.57,-0.13,0.02,1.18,1000
16:53:54.680,0.28,3.7,111.13,-12.01,-14.09,18.29,-0.12,0.01,1.13,1000
16:53:54.689,0.15,3.85,111.33,-6.1,0.79,17.74,-0.12,-0.01,1.13,1000
16:53:54.703,0.03,4.16,111.52,1.34,15.3,16.46,-0.14,-0.03,1.15,1000
16:53:54.720,-0.03,4.6,111.7,9.57,29.94,16.4,-0.12,-0.05,1.16,1000
16:53:54.722,-0.06,5.14,111.88,18.29,45.24,16.4,-0.12,-0.05,1.19,1000
16:53:54.733,-0.03,5.79,112.06,26.71,61.1,17.13,-0.14,-0.05,1.17,1000
16:53:54.744,0.07,6.56,112.25,33.6,76.83,17.13,-0.14,-0.02,1.21,1000
16:53:54.755,0.25,7.42,112.45,37.8,90.85,17.8,-0.11,-0.01,1.25,1000
16:53:54.766,0.49,8.37,112.65,40.12,104.51,18.84,-0.18,0.01,1.29,1000
16:53:54.777,0.81,9.45,112.85,37.62,110.91,19.27,-0.17,0.1,1.25,1000
16:53:54.788,1.22,10.61,113.07,36.28,118.54,19.33,-0.14,0.11,1.22,1000
16:53:54.799,1.68,11.83,113.28,32.38,122.99,19.21,-0.17,0.06,1.2,1000
16:53:54.819,2.13,13.09,113.49,25.79,124.76,19.27,-0.25,0.13,1.16,1000
16:53:54.821,2.58,14.34,113.69,20.98,126.16,18.54,-0.25,0.12,1.14,1000
16:53:54.832,2.96,15.57,113.89,15.85,124.7,17.99,-0.28,0.12,1.19,1000
16:53:54.843,3.3,16.71,114.09,9.09,120.79,17.26,-0.31,0.15,1.21,1000
16:53:54.854,3.51,17.78,114.28,2.07,114.51,17.68,-0.31,0.15,1.2,1000
16:53:54.867,3.66,18.76,114.48,-4.94,102.74,17.56,-0.38,0.16,1.19,1000
16:53:54.876,3.75,19.71,114.66,-10.3,90.67,16.71,-0.39,0.12,1.19,1000
16:53:54.887,3.79,20.56,114.85,-16.89,74.76,16.16,-0.46,0.16,1.14,1000
16:53:54.900,3.8,21.31,115.01,-23.72,52.93,14.27,-0.51,0.18,1.09,1000
16:53:54.929,3.75,21.91,115.16,-32.44,28.9,12.01,-0.52,0.16,1.1,1000
16:53:54.929,3.67,22.33,115.27,-40.73,3.9,9.21,-0.55,0.17,1.09,1000
16:53:54.931,3.46,22.47,115.36,-48.9,-24.27,6.34,-0.55,0.17,1.07,1000
16:53:54.942,3.22,22.39,115.41,-53.9,-46.46,2.87,-0.51,0.14,1.02,1000
16:53:54.954,2.91,22.07,115.43,-55.91,-65.98,-0.55,-0.45,0.1,1.01,1000
16:53:54.964,2.5,21.49,115.41,-54.39,-80.24,-3.72,-0.4,0.07,0.99,1000
16:53:54.975,2.09,20.73,115.35,-50.24,-89.51,-6.4,-0.36,0.04,1.01,1000
16:53:54.989,1.64,19.79,115.26,-44.21,-93.54,-9.88,-0.31,0.03,1.01,1000
16:53:54.997,1.24,18.74,115.14,-37.62,-92.87,-13.17,-0.28,0.03,1.04,1000
16:53:55.008,0.93,17.61,114.97,-31.04,-89.27,-17.32,-0.25,0.04,1.05,1000
16:53:55.028,0.74,16.47,114.75,-25.0,-81.95,-22.5,-0.22,0.06,1.06,1000
16:53:55.031,0.64,15.5,114.51,-20.73,-72.99,-26.65,-0.2,0.07,1.06,1000
16:53:55.041,0.61,14.46,114.16,-15.91,-61.16,-32.5,-0.19,0.08,1.07,1000
16:53:55.052,0.71,13.58,113.78,-11.95,-49.76,-37.38,-0.18,0.07,1.05,1000
16:53:55.063,0.8,12.9,113.35,-7.8,-38.17,-42.01,-0.17,0.05,1.02,1000
16:53:55.074,0.94,12.32,112.86,-3.23,-27.56,-46.16,-0.17,0.04,0.99,1000
16:53:55.085,1.09,11.91,112.33,2.62,-17.68,-50.73,-0.18,0.04,0.97,1000
16:53:55.096,1.25,11.68,111.75,9.51,-8.78,-55.12,-0.2,0.03,0.96,1000
16:53:55.107,1.46,11.6,111.13,16.22,-2.93,-58.6,-0.21,0.03,0.95,1000
16:53:55.123,1.69,11.66,110.47,23.48,1.22,-62.32,-0.23,0.02,0.94,1000
16:53:55.129,1.95,11.81,109.77,30.06,3.48,-65.37,-0.24,0.01,0.93,1000
16:53:55.141,2.24,12.04,109.03,36.28,4.63,-68.11,-0.25,0.01,0.93,1000
16:53:55.151,2.53,12.32,108.27,42.26,5.24,-70.43,-0.25,0.0,0.93,1000
16:53:55.162,2.86,12.58,107.49,47.38,6.16,-72.8,-0.24,0.01,0.94,1000
16:53:55.173,3.21,12.8,106.68,52.13,7.99,-74.76,-0.22,0.01,0.95,1000
16:53:55.184,3.61,12.98,105.84,55.3,10.73,-77.07,-0.21,0.02,0.95,1000
16:53:55.197,4.03,13.12,104.98,57.5,14.27,-79.39,-0.19,0.03,0.94,1000
16:53:55.206,4.49,13.22,104.1,58.17,19.57,-81.83,-0.16,0.05,0.92,1000
16:53:55.218,4.95,13.27,103.19,57.2,25.18,-83.96,-0.15,0.06,0.91,1000
16:53:55.231,5.44,13.34,102.25,54.57,30.61,-86.22,-0.15,0.08,0.91,1000
16:53:55.239,5.94,13.41,101.29,50.12,35.55,-88.66,-0.15,0.1,0.89,1000
16:53:55.250,6.44,13.5,100.31,44.15,40.73,-91.04,-0.14,0.12,0.87,1000
16:53:55.262,6.92,13.64,99.3,37.07,45.3,-93.35,-0.15,0.13,0.86,1000
16:53:55.272,7.34,13.85,98.26,29.82,50.06,-95.85,-0.18,0.15,0.79,1000
16:53:55.283,7.65,14.08,97.2,20.24,47.68,-96.71,-0.16,-0.04,0.99,1000
16:53:55.294,7.91,14.34,96.12,11.95,48.41,-99.82,-0.24,0.3,0.87,1000
16:53:55.305,8.07,14.59,95.02,3.17,46.89,-101.34,-0.25,0.26,0.87,1000
16:53:55.316,8.16,14.86,93.9,-9.33,35.79,-102.93,-0.29,-0.09,1.02,1000
16:53:55.331,8.12,15.13,92.75,-12.44,32.62,-104.82,-0.21,-0.04,1.03,1000
16:53:55.338,8.02,15.4,91.6,-12.99,32.87,-106.28,-0.32,0.29,0.87,1000
16:53:55.349,7.77,15.57,90.42,-22.56,17.74,-106.77,-0.25,-0.1,0.9,1000
16:53:55.364,7.44,15.68,89.24,-21.4,7.99,-108.66,-0.2,-0.0,0.95,1000
16:53:55.372,7.06,15.68,88.05,-20.18,1.59,-109.51,-0.23,0.14,0.86,1000
16:53:55.383,6.66,15.57,86.84,-18.17,-8.78,-108.84,-0.3,0.09,0.9,1000
16:53:55.393,6.29,15.38,85.64,-10.24,-16.95,-110.12,-0.22,0.02,0.88,1000
16:53:55.406,5.93,15.07,84.42,-5.12,-22.87,-110.98,-0.18,0.04,0.93,1000
16:53:55.415,5.62,14.66,83.2,-4.33,-30.37,-111.34,-0.17,0.02,0.91,1000
16:53:55.428,5.39,14.19,81.97,-0.73,-38.29,-112.01,-0.26,0.09,1.0,1000
16:53:55.437,5.21,13.68,80.74,0.18,-41.89,-113.29,-0.24,0.14,0.92,1000
16:53:55.449,5.09,13.14,79.49,0.18,-44.7,-113.6,-0.22,0.06,1.01,1000
16:53:55.459,4.98,12.54,78.24,0.43,-48.35,-113.78,-0.18,0.03,0.9,1000
16:53:55.470,4.89,11.94,76.98,2.44,-51.95,-114.7,-0.17,0.04,0.95,1000
16:53:55.488,4.77,11.3,75.73,4.76,-54.09,-114.15,-0.17,0.04,0.86,1000
16:53:55.492,4.69,10.71,74.59,9.45,-54.45,-114.27,-0.16,0.05,0.91,1000
16:53:55.504,4.56,10.02,73.22,14.02,-54.76,-113.84,-0.15,0.01,0.85,1000
16:53:55.514,4.44,9.43,71.97,17.74,-55.73,-113.41,-0.16,-0.01,0.92,1000
16:53:55.528,4.33,8.89,70.73,21.59,-55.98,-112.56,-0.18,0.0,0.88,1000
16:53:55.536,4.25,8.42,69.49,25.61,-56.71,-112.26,-0.2,0.01,0.94,1000
16:53:55.547,4.17,8.03,68.26,29.09,-57.74,-111.59,-0.2,0.01,0.9,1000
16:53:55.559,4.17,7.66,67.03,31.22,-59.88,-110.98,-0.2,0.01,0.92,1000
16:53:55.569,4.21,7.33,65.81,32.93,-61.95,-110.61,-0.2,0.02,0.88,1000
16:53:55.580,4.27,7.09,64.59,33.84,-63.84,-110.79,-0.21,0.03,0.91,1000
16:53:55.591,4.37,6.88,63.38,33.54,-65.73,-110.49,-0.22,0.04,0.89,1000
16:53:55.602,4.49,6.69,62.16,32.56,-68.48,-110.98,-0.23,0.04,0.92,1000
16:53:55.617,4.64,6.47,60.94,30.79,-70.55,-111.22,-0.22,0.05,0.9,1000
16:53:55.625,4.79,6.2,59.71,28.6,-72.56,-111.4,-0.22,0.06,0.92,1000
16:53:55.639,4.91,5.98,58.48,26.4,-73.29,-111.83,-0.21,0.06,0.91,1000
16:53:55.646,5.0,5.74,57.25,24.51,-72.56,-112.38,-0.2,0.06,0.93,1000
16:53:55.657,5.06,5.54,56.02,22.99,-70.85,-112.62,-0.18,0.06,0.92,1000
16:53:55.668,5.11,5.25,54.78,21.71,-67.93,-112.56,-0.16,0.06,0.92,1000
16:53:55.679,5.13,4.97,53.54,20.85,-62.93,-112.68,-0.13,0.06,0.9,1000
16:53:55.691,5.16,4.66,52.3,20.18,-56.95,-112.8,-0.11,0.06,0.89,1000
16:53:55.701,5.17,4.37,51.06,19.27,-50.06,-112.99,-0.09,0.06,0.88,1000
16:53:55.713,5.2,4.08,49.82,18.23,-42.56,-112.8,-0.08,0.07,0.87,1000
16:53:55.725,5.24,3.85,48.57,18.35,-34.27,-112.8,-0.07,0.07,0.86,1000
16:53:55.736,5.26,3.66,47.33,16.4,-25.12,-112.74,-0.06,0.07,0.88,1000
16:53:55.745,5.28,3.56,46.1,14.63,-15.49,-112.38,-0.06,0.06,0.9,1000
16:53:55.756,5.26,3.54,44.86,13.35,-6.65,-111.95,-0.06,0.06,0.92,1000
16:53:55.767,5.21,3.61,43.63,12.8,2.68,-111.22,-0.07,0.06,0.95,1000
16:53:55.781,5.13,3.79,42.41,13.35,10.49,-110.43,-0.08,0.04,0.96,1000
16:53:55.789,5.06,4.05,41.2,14.76,17.32,-109.45,-0.1,0.03,0.97,1000
16:53:55.802,4.92,4.43,40.0,17.07,22.44,-108.54,-0.11,0.01,0.97,1000
16:53:55.811,4.78,4.88,38.81,20.79,25.91,-107.07,-0.13,0.0,0.97,1000
16:53:55.822,4.57,5.44,37.64,25.12,27.5,-105.55,-0.16,-0.01,0.96,1000
16:53:55.833,4.41,6.04,36.49,29.7,27.44,-103.84,-0.18,-0.02,0.97,1000
16:53:55.844,4.27,6.66,35.36,34.33,25.37,-102.2,-0.19,-0.02,0.96,1000
16:53:55.856,4.12,7.32,34.24,38.41,22.5,-100.24,-0.19,-0.02,0.94,1000
16:53:55.866,4.04,7.91,33.15,42.56,18.54,-98.35,-0.19,-0.02,0.91,1000
16:53:55.877,3.97,8.48,32.08,45.67,15.0,-96.46,-0.19,-0.01,0.88,1000
16:53:55.888,3.94,8.98,31.03,47.44,12.07,-94.63,-0.18,-0.0,0.86,1000
16:53:55.899,3.97,9.41,30.0,47.44,9.02,-92.93,-0.17,0.01,0.85,1000
16:53:55.910,4.08,9.74,28.98,45.98,6.77,-91.4,-0.16,0.02,0.84,1000
16:53:55.921,4.2,10.01,27.98,42.56,4.88,-89.82,-0.15,0.04,0.84,1000
16:53:55.932,4.36,10.2,27.0,37.56,3.54,-88.6,-0.15,0.06,0.83,1000
16:53:55.946,4.52,10.34,26.03,31.59,2.32,-87.38,-0.14,0.07,0.83,1000
16:53:55.954,4.67,10.42,25.08,24.45,1.89,-85.79,-0.13,0.08,0.83,1000
16:53:55.968,4.79,10.45,24.14,16.89,2.01,-84.57,-0.13,0.09,0.84,1000
16:53:55.977,4.83,10.48,23.21,8.96,2.07,-83.48,-0.13,0.09,0.85,1000
16:53:55.990,4.82,10.47,22.3,1.04,1.89,-82.13,-0.13,0.1,0.86,1000
16:53:55.998,4.74,10.44,21.41,-6.52,1.95,-80.85,-0.13,0.1,0.89,1000
16:53:56.009,4.63,10.39,20.52,-14.51,1.71,-79.76,-0.13,0.1,0.9,1000
16:53:56.020,4.45,10.34,19.65,-20.73,0.98,-78.54,-0.14,0.12,0.93,1000
16:53:56.031,4.21,10.3,18.8,-26.89,-0.37,-77.13,-0.15,0.12,0.94,1000
16:53:56.058,3.9,10.29,17.95,-32.5,-2.07,-76.1,-0.16,0.11,0.97,1000
16:53:56.067,3.6,10.25,17.12,-36.34,-3.9,-74.88,-0.16,0.09,0.97,1000
16:53:56.094,3.2,10.23,16.3,-38.23,-6.34,-73.54,-0.17,0.07,0.98,1000
16:53:56.098,2.77,10.19,15.5,-37.68,-8.41,-72.07,-0.17,0.06,0.97,1000
16:53:56.098,2.32,10.13,14.72,-34.94,-11.34,-70.55,-0.17,0.04,0.98,1000
16:53:56.098,1.87,10.05,13.95,-30.85,-13.6,-69.09,-0.16,0.02,0.98,1000
16:53:56.109,1.44,9.95,13.2,-25.37,-15.37,-67.32,-0.17,0.02,0.99,1000
16:53:56.124,1.06,9.84,12.47,-19.33,-16.83,-65.43,-0.17,0.01,1.01,1000
16:53:56.130,0.75,9.73,11.75,-13.66,-17.99,-63.9,-0.18,0.01,1.04,1000
16:53:56.151,0.51,9.62,11.06,-7.87,-18.17,-62.26,-0.17,0.02,1.05,1000
16:53:56.158,0.36,9.5,10.38,-2.93,-17.56,-60.61,-0.17,0.02,1.07,1000
16:53:56.165,0.27,9.37,9.72,1.16,-16.28,-58.96,-0.16,0.04,1.06,1000
16:53:56.176,0.25,9.26,9.14,3.48,-14.51,-57.74,-0.15,0.05,1.06,1000
