Timestamp,Roll,Pitch,Yaw,Throttle
21:40:54.222,-12.14,5.29,-133.73,1100
21:40:54.222,-12.14,5.3,-133.76,1100
21:40:54.360,-12.14,5.29,-133.78,1100
21:40:54.360,-12.14,5.3,-133.81,1100
21:40:54.364,-12.14,5.29,-133.83,1100
21:40:54.495,-12.13,5.29,-133.85,1100
21:40:54.495,-12.14,5.3,-133.87,1100
21:40:54.614,-12.14,5.29,-133.9,1100
21:40:54.614,-12.14,5.29,-133.92,1100
21:40:54.620,-12.14,5.29,-133.95,1100
21:40:54.731,-12.14,5.29,-133.97,1100
21:40:54.731,-12.14,5.29,-133.99,1100
21:40:54.853,-12.14,5.29,-134.02,1100
21:40:54.853,-12.14,5.29,-134.04,1100
21:40:54.969,-12.14,5.29,-134.07,1100
21:40:54.969,-12.14,5.3,-134.09,1100
21:40:54.977,-12.14,5.3,-134.11,1100
21:40:55.130,-12.14,5.29,-134.14,1100
21:40:55.130,-12.14,5.29,-134.16,1100
21:40:55.130,-12.14,5.29,-134.19,1100
21:40:55.246,-12.14,5.29,-134.21,1100
21:40:55.246,-12.14,5.29,-134.23,1100
21:40:55.361,-12.14,5.29,-134.25,1100
21:40:55.361,-12.14,5.29,-134.28,1100
21:40:55.463,-12.14,5.29,-134.3,1100
21:40:55.464,-12.14,5.29,-134.33,1100
21:40:55.583,-12.14,5.3,-134.36,1100
21:40:55.583,-12.13,5.29,-134.38,1100
21:40:55.588,-12.13,5.29,-134.4,1100
21:40:55.713,-12.13,5.29,-134.43,1100
21:40:55.713,-12.13,5.29,-134.46,1100
21:40:55.832,-12.13,5.29,-134.48,1100
21:40:55.832,-12.13,5.29,-134.5,1100
21:40:55.843,-12.13,5.29,-134.52,1100
21:40:55.970,-12.13,5.29,-134.55,1100
21:40:55.970,-12.13,5.29,-134.57,1100
21:40:56.094,-12.13,5.29,-134.6,1100
21:40:56.094,-12.13,5.29,-134.62,1100
21:40:56.100,-12.13,5.29,-134.65,1100
21:40:56.257,-12.13,5.29,-134.67,1100
21:40:56.257,-12.13,5.29,-134.69,1100
21:40:56.257,-12.13,5.29,-134.72,1100
21:40:56.373,-12.13,5.29,-134.74,1100
21:40:56.373,-12.13,5.29,-134.76,1100
21:40:56.482,-12.13,5.29,-134.79,1100
21:40:56.482,-12.13,5.29,-134.81,1100
21:40:56.614,-12.13,5.29,-134.84,1100
21:40:56.614,-12.13,5.29,-134.86,1100
21:40:56.614,-12.13,5.29,-134.88,1100
21:40:56.726,-12.13,5.3,-134.9,1100
21:40:56.726,-12.13,5.3,-134.93,1100
21:40:56.862,-12.13,5.3,-134.95,1100
21:40:56.862,-12.13,5.3,-134.97,1100
21:40:56.865,-12.13,5.3,-134.99,1100
21:40:56.978,-12.13,5.3,-135.02,1100
21:40:56.978,-12.13,5.3,-135.04,1100
21:40:57.097,-12.13,5.3,-135.06,1100
21:40:57.097,-12.13,5.3,-135.09,1100
21:40:57.208,-12.14,5.3,-135.11,1100
21:40:57.208,-12.13,5.3,-135.13,1100
21:40:57.221,-12.13,5.3,-135.16,1100
21:40:57.356,-12.13,5.3,-135.18,1100
21:40:57.356,-12.13,5.31,-135.2,1100
21:40:57.373,-12.13,5.3,-135.23,1100
21:40:57.499,-12.13,5.31,-135.25,1100
21:40:57.499,-12.13,5.3,-135.27,1100
21:40:57.616,-12.13,5.3,-135.3,1100
21:40:57.616,-12.13,5.3,-135.32,1100
21:40:57.628,-12.13,5.3,-135.34,1100
21:40:57.758,-12.13,5.3,-135.36,1100
21:40:57.758,-12.13,5.3,-135.39,1100
21:40:57.877,-12.13,5.3,-135.41,1100
21:40:57.877,-12.13,5.3,-135.43,1100
21:40:57.884,-12.13,5.3,-135.46,1100
21:40:58.000,-12.13,5.3,-135.48,1100
21:40:58.000,-12.13,5.31,-135.5,1100
21:40:58.122,-12.13,5.3,-135.53,1100
21:40:58.122,-12.13,5.31,-135.55,1100
21:40:58.139,-12.13,5.3,-135.57,1100
21:40:58.269,-12.13,5.31,-135.6,1100
21:40:58.269,-12.13,5.31,-135.62,1100
21:40:58.394,-12.13,5.3,-135.65,1100
21:40:58.394,-12.13,5.31,-135.67,1100
21:40:58.394,-12.13,5.3,-135.7,1100
21:40:58.502,-12.13,5.3,-135.72,1100
21:40:58.502,-12.13,5.3,-135.74,1100
21:40:58.631,-12.13,5.3,-135.77,1100
21:40:58.631,-12.13,5.31,-135.79,1100
21:40:58.648,-12.13,5.3,-135.81,1100
21:40:58.764,-12.13,5.3,-135.84,1100
21:40:58.764,-12.13,5.31,-135.86,1100
21:40:58.879,-12.13,5.29,-135.89,1100
21:40:58.879,-12.13,5.3,-135.91,1100
21:40:58.985,-12.13,5.3,-135.93,1100
21:40:58.985,-12.13,5.29,-135.96,1100
21:40:59.005,-12.13,5.3,-135.98,1100
21:40:59.161,-12.13,5.29,-136.0,1100
21:40:59.161,-12.13,5.29,-136.03,1100
21:40:59.161,-12.13,5.31,-136.05,1100
21:40:59.290,-12.13,5.29,-136.07,1100
21:40:59.290,-12.13,5.3,-136.09,1100
21:40:59.415,-12.13,5.3,-136.12,1100
21:40:59.415,-12.13,5.3,-136.14,1100
21:40:59.415,-12.13,5.3,-136.17,1100
21:40:59.527,-12.14,5.29,-136.19,1100
21:40:59.527,-12.14,5.3,-136.21,1100
21:40:59.647,-12.14,5.29,-136.24,1100
21:40:59.647,-12.14,5.3,-136.26,1100
21:40:59.812,-12.14,5.3,-136.29,1100
21:40:59.812,-12.14,5.29,-136.31,1100
21:40:59.812,-12.14,5.29,-136.33,1100
21:40:59.824,-12.14,5.29,-136.36,1100
21:40:59.978,-12.14,5.29,-136.38,1100
21:40:59.978,-12.14,5.29,-136.41,1100
21:40:59.978,-12.14,5.29,-136.43,1100
21:41:00.121,-12.14,5.29,-136.45,1100
21:41:00.121,-12.14,5.29,-136.48,1100
21:41:00.131,-12.14,5.29,-136.5,1100
21:41:00.270,-12.13,5.28,-136.53,1100
21:41:00.270,-12.13,5.29,-136.55,1100
21:41:00.286,-12.14,5.28,-136.57,1100
21:41:00.457,-12.13,5.29,-136.59,1100
21:41:00.457,-12.13,5.3,-136.61,1100
21:41:00.457,-12.14,5.28,-136.64,1100
21:41:00.651,-12.14,5.29,-136.66,1100
21:41:00.651,-12.14,5.29,-136.68,1100
21:41:00.651,-12.14,5.28,-136.71,1100
21:41:00.651,-12.13,5.29,-136.74,1100
21:41:00.769,-12.13,5.29,-136.76,1100
21:41:00.769,-12.13,5.28,-136.79,1100
21:41:00.891,-12.14,5.29,-136.8,1100
21:41:00.891,-12.13,5.28,-136.83,1100
21:41:00.892,-12.14,5.27,-136.86,1100
21:41:01.010,-12.14,5.3,-136.86,1100
21:41:01.010,-12.13,5.26,-136.9,1100
21:41:01.130,-12.13,5.28,-136.91,1100
21:41:01.131,-12.13,5.29,-136.93,1100
21:41:01.147,-12.13,5.27,-136.96,1100
21:41:01.276,-12.13,5.28,-136.98,1100
21:41:01.276,-12.13,5.29,-137.0,1100
21:41:01.397,-12.13,5.27,-137.02,1100
21:41:01.397,-12.13,5.29,-137.04,1100
21:41:01.402,-12.13,5.28,-137.07,1100
21:41:01.528,-12.13,5.28,-137.09,1100
21:41:01.528,-12.13,5.29,-137.11,1100
21:41:01.646,-12.13,5.29,-137.13,1100
21:41:01.646,-12.13,5.28,-137.16,1100
21:41:01.657,-12.12,5.29,-137.17,1100
21:41:01.788,-12.13,5.29,-137.2,1100
21:41:01.788,-12.13,5.27,-137.23,1100
21:41:01.911,-12.13,5.3,-137.24,1100
21:41:01.911,-12.13,5.29,-137.26,1100
21:41:01.912,-12.13,5.28,-137.29,1100
21:41:02.021,-12.13,5.3,-137.31,1100
21:41:02.021,-12.13,5.29,-137.34,1100
21:41:02.142,-12.13,5.29,-137.36,1100
21:41:02.142,-12.13,5.29,-137.38,1100
21:41:02.253,-12.13,5.29,-137.4,1100
21:41:02.253,-12.13,5.3,-137.43,1100
21:41:02.269,-12.13,5.29,-137.46,1100
21:41:02.405,-12.13,5.29,-137.48,1100
21:41:02.405,-12.13,5.29,-137.5,1100
21:41:02.422,-12.13,5.28,-137.53,1100
21:41:02.552,-12.13,5.29,-137.55,1100
21:41:02.552,-12.13,5.28,-137.57,1100
21:41:02.673,-12.13,5.29,-137.6,1100
21:41:02.673,-12.12,5.29,-137.62,1100
21:41:02.679,-12.12,5.28,-137.64,1100
21:41:02.790,-12.12,5.29,-137.66,1100
21:41:02.790,-12.12,5.28,-137.69,1100
21:41:02.908,-12.13,5.29,-137.71,1100
21:41:02.908,-12.12,5.29,-137.74,1100
21:41:03.018,-12.12,5.29,-137.76,1100
21:41:03.018,-12.12,5.29,-137.78,1100
21:41:03.034,-12.12,5.28,-137.8,1100
21:41:03.185,-12.12,5.29,-137.83,1100
21:41:03.185,-12.12,5.29,-137.85,1100
21:41:03.187,-12.12,5.29,-137.88,1100
21:41:03.312,-12.12,5.29,-137.9,1100
21:41:03.312,-12.12,5.29,-137.93,1100
21:41:03.433,-12.12,5.28,-137.95,1100
21:41:03.433,-12.12,5.29,-137.97,1100
21:41:03.442,-12.12,5.29,-138.0,1100
21:41:03.551,-12.12,5.29,-138.02,1100
21:41:03.551,-12.12,5.29,-138.05,1100
21:41:03.673,-12.12,5.29,-138.07,1100
21:41:03.673,-12.12,5.29,-138.1,1100
21:41:03.791,-12.12,5.29,-138.12,1100
21:41:03.791,-12.12,5.29,-138.14,1100
21:41:03.799,-12.13,5.29,-138.17,1100
21:41:03.928,-12.13,5.29,-138.19,1100
21:41:03.928,-12.12,5.29,-138.21,1100
21:41:04.037,-12.13,5.29,-138.23,1100
21:41:04.037,-12.13,5.3,-138.26,1100
21:41:04.054,-12.13,5.29,-138.28,1100
21:41:04.193,-12.13,5.3,-138.3,1100
21:41:04.193,-12.13,5.29,-138.33,1100
21:41:04.208,-12.13,5.29,-138.35,1100
21:41:04.334,-12.13,5.3,-138.37,1100
21:41:04.334,-12.13,5.3,-138.39,1100
21:41:04.459,-12.12,5.3,-138.41,1100
21:41:04.459,-12.12,5.3,-138.44,1100
21:41:04.462,-12.12,5.3,-138.46,1100
21:41:04.572,-12.13,5.3,-138.49,1100
21:41:04.572,-12.13,5.3,-138.51,1100
21:41:04.691,-12.12,5.3,-138.53,1100
21:41:04.691,-12.12,5.3,-138.56,1100
21:41:04.801,-12.12,5.3,-138.58,1100
21:41:04.801,-12.12,5.31,-138.6,1100
21:41:04.819,-12.12,5.3,-138.62,1100
21:41:04.967,-12.12,5.3,-138.65,1100
21:41:04.967,-12.12,5.31,-138.66,1100
21:41:04.974,-12.12,5.29,-138.69,1100
21:41:05.095,-12.12,5.3,-138.71,1100
21:41:05.095,-12.12,5.3,-138.74,1100
21:41:05.216,-12.12,5.29,-138.76,1100
21:41:05.216,-12.12,5.3,-138.78,1100
21:41:05.227,-12.12,5.3,-138.81,1100
21:41:05.339,-12.12,5.3,-138.83,1100
21:41:05.339,-12.12,5.3,-138.85,1100
21:41:05.473,-12.12,5.3,-138.87,1100
21:41:05.473,-12.12,5.3,-138.9,1100
21:41:05.484,-12.12,5.3,-138.92,1100
21:41:05.605,-12.12,5.3,-138.94,1100
21:41:05.605,-12.12,5.3,-138.96,1100
21:41:05.743,-12.11,5.3,-138.99,1100
21:41:05.743,-12.11,5.3,-139.01,1100
21:41:05.743,-12.11,5.3,-139.03,1100
21:41:05.858,-12.11,5.3,-139.06,1100
21:41:05.858,-12.12,5.3,-139.08,1100
21:41:05.980,-12.12,5.3,-139.11,1100
21:41:05.980,-12.12,5.3,-139.13,1100
21:41:05.992,-12.12,5.31,-139.15,1100
21:41:06.111,-12.12,5.3,-139.18,1100
21:41:06.111,-12.12,5.3,-139.2,1100
21:41:06.232,-12.12,5.3,-139.23,1100
21:41:06.232,-12.12,5.3,-139.25,1100
21:41:06.247,-12.12,5.3,-139.27,1100
21:41:06.383,-12.12,5.3,-139.3,1100
21:41:06.383,-12.12,5.3,-139.32,1100
21:41:06.400,-12.12,5.3,-139.34,1100
21:41:06.540,-12.12,5.3,-139.36,1100
21:41:06.540,-12.12,5.3,-139.39,1100
21:41:06.553,-12.12,5.3,-139.41,1100
21:41:06.667,-12.12,5.31,-139.43,1100
21:41:06.667,-12.12,5.3,-139.46,1100
21:41:06.786,-12.12,5.31,-139.48,1100
21:41:06.786,-12.13,5.31,-139.5,1100
21:41:06.896,-12.13,5.3,-139.52,1100
21:41:06.896,-12.12,5.3,-139.55,1100
21:41:07.014,-12.12,5.3,-139.57,1100
21:41:07.014,-12.12,5.3,-139.6,1100
21:41:07.015,-12.13,5.3,-139.62,1100
21:41:07.160,-12.13,5.3,-139.65,1100
21:41:07.160,-12.13,5.3,-139.67,1100
21:41:07.165,-12.13,5.3,-139.69,1100
21:41:07.299,-12.13,5.3,-139.72,1100
21:41:07.299,-12.13,5.31,-139.74,1100
21:41:07.319,-12.13,5.3,-139.77,1100
21:41:07.446,-12.13,5.31,-139.79,1100
21:41:07.446,-12.13,5.3,-139.81,1100
21:41:07.567,-12.13,5.31,-139.84,1100
21:41:07.567,-12.13,5.31,-139.86,1100
21:41:07.573,-12.13,5.31,-139.88,1100
21:41:07.686,-12.13,5.31,-139.91,1100
21:41:07.686,-12.13,5.31,-139.93,1100
21:41:07.806,-12.13,5.31,-139.95,1100
21:41:07.806,-12.13,5.3,-139.98,1100
21:41:07.915,-12.13,5.31,-140.0,1100
21:41:07.915,-12.13,5.31,-140.02,1100
21:41:07.932,-12.13,5.3,-140.05,1100
21:41:08.075,-12.13,5.31,-140.07,1100
21:41:08.075,-12.13,5.3,-140.1,1100
21:41:08.083,-12.13,5.31,-140.12,1100
21:41:08.206,-12.13,5.31,-140.15,1100
21:41:08.206,-12.13,5.31,-140.17,1100
21:41:08.336,-12.13,5.31,-140.19,1100
21:41:08.336,-12.13,5.31,-140.22,1100
21:41:08.338,-12.13,5.31,-140.24,1100
21:41:08.461,-12.13,5.31,-140.27,1100
21:41:08.461,-12.13,5.31,-140.29,1100
21:41:08.580,-12.13,5.31,-140.31,1100
21:41:08.580,-12.13,5.31,-140.34,1100
21:41:08.595,-12.13,5.31,-140.36,1100
21:41:08.702,-12.13,5.31,-140.38,1100
21:41:08.702,-12.13,5.31,-140.41,1100
21:41:08.819,-12.14,5.31,-140.43,1100
21:41:08.819,-12.14,5.31,-140.45,1100
21:41:08.928,-12.13,5.31,-140.48,1100
21:41:08.928,-12.13,5.31,-140.5,1100
21:41:09.047,-12.13,5.31,-140.52,1100
21:41:09.047,-12.13,5.31,-140.55,1100
21:41:09.053,-12.13,5.31,-140.57,1100
21:41:09.163,-12.13,5.31,-140.59,1100
21:41:09.163,-12.13,5.31,-140.61,1100
21:41:09.281,-12.13,5.31,-140.64,1100
21:41:09.281,-12.13,5.31,-140.66,1100
21:41:09.390,-12.13,5.31,-140.68,1100
21:41:09.390,-12.13,5.31,-140.71,1100
21:41:09.409,-12.13,5.31,-140.73,1100
21:41:09.546,-12.13,5.31,-140.76,1100
21:41:09.546,-12.13,5.31,-140.78,1100
21:41:09.562,-12.13,5.31,-140.81,1100
21:41:09.702,-12.13,5.31,-140.83,1100
21:41:09.702,-12.13,5.31,-140.85,1100
21:41:09.715,-12.13,5.31,-140.87,1100
21:41:09.844,-12.13,5.31,-140.9,1100
21:41:09.844,-12.13,5.31,-140.92,1100
21:41:09.955,-12.13,5.31,-140.94,1100
21:41:09.955,-12.13,5.3,-140.97,1100
21:41:09.970,-12.13,5.31,-140.99,1100
21:41:10.088,-12.13,5.31,-141.01,1100
21:41:10.088,-12.13,5.31,-141.03,1100
21:41:10.195,-12.13,5.31,-141.06,1100
21:41:10.195,-12.13,5.31,-141.08,1100
21:41:10.314,-12.13,5.31,-141.1,1100
21:41:10.314,-12.13,5.31,-141.13,1100
21:41:10.327,-12.13,5.3,-141.15,1100
21:41:10.446,-12.13,5.32,-141.17,1100
21:41:10.447,-12.13,5.3,-141.2,1100
21:41:10.585,-12.13,5.31,-141.22,1100
21:41:10.585,-12.13,5.31,-141.24,1100
21:41:10.585,-12.13,5.3,-141.26,1100
21:41:10.719,-12.13,5.32,-141.28,1100
21:41:10.719,-12.13,5.31,-141.3,1100
21:41:10.735,-12.13,5.32,-141.32,1100
21:41:10.862,-12.12,5.31,-141.35,1100
21:41:10.862,-12.13,5.31,-141.37,1100
21:41:10.973,-12.13,5.31,-141.4,1100
21:41:10.973,-12.13,5.31,-141.42,1100
21:41:10.990,-12.12,5.31,-141.44,1100
21:41:11.112,-12.13,5.31,-141.47,1100
21:41:11.112,-12.13,5.31,-141.49,1100
21:41:11.224,-12.13,5.3,-141.52,1100
21:41:11.224,-12.13,5.32,-141.54,1100
21:41:11.347,-12.12,5.3,-141.57,1100
21:41:11.347,-12.12,5.31,-141.59,1100
21:41:11.347,-12.12,5.31,-141.61,1100
21:41:11.459,-12.12,5.31,-141.63,1100
21:41:11.459,-12.12,5.31,-141.65,1100
21:41:11.580,-12.12,5.31,-141.68,1100
21:41:11.580,-12.12,5.31,-141.7,1100
21:41:11.691,-12.12,5.31,-141.73,1100
21:41:11.691,-12.12,5.31,-141.75,1100
21:41:11.704,-12.12,5.31,-141.78,1100
21:41:11.827,-12.12,5.31,-141.8,1100
21:41:11.827,-12.12,5.31,-141.83,1100
21:41:11.940,-12.12,5.31,-141.85,1100
21:41:11.940,-12.12,5.31,-141.87,1100
21:41:11.959,-12.12,5.31,-141.9,1100
21:41:12.096,-12.12,5.31,-141.92,1100
21:41:12.096,-12.12,5.31,-141.94,1100
21:41:12.112,-12.11,5.31,-141.97,1100
21:41:12.237,-12.11,5.31,-141.99,1100
21:41:12.237,-12.11,5.32,-142.01,1100
21:41:12.352,-12.11,5.31,-142.04,1100
21:41:12.352,-12.11,5.32,-142.06,1100
21:41:12.367,-12.11,5.31,-142.08,1100
21:41:12.497,-12.11,5.32,-142.1,1100
21:41:12.497,-12.11,5.31,-142.13,1100
21:41:12.614,-12.11,5.32,-142.15,1100
21:41:12.614,-12.11,5.32,-142.18,1100
21:41:12.624,-12.11,5.31,-142.2,1100
21:41:12.735,-12.11,5.32,-142.23,1100
21:41:12.735,-12.11,5.31,-142.25,1100
21:41:12.856,-12.12,5.32,-142.27,1100
21:41:12.856,-12.12,5.31,-142.3,1100
21:41:12.967,-12.12,5.31,-142.32,1100
21:41:12.967,-12.12,5.31,-142.34,1100
21:41:12.979,-12.12,5.31,-142.37,1100
21:41:13.116,-12.12,5.31,-142.39,1100
21:41:13.116,-12.12,5.31,-142.41,1100
21:41:13.136,-12.12,5.31,-142.44,1100
21:41:13.267,-12.12,5.31,-142.46,1100
21:41:13.267,-12.12,5.31,-142.48,1100
21:41:13.285,-12.12,5.31,-142.5,1100
21:41:13.417,-12.12,5.31,-142.53,1100
21:41:13.417,-12.12,5.31,-142.55,1100
21:41:13.524,-12.12,5.31,-142.58,1100
21:41:13.524,-12.12,5.31,-142.6,1100
21:41:13.540,-12.12,5.31,-142.62,1100
21:41:13.680,-12.12,5.31,-142.65,1100
21:41:13.680,-12.12,5.31,-142.67,1100
21:41:13.693,-12.12,5.31,-142.69,1100
21:41:13.832,-12.12,5.3,-142.72,1100
21:41:13.832,-12.12,5.31,-142.74,1100
21:41:13.846,-12.12,5.31,-142.76,1100
21:41:13.994,-12.12,5.3,-142.79,1100
21:41:13.994,-12.12,5.31,-142.81,1100
21:41:13.999,-12.12,5.3,-142.84,1100
21:41:14.127,-12.12,5.3,-142.86,1100
21:41:14.127,-12.12,5.3,-142.88,1100
21:41:14.251,-12.12,5.31,-142.91,1100
21:41:14.251,-12.12,5.31,-142.93,1100
21:41:14.254,-12.12,5.31,-142.95,1100
21:41:14.380,-12.12,5.31,-142.97,1100
21:41:14.380,-12.12,5.31,-143.0,1100
21:41:14.549,-12.12,5.31,-143.02,1100
21:41:14.549,-12.12,5.31,-143.04,1100
21:41:14.549,-12.12,5.31,-143.06,1100
21:41:14.560,-12.12,5.31,-143.09,1100
21:41:14.692,-12.12,5.3,-143.11,1100
21:41:14.692,-12.12,5.31,-143.14,1100
21:41:14.816,-12.12,5.3,-143.16,1100
21:41:14.816,-12.12,5.31,-143.18,1100
21:41:14.816,-12.12,5.3,-143.21,1100
21:41:14.930,-12.12,5.3,-143.23,1100
21:41:14.930,-12.12,5.31,-143.25,1100
21:41:15.057,-12.12,5.3,-143.28,1100
21:41:15.057,-12.12,5.3,-143.3,1100
21:41:15.072,-12.12,5.3,-143.32,1100
21:41:15.193,-12.12,5.3,-143.35,1100
21:41:15.193,-12.12,5.3,-143.37,1100
21:41:15.319,-12.12,5.31,-143.39,1100
21:41:15.319,-12.12,5.3,-143.42,1100
21:41:15.325,-12.12,5.31,-143.44,1100
21:41:15.452,-12.12,5.31,-143.47,1100
21:41:15.452,-12.12,5.3,-143.5,1100
21:41:15.594,-12.12,5.31,-143.52,1100
21:41:15.594,-12.12,5.31,-143.54,1100
21:41:15.594,-12.12,5.31,-143.56,1100
21:41:15.718,-12.12,5.31,-143.58,1100
21:41:15.719,-12.12,5.31,-143.6,1100
21:41:15.734,-12.12,5.3,-143.63,1100
21:41:15.862,-12.12,5.32,-143.65,1100
21:41:15.862,-12.12,5.31,-143.68,1100
21:41:15.975,-12.12,5.31,-143.7,1100
21:41:15.975,-12.12,5.31,-143.72,1100
21:41:15.991,-12.12,5.31,-143.74,1100
21:41:16.139,-12.12,5.31,-143.77,1100
21:41:16.139,-12.12,5.31,-143.79,1100
21:41:16.141,-12.12,5.31,-143.81,1100
21:41:16.280,-12.12,5.31,-143.84,1100
21:41:16.280,-12.12,5.31,-143.86,1100
21:41:16.298,-12.12,5.31,-143.89,1100
21:41:16.441,-12.12,5.31,-143.91,1100
21:41:16.441,-12.12,5.31,-143.93,1100
21:41:16.447,-12.12,5.31,-143.96,1100
21:41:16.577,-12.12,5.31,-143.98,1100
21:41:16.577,-12.12,5.31,-144.0,1100
21:41:16.706,-12.12,5.31,-144.03,1100
21:41:16.706,-12.12,5.31,-144.05,1100
21:41:16.706,-12.12,5.31,-144.07,1100
21:41:16.831,-12.12,5.31,-144.09,1100
21:41:16.831,-12.12,5.31,-144.12,1100
21:41:16.957,-12.12,5.31,-144.14,1100
21:41:16.957,-12.12,5.3,-144.17,1100
21:41:16.959,-12.12,5.3,-144.19,1100
21:41:17.080,-12.12,5.31,-144.21,1100
21:41:17.080,-12.12,5.3,-144.23,1100
21:41:17.202,-12.12,5.31,-144.25,1100
21:41:17.203,-12.12,5.3,-144.28,1100
21:41:17.213,-12.12,5.31,-144.3,1100
21:41:17.347,-12.12,5.31,-144.32,1100
21:41:17.347,-12.12,5.3,-144.35,1100
21:41:17.365,-12.12,5.31,-144.37,1100
21:41:17.503,-12.12,5.3,-144.4,1100
21:41:17.503,-12.12,5.31,-144.42,1100
21:41:17.518,-12.12,5.3,-144.44,1100
21:41:17.673,-12.12,5.31,-144.46,1100
21:41:17.673,-12.12,5.31,-144.49,1100
21:41:17.674,-12.12,5.31,-144.51,1100
21:41:17.813,-12.12,5.31,-144.53,1100
21:41:17.814,-12.12,5.31,-144.56,1100
21:41:17.824,-12.12,5.31,-144.58,1100
21:41:17.938,-12.12,5.31,-144.61,1100
21:41:17.938,-12.12,5.31,-144.63,1100
21:41:18.081,-12.12,5.31,-144.65,1100
21:41:18.081,-12.12,5.31,-144.68,1100
21:41:18.081,-12.12,5.31,-144.7,1100
21:41:18.196,-12.12,5.31,-144.73,1100
21:41:18.196,-12.12,5.31,-144.75,1100
21:41:18.320,-12.12,5.31,-144.77,1100
21:41:18.320,-12.12,5.31,-144.79,1100
21:41:18.334,-12.12,5.32,-144.82,1100
21:41:18.491,-12.12,5.31,-144.84,1100
21:41:18.491,-12.12,5.31,-144.86,1100
21:41:18.494,-12.12,5.32,-144.88,1100
21:41:18.634,-12.12,5.31,-144.91,1100
21:41:18.634,-12.12,5.31,-144.93,1100
21:41:18.640,-12.12,5.31,-144.96,1100
21:41:18.771,-12.12,5.31,-144.98,1100
21:41:18.771,-12.12,5.31,-145.01,1100
21:41:18.895,-12.12,5.31,-145.03,1100
21:41:18.895,-12.12,5.31,-145.05,1100
21:41:18.895,-12.12,5.31,-145.08,1100
21:41:19.009,-12.12,5.31,-145.1,1100
21:41:19.009,-12.12,5.31,-145.12,1100
21:41:19.134,-12.12,5.31,-145.15,1100
21:41:19.134,-12.11,5.31,-145.17,1100
21:41:19.150,-12.11,5.31,-145.19,1100
21:41:19.281,-12.11,5.31,-145.22,1100
21:41:19.281,-12.11,5.31,-145.24,1100
21:41:19.404,-12.11,5.31,-145.26,1100
21:41:19.404,-12.11,5.31,-145.29,1100
21:41:19.405,-12.11,5.31,-145.31,1100
21:41:19.539,-12.11,5.32,-145.34,1100
21:41:19.539,-12.11,5.31,-145.36,1100
21:41:19.558,-12.11,5.32,-145.38,1100
21:41:19.699,-12.11,5.31,-145.41,1100
21:41:19.700,-12.12,5.32,-145.43,1100
21:41:19.711,-12.12,5.31,-145.46,1100
21:41:19.843,-12.12,5.31,-145.48,1100
21:41:19.843,-12.12,5.32,-145.5,1100
21:41:19.982,-12.12,5.31,-145.52,1100
21:41:19.982,-12.12,5.32,-145.54,1100
21:41:19.982,-12.12,5.32,-145.57,1100
21:41:20.096,-12.12,5.31,-145.59,1100
21:41:20.096,-12.12,5.32,-145.61,1100
21:41:20.219,-12.12,5.31,-145.63,1100
21:41:20.219,-12.12,5.32,-145.66,1100
21:41:20.221,-12.12,5.32,-145.68,1100
21:41:20.351,-12.12,5.32,-145.7,1100
21:41:20.351,-12.12,5.31,-145.73,1100
21:41:20.473,-12.12,5.32,-145.75,1100
21:41:20.474,-12.12,5.31,-145.78,1100
21:41:20.476,-12.12,5.32,-145.8,1100
21:41:20.593,-12.12,5.31,-145.83,1100
21:41:20.593,-12.12,5.31,-145.85,1100
21:41:20.716,-12.12,5.31,-145.87,1100
21:41:20.716,-12.13,5.31,-145.9,1100
21:41:20.731,-12.13,5.31,-145.92,1100
21:41:20.863,-12.13,5.31,-145.94,1100
21:41:20.863,-12.13,5.31,-145.96,1100
21:41:20.986,-12.13,5.31,-145.99,1100
21:41:20.986,-12.13,5.32,-146.01,1100
21:41:20.986,-12.13,5.32,-146.03,1100
21:41:21.099,-12.12,5.31,-146.06,1100
21:41:21.099,-12.12,5.32,-146.08,1100
21:41:21.223,-12.12,5.32,-146.11,1100
21:41:21.223,-12.12,5.32,-146.13,1100
21:41:21.243,-12.12,5.32,-146.15,1100
21:41:21.383,-12.12,5.32,-146.17,1100
21:41:21.383,-12.12,5.32,-146.2,1100
21:41:21.395,-12.12,5.31,-146.22,1100
21:41:21.518,-12.12,5.32,-146.25,1100
21:41:21.518,-12.12,5.32,-146.27,1100
21:41:21.647,-12.12,5.32,-146.29,1100
21:41:21.648,-12.12,5.32,-146.31,1100
21:41:21.649,-12.12,5.32,-146.33,1100
21:41:21.776,-12.12,5.32,-146.36,1100
21:41:21.776,-12.12,5.32,-146.38,1100
21:41:21.889,-12.12,5.32,-146.41,1100
21:41:21.889,-12.12,5.32,-146.43,1100
21:41:21.904,-12.12,5.32,-146.45,1100
21:41:22.047,-12.12,5.32,-146.47,1100
21:41:22.047,-12.12,5.32,-146.5,1100
21:41:22.057,-12.12,5.31,-146.52,1100
21:41:22.190,-12.12,5.32,-146.55,1100
21:41:22.190,-12.12,5.31,-146.58,1100
21:41:22.210,-12.12,5.32,-146.6,1100
21:41:22.353,-12.12,5.31,-146.62,1100
21:41:22.353,-12.12,5.32,-146.64,1100
21:41:22.363,-12.12,5.31,-146.67,1100
21:41:22.499,-12.13,5.31,-146.69,1100
21:41:22.499,-12.12,5.31,-146.72,1100
21:41:22.516,-12.12,5.31,-146.74,1100
21:41:22.659,-12.12,5.32,-146.76,1100
21:41:22.659,-12.12,5.31,-146.78,1100
21:41:22.669,-12.13,5.32,-146.8,1100
21:41:22.807,-12.13,5.31,-146.83,1100
21:41:22.807,-12.13,5.31,-146.85,1100
21:41:22.822,-12.13,5.31,-146.88,1100
21:41:22.966,-12.13,5.31,-146.9,1100
21:41:22.966,-12.13,5.31,-146.93,1100
21:41:22.975,-12.13,5.31,-146.95,1100
21:41:23.108,-12.13,5.31,-146.97,1100
21:41:23.108,-12.13,5.31,-147.0,1100
21:41:23.128,-12.13,5.31,-147.02,1100
21:41:23.267,-12.13,5.31,-147.05,1100
21:41:23.267,-12.13,5.31,-147.07,1100
21:41:23.281,-12.13,5.31,-147.09,1100
21:41:23.410,-12.13,5.31,-147.12,1100
21:41:23.410,-12.13,5.31,-147.14,1100
21:41:23.534,-12.13,5.31,-147.16,1100
21:41:23.534,-12.13,5.31,-147.18,1100
21:41:23.535,-12.13,5.31,-147.21,1100
21:41:23.655,-12.13,5.32,-147.23,1100
21:41:23.655,-12.13,5.31,-147.25,1100
21:41:23.777,-12.13,5.31,-147.28,1100
21:41:23.777,-12.13,5.31,-147.3,1100
21:41:23.791,-12.13,5.31,-147.33,1100
21:41:23.905,-12.13,5.31,-147.35,1100
21:41:23.905,-12.13,5.31,-147.37,1100
21:41:24.027,-12.13,5.31,-147.4,1100
21:41:24.028,-12.13,5.31,-147.42,1100
21:41:24.046,-12.13,5.31,-147.44,1100
21:41:24.172,-12.13,5.31,-147.47,1100
21:41:24.172,-12.13,5.31,-147.49,1100
21:41:24.295,-12.13,5.31,-147.51,1100
21:41:24.295,-12.13,5.31,-147.53,1100
21:41:24.301,-12.13,5.31,-147.56,1100
21:41:24.432,-12.13,5.31,-147.59,1100
21:41:24.432,-12.13,5.31,-147.61,1100
21:41:24.556,-12.13,5.31,-147.63,1100
21:41:24.556,-12.13,5.31,-147.65,1100
21:41:24.556,-12.13,5.31,-147.67,1100
21:41:24.668,-12.13,5.31,-147.7,1100
21:41:24.668,-12.13,5.31,-147.72,1100
21:41:24.791,-12.13,5.31,-147.74,1100
21:41:24.791,-12.13,5.31,-147.77,1100
21:41:24.811,-12.13,5.32,-147.79,1100
21:41:24.944,-12.13,5.31,-147.82,1100
21:41:24.944,-12.13,5.32,-147.84,1100
21:41:24.964,-12.13,5.31,-147.86,1100
21:41:25.109,-12.13,5.31,-147.89,1100
21:41:25.109,-12.13,5.31,-147.91,1100
21:41:25.117,-12.13,5.31,-147.93,1100
21:41:25.238,-12.13,5.31,-147.96,1100
21:41:25.239,-12.13,5.32,-147.98,1100
21:41:25.361,-12.13,5.32,-148.0,1100
21:41:25.361,-12.13,5.32,-148.02,1100
21:41:25.372,-12.13,5.32,-148.04,1100
21:41:25.498,-12.13,5.31,-148.07,1100
21:41:25.498,-12.13,5.32,-148.09,1100
21:41:25.622,-12.13,5.32,-148.12,1100
21:41:25.622,-12.13,5.31,-148.14,1100
21:41:25.628,-12.13,5.32,-148.16,1100
21:41:25.781,-12.13,5.31,-148.19,1100
21:41:25.781,-12.13,5.31,-148.21,1100
21:41:25.781,-12.13,5.31,-148.23,1100
21:41:25.917,-12.13,5.31,-148.26,1100
21:41:25.917,-12.13,5.31,-148.28,1100
21:41:25.935,-12.13,5.32,-148.3,1100
21:41:26.064,-12.13,5.3,-148.33,1100
21:41:26.064,-12.13,5.31,-148.35,1100
21:41:26.185,-12.12,5.31,-148.38,1100
21:41:26.185,-12.12,5.31,-148.4,1100
21:41:26.188,-12.12,5.31,-148.42,1100
21:41:26.324,-12.12,5.31,-148.45,1100
21:41:26.324,-12.12,5.31,-148.47,1100
21:41:26.341,-12.12,5.31,-148.49,1100
21:41:26.480,-12.12,5.31,-148.52,1100
21:41:26.480,-12.12,5.31,-148.54,1100
21:41:26.495,-12.12,5.31,-148.57,1100
21:41:26.611,-12.12,5.31,-148.59,1100
21:41:26.611,-12.12,5.31,-148.62,1100
21:41:26.734,-12.12,5.31,-148.64,1100
21:41:26.734,-12.12,5.31,-148.66,1100
21:41:26.749,-12.12,5.31,-148.68,1100
21:41:26.868,-12.12,5.31,-148.71,1100
21:41:26.868,-12.12,5.31,-148.73,1100
21:41:26.986,-12.12,5.31,-148.75,1100
21:41:26.986,-12.12,5.31,-148.78,1100
21:41:27.004,-12.12,5.31,-148.8,1100
21:41:27.144,-12.12,5.31,-148.82,1100
21:41:27.144,-12.12,5.31,-148.84,1100
21:41:27.156,-12.12,5.31,-148.87,1100
21:41:27.287,-12.12,5.31,-148.89,1100
21:41:27.287,-12.12,5.31,-148.92,1100
21:41:27.415,-12.12,5.31,-148.94,1100
21:41:27.415,-12.12,5.31,-148.96,1100
21:41:27.415,-12.12,5.31,-148.98,1100
21:41:27.524,-12.12,5.31,-149.01,1100
21:41:27.525,-12.12,5.31,-149.03,1100
21:41:27.641,-12.12,5.31,-149.06,1100
21:41:27.641,-12.12,5.31,-149.08,1100
21:41:27.782,-12.12,5.31,-149.1,1100
21:41:27.782,-12.12,5.32,-149.13,1100
21:41:27.782,-12.12,5.31,-149.15,1100
21:41:27.900,-12.12,5.31,-149.18,1100
21:41:27.900,-12.12,5.31,-149.2,1100
21:41:28.011,-12.12,5.31,-149.22,1100
21:41:28.011,-12.12,5.31,-149.25,1100
21:41:28.024,-12.12,5.31,-149.27,1100
21:41:28.179,-12.12,5.31,-149.29,1100
21:41:28.179,-12.12,5.31,-149.32,1100
21:41:28.179,-12.12,5.31,-149.34,1100
21:41:28.298,-12.12,5.3,-149.36,1100
21:41:28.298,-12.12,5.31,-149.38,1100
21:41:28.438,-12.12,5.31,-149.41,1100
21:41:28.438,-12.12,5.31,-149.43,1100
21:41:28.438,-12.12,5.31,-149.46,1100
21:41:28.557,-12.12,5.31,-149.48,1100
21:41:28.557,-12.12,5.31,-149.5,1100
21:41:28.679,-12.12,5.31,-149.52,1100
21:41:28.679,-12.12,5.31,-149.55,1100
21:41:28.688,-12.12,5.31,-149.57,1100
21:41:28.817,-12.12,5.31,-149.6,1100
21:41:28.817,-12.12,5.31,-149.62,1100
21:41:28.939,-12.12,5.31,-149.64,1100
21:41:28.939,-12.12,5.31,-149.67,1100
21:41:28.942,-12.12,5.3,-149.69,1100
21:41:29.075,-12.12,5.3,-149.71,1100
21:41:29.075,-12.12,5.31,-149.74,1100
21:41:29.094,-12.12,5.3,-149.76,1100
21:41:29.222,-12.12,5.31,-149.78,1100
21:41:29.222,-12.12,5.31,-149.81,1100
21:41:29.337,-12.12,5.31,-149.83,1100
21:41:29.337,-12.12,5.31,-149.86,1100
21:41:29.350,-12.12,5.31,-149.88,1100
21:41:29.491,-12.12,5.31,-149.91,1100
21:41:29.491,-12.12,5.31,-149.93,1100
21:41:29.503,-12.13,5.31,-149.95,1100
21:41:29.632,-12.12,5.31,-149.98,1100
21:41:29.632,-12.13,5.31,-150.0,1100
21:41:29.755,-12.13,5.31,-150.03,1100
21:41:29.755,-12.12,5.31,-150.05,1100
21:41:29.757,-12.13,5.31,-150.07,1100
21:41:29.888,-12.13,5.31,-150.1,1100
21:41:29.888,-12.13,5.31,-150.12,1100
21:41:30.032,-12.13,5.31,-150.15,1100
21:41:30.032,-12.13,5.31,-150.17,1100
21:41:30.032,-12.12,5.31,-150.19,1100
21:41:30.154,-12.13,5.31,-150.21,1100
21:41:30.154,-12.12,5.31,-150.24,1100
21:41:30.165,-12.12,5.31,-150.26,1100
21:41:30.293,-12.12,5.31,-150.29,1100
21:41:30.293,-12.13,5.31,-150.31,1100
21:41:30.424,-12.13,5.31,-150.33,1100
21:41:30.424,-12.13,5.31,-150.36,1100
21:41:30.424,-12.12,5.31,-150.38,1100
21:41:30.553,-12.13,5.31,-150.4,1100
21:41:30.553,-12.12,5.31,-150.43,1100
21:41:30.665,-12.12,5.31,-150.45,1100
21:41:30.665,-12.13,5.31,-150.47,1100
21:41:30.676,-12.12,5.31,-150.5,1100
21:41:30.811,-12.12,5.31,-150.52,1100
21:41:30.811,-12.12,5.31,-150.55,1100
21:41:30.829,-12.12,5.31,-150.57,1100
21:41:30.954,-12.12,5.31,-150.59,1100
21:41:30.955,-12.12,5.31,-150.62,1100
21:41:31.079,-12.12,5.31,-150.64,1100
21:41:31.079,-12.12,5.31,-150.66,1100
21:41:31.087,-12.12,5.31,-150.69,1100
21:41:31.201,-12.12,5.31,-150.71,1100
21:41:31.201,-12.12,5.31,-150.73,1100
21:41:31.322,-12.12,5.31,-150.76,1100
21:41:31.322,-12.12,5.31,-150.78,1100
21:41:31.339,-12.13,5.31,-150.81,1100
21:41:31.466,-12.13,5.31,-150.83,1100
21:41:31.466,-12.13,5.3,-150.85,1100
21:41:31.588,-12.13,5.31,-150.88,1100
21:41:31.588,-12.13,5.3,-150.9,1100
21:41:31.595,-12.13,5.31,-150.92,1100
21:41:31.707,-12.13,5.31,-150.95,1100
21:41:31.707,-12.13,5.31,-150.97,1100
21:41:31.827,-12.13,5.31,-151.0,1100
21:41:31.827,-12.12,5.31,-151.02,1100
21:41:31.938,-12.12,5.31,-151.05,1100
21:41:31.938,-12.12,5.31,-151.07,1100
21:41:31.950,-12.12,5.31,-151.09,1100
21:41:32.072,-12.12,5.31,-151.12,1100
21:41:32.072,-12.12,5.31,-151.14,1100
21:41:32.202,-12.12,5.31,-151.17,1100
21:41:32.202,-12.12,5.31,-151.19,1100
21:41:32.205,-12.12,5.32,-151.21,1100
21:41:32.341,-12.12,5.32,-151.24,1100
21:41:32.341,-12.12,5.32,-151.26,1100
21:41:32.358,-12.12,5.32,-151.29,1100
21:41:32.470,-12.12,5.32,-151.31,1100
21:41:32.470,-12.12,5.32,-151.34,1100
21:41:32.590,-12.12,5.32,-151.36,1100
21:41:32.590,-12.12,5.32,-151.38,1100
21:41:32.701,-12.12,5.32,-151.4,1100
21:41:32.701,-12.12,5.31,-151.43,1100
21:41:32.715,-12.12,5.32,-151.45,1100
21:41:32.855,-12.12,5.32,-151.48,1100
21:41:32.855,-12.12,5.31,-151.5,1100
21:41:32.868,-12.12,5.32,-151.52,1100
21:41:32.981,-12.12,5.31,-151.55,1100
21:41:32.981,-12.12,5.31,-151.57,1100
21:41:33.113,-12.12,5.31,-151.59,1100
21:41:33.113,-12.12,5.31,-151.62,1100
21:41:33.123,-12.12,5.31,-151.64,1100
21:41:33.243,-12.12,5.31,-151.66,1100
21:41:33.243,-12.12,5.31,-151.68,1100
21:41:33.370,-12.12,5.31,-151.71,1100
21:41:33.370,-12.12,5.31,-151.73,1100
21:41:33.379,-12.12,5.31,-151.75,1100
21:41:33.511,-12.12,5.31,-151.78,1100
21:41:33.511,-12.12,5.31,-151.8,1100
21:41:33.531,-12.12,5.31,-151.83,1100
21:41:33.672,-12.12,5.31,-151.85,1100
21:41:33.672,-12.12,5.31,-151.87,1100
21:41:33.684,-12.12,5.31,-151.9,1100
21:41:33.831,-12.11,5.31,-151.92,1100
21:41:33.831,-12.11,5.31,-151.94,1100
21:41:33.838,-12.11,5.31,-151.96,1100
21:41:33.974,-12.11,5.31,-151.98,1100
21:41:33.974,-12.11,5.31,-152.0,1100
21:41:33.990,-12.11,5.31,-152.03,1100
21:41:34.120,-12.11,5.31,-152.05,1100
21:41:34.120,-12.11,5.31,-152.07,1100
21:41:34.256,-12.11,5.31,-152.09,1100
21:41:34.256,-12.11,5.31,-152.12,1100
21:41:34.256,-12.11,5.31,-152.14,1100
21:41:34.368,-12.11,5.31,-152.16,1100
21:41:34.368,-12.11,5.31,-152.19,1100
21:41:34.492,-12.11,5.31,-152.21,1100
21:41:34.492,-12.11,5.31,-152.23,1100
21:41:34.502,-12.11,5.31,-152.25,1100
21:41:34.612,-12.11,5.32,-152.28,1100
21:41:34.612,-12.11,5.31,-152.3,1100
21:41:34.735,-12.1,5.32,-152.32,1100
21:41:34.735,-12.1,5.31,-152.35,1100
21:41:34.846,-12.1,5.32,-152.37,1100
21:41:34.846,-12.1,5.32,-152.4,1100
21:41:34.857,-12.1,5.32,-152.42,1100
21:41:35.003,-12.1,5.32,-152.44,1100
21:41:35.003,-12.11,5.31,-152.47,1100
21:41:35.019,-12.11,5.32,-152.49,1100
21:41:35.149,-12.11,5.31,-152.52,1100
21:41:35.149,-12.11,5.31,-152.54,1100
21:41:35.164,-12.1,5.31,-152.56,1100
21:41:35.303,-12.1,5.31,-152.58,1100
21:41:35.303,-12.1,5.31,-152.61,1100
21:41:35.323,-12.1,5.31,-152.63,1100
21:41:35.438,-12.1,5.31,-152.66,1100
21:41:35.438,-12.1,5.31,-152.68,1100
21:41:35.561,-12.1,5.31,-152.71,1100
21:41:35.561,-12.1,5.31,-152.73,1100
21:41:35.571,-12.1,5.3,-152.75,1100
21:41:35.684,-12.1,5.31,-152.77,1100
21:41:35.684,-12.1,5.31,-152.8,1100
21:41:35.807,-12.1,5.3,-152.82,1100
21:41:35.807,-12.1,5.31,-152.84,1100
21:41:35.827,-12.1,5.3,-152.87,1100
21:41:35.957,-12.1,5.31,-152.89,1100
21:41:35.957,-12.1,5.31,-152.91,1100
21:41:36.082,-12.1,5.3,-152.94,1100
21:41:36.082,-12.1,5.32,-152.96,1100
21:41:36.083,-12.1,5.31,-152.98,1100
21:41:36.216,-12.1,5.32,-153.0,1100
21:41:36.216,-12.09,5.31,-153.03,1100
21:41:36.235,-12.09,5.32,-153.05,1100
21:41:36.365,-12.09,5.31,-153.08,1100
21:41:36.365,-12.1,5.31,-153.1,1100
21:41:36.482,-12.1,5.31,-153.13,1100
21:41:36.482,-12.1,5.31,-153.15,1100
21:41:36.489,-12.1,5.31,-153.17,1100
21:41:36.630,-12.1,5.31,-153.19,1100
21:41:36.630,-12.1,5.31,-153.22,1100
21:41:36.642,-12.1,5.31,-153.24,1100
21:41:36.759,-12.1,5.31,-153.27,1100
21:41:36.759,-12.1,5.31,-153.29,1100
21:41:36.884,-12.1,5.31,-153.31,1100
21:41:36.884,-12.11,5.31,-153.33,1100
21:41:36.897,-12.11,5.31,-153.35,1100
21:41:37.032,-12.11,5.31,-153.38,1100
21:41:37.032,-12.11,5.31,-153.4,1100
21:41:37.051,-12.11,5.31,-153.43,1100
21:41:37.194,-12.11,5.31,-153.45,1100
21:41:37.194,-12.11,5.31,-153.47,1100
21:41:37.203,-12.11,5.31,-153.5,1100
21:41:37.333,-12.11,5.31,-153.52,1100
21:41:37.333,-12.11,5.31,-153.54,1100
21:41:37.457,-12.11,5.31,-153.57,1100
21:41:37.457,-12.11,5.31,-153.59,1100
21:41:37.459,-12.11,5.31,-153.61,1100
21:41:37.594,-12.12,5.31,-153.64,1100
21:41:37.594,-12.12,5.31,-153.66,1100
21:41:37.614,-12.12,5.31,-153.69,1100
21:41:37.760,-12.12,5.31,-153.71,1100
21:41:37.760,-12.12,5.31,-153.73,1100
21:41:37.764,-12.12,5.31,-153.75,1100
21:41:37.883,-12.12,5.31,-153.78,1100
21:41:37.883,-12.12,5.31,-153.81,1100
21:41:38.008,-12.12,5.32,-153.83,1100
21:41:38.008,-12.12,5.31,-153.86,1100
21:41:38.019,-12.12,5.31,-153.88,1100
21:41:38.189,-12.13,5.32,-153.9,1100
21:41:38.189,-12.13,5.31,-153.92,1100
21:41:38.189,-12.13,5.31,-153.94,1100
21:41:38.332,-12.13,5.31,-153.97,1100
21:41:38.332,-12.13,5.3,-153.99,1100
21:41:38.332,-12.13,5.31,-154.02,1100
21:41:38.446,-12.13,5.31,-154.04,1100
21:41:38.446,-12.13,5.31,-154.06,1100
21:41:38.570,-12.13,5.31,-154.09,1100
21:41:38.570,-12.13,5.31,-154.11,1100
21:41:38.581,-12.13,5.31,-154.13,1100
21:41:38.697,-12.13,5.31,-154.16,1100
21:41:38.697,-12.13,5.31,-154.18,1100
21:41:38.821,-12.13,5.31,-154.21,1100
21:41:38.821,-12.13,5.31,-154.23,1100
21:41:38.836,-12.13,5.31,-154.25,1100
21:41:38.974,-12.13,5.31,-154.27,1100
21:41:38.974,-12.13,5.31,-154.3,1100
21:41:38.988,-12.13,5.31,-154.32,1100
21:41:39.129,-12.13,5.31,-154.34,1100
21:41:39.129,-12.13,5.31,-154.37,1100
21:41:39.142,-12.13,5.31,-154.39,1100
21:41:39.260,-12.13,5.32,-154.41,1100
21:41:39.260,-12.13,5.31,-154.44,1100
21:41:39.385,-12.13,5.31,-154.46,1100
21:41:39.385,-12.13,5.32,-154.48,1100
21:41:39.396,-12.13,5.31,-154.51,1100
21:41:39.511,-12.13,5.31,-154.53,1100
21:41:39.511,-12.13,5.31,-154.56,1100
21:41:39.637,-12.13,5.32,-154.58,1100
21:41:39.637,-12.13,5.31,-154.6,1100
21:41:39.651,-12.13,5.32,-154.62,1100
21:41:39.766,-12.13,5.31,-154.64,1100
21:41:39.766,-12.13,5.31,-154.67,1100
21:41:39.888,-12.13,5.31,-154.69,1100
21:41:39.889,-12.13,5.31,-154.71,1100
21:41:39.906,-12.13,5.32,-154.74,1100
21:41:40.041,-12.13,5.31,-154.76,1100
21:41:40.041,-12.13,5.32,-154.78,1100
21:41:40.060,-12.13,5.31,-154.81,1100
21:41:40.201,-12.13,5.31,-154.83,1100
21:41:40.201,-12.13,5.31,-154.85,1100
21:41:40.212,-12.13,5.31,-154.87,1100
21:41:40.347,-12.13,5.31,-154.89,1100
21:41:40.347,-12.13,5.31,-154.92,1100
21:41:40.365,-12.13,5.32,-154.93,1100
21:41:40.522,-12.13,5.31,-154.96,1100
21:41:40.522,-12.13,5.31,-154.98,1100
21:41:40.523,-12.12,5.31,-155.01,1100
21:41:40.635,-12.12,5.31,-155.03,1100
21:41:40.635,-12.12,5.31,-155.05,1100
21:41:40.760,-12.12,5.31,-155.08,1100
21:41:40.760,-12.12,5.31,-155.1,1100
21:41:40.774,-12.12,5.31,-155.13,1100
21:41:40.907,-12.12,5.31,-155.15,1100
21:41:40.907,-12.12,5.3,-155.17,1100
21:41:40.926,-12.12,5.31,-155.2,1100
21:41:41.055,-12.12,5.3,-155.22,1100
21:41:41.055,-12.12,5.31,-155.24,1100
21:41:41.169,-12.12,5.3,-155.27,1100
21:41:41.169,-12.12,5.31,-155.29,1100
21:41:41.181,-12.12,5.3,-155.31,1100
21:41:41.320,-12.12,5.3,-155.34,1100
21:41:41.320,-12.11,5.31,-155.36,1100
21:41:41.334,-12.11,5.3,-155.38,1100
21:41:41.449,-12.11,5.3,-155.4,1100
21:41:41.449,-12.11,5.3,-155.43,1100
21:41:41.573,-12.11,5.3,-155.45,1100
21:41:41.573,-12.11,5.31,-155.47,1100
21:41:41.591,-12.11,5.3,-155.5,1100
21:41:41.705,-12.11,5.31,-155.52,1100
21:41:41.705,-12.11,5.3,-155.55,1100
21:41:41.830,-12.11,5.3,-155.57,1100
21:41:41.830,-12.11,5.3,-155.59,1100
21:41:41.844,-12.11,5.3,-155.62,1100
21:41:41.979,-12.11,5.3,-155.64,1100
21:41:41.979,-12.11,5.3,-155.66,1100
21:41:41.997,-12.11,5.3,-155.68,1100
21:41:42.128,-12.11,5.3,-155.71,1100
21:41:42.128,-12.1,5.31,-155.72,1100
21:41:42.243,-12.1,5.3,-155.75,1100
21:41:42.243,-12.1,5.3,-155.77,1100
21:41:42.252,-12.1,5.3,-155.8,1100
21:41:42.394,-12.1,5.3,-155.82,1100
21:41:42.394,-12.1,5.3,-155.84,1100
21:41:42.405,-12.1,5.3,-155.86,1100
21:41:42.520,-12.1,5.3,-155.89,1100
21:41:42.520,-12.1,5.31,-155.91,1100
21:41:42.644,-12.1,5.3,-155.94,1100
21:41:42.645,-12.1,5.31,-155.96,1100
21:41:42.660,-12.1,5.3,-155.98,1100
21:41:42.792,-12.1,5.31,-156.0,1100
21:41:42.792,-12.1,5.3,-156.03,1100
21:41:42.916,-12.1,5.3,-156.05,1100
21:41:42.916,-12.1,5.31,-156.07,1100
21:41:42.916,-12.1,5.3,-156.09,1100
21:41:43.030,-12.1,5.31,-156.11,1100
21:41:43.030,-12.1,5.31,-156.14,1100
21:41:43.153,-12.1,5.31,-156.16,1100
21:41:43.153,-12.1,5.31,-156.18,1100
21:41:43.170,-12.11,5.31,-156.21,1100
21:41:43.284,-12.1,5.3,-156.23,1100
21:41:43.284,-12.11,5.31,-156.25,1100
21:41:43.407,-12.11,5.3,-156.28,1100
21:41:43.407,-12.11,5.3,-156.3,1100
21:41:43.425,-12.11,5.31,-156.33,1100
21:41:43.538,-12.11,5.3,-156.36,1100
21:41:43.538,-12.11,5.31,-156.37,1100
21:41:43.664,-12.11,5.3,-156.4,1100
21:41:43.664,-12.1,5.3,-156.42,1100
21:41:43.681,-12.1,5.31,-156.44,1100
21:41:43.812,-12.1,5.3,-156.47,1100
21:41:43.812,-12.1,5.31,-156.49,1100
21:41:43.935,-12.1,5.31,-156.51,1100
21:41:43.935,-12.11,5.31,-156.54,1100
21:41:43.935,-12.11,5.31,-156.56,1100
21:41:44.070,-12.11,5.31,-156.58,1100
21:41:44.070,-12.1,5.31,-156.6,1100
21:41:44.088,-12.11,5.31,-156.63,1100
21:41:44.237,-12.11,5.31,-156.65,1100
21:41:44.237,-12.11,5.31,-156.67,1100
21:41:44.241,-12.1,5.31,-156.69,1100
21:41:44.374,-12.11,5.31,-156.71,1100
21:41:44.374,-12.11,5.31,-156.74,1100
21:41:44.500,-12.11,5.31,-156.76,1100
21:41:44.500,-12.11,5.32,-156.78,1100
21:41:44.500,-12.1,5.31,-156.81,1100
21:41:44.615,-12.1,5.31,-156.83,1100
21:41:44.616,-12.11,5.31,-156.86,1100
21:41:44.740,-12.11,5.31,-156.88,1100
21:41:44.740,-12.1,5.31,-156.9,1100
21:41:44.751,-12.1,5.31,-156.93,1100
21:41:44.899,-12.1,5.31,-156.95,1100
21:41:44.899,-12.1,5.31,-156.97,1100
21:41:44.904,-12.1,5.31,-156.99,1100
21:41:45.049,-12.1,5.31,-157.02,1100
21:41:45.049,-12.1,5.31,-157.04,1100
21:41:45.057,-12.1,5.31,-157.06,1100
21:41:45.188,-12.1,5.31,-157.09,1100
21:41:45.188,-12.1,5.31,-157.11,1100
21:41:45.314,-12.1,5.31,-157.13,1100
21:41:45.314,-12.11,5.32,-157.15,1100
21:41:45.314,-12.11,5.31,-157.18,1100
21:41:45.427,-12.11,5.32,-157.2,1100
21:41:45.427,-12.1,5.31,-157.22,1100
21:41:45.552,-12.1,5.31,-157.25,1100
21:41:45.552,-12.11,5.31,-157.27,1100
21:41:45.568,-12.1,5.31,-157.29,1100
21:41:45.704,-12.1,5.31,-157.32,1100
21:41:45.704,-12.1,5.31,-157.34,1100
21:41:45.720,-12.1,5.31,-157.36,1100
21:41:45.850,-12.1,5.31,-157.39,1100
21:41:45.850,-12.1,5.31,-157.41,1100
21:41:45.963,-12.11,5.31,-157.43,1100
21:41:45.963,-12.1,5.32,-157.45,1100
21:41:45.975,-12.1,5.32,-157.48,1100
21:41:46.116,-12.1,5.32,-157.5,1100
21:41:46.117,-12.11,5.32,-157.52,1100
21:41:46.128,-12.11,5.31,-157.55,1100
21:41:46.263,-12.11,5.31,-157.57,1100
21:41:46.263,-12.11,5.31,-157.6,1100
21:41:46.283,-12.11,5.31,-157.62,1100
21:41:46.424,-12.11,5.31,-157.64,1100
21:41:46.424,-12.11,5.31,-157.66,1100
21:41:46.435,-12.11,5.31,-157.69,1100
21:41:46.567,-12.11,5.31,-157.71,1100
21:41:46.567,-12.11,5.32,-157.74,1100
21:41:46.692,-12.11,5.32,-157.76,1100
21:41:46.692,-12.11,5.32,-157.78,1100
21:41:46.692,-12.11,5.32,-157.8,1100
21:41:46.806,-12.12,5.32,-157.82,1100
21:41:46.806,-12.11,5.32,-157.85,1100
21:41:46.930,-12.11,5.32,-157.87,1100
21:41:46.930,-12.11,5.32,-157.89,1100
21:41:46.945,-12.11,5.31,-157.92,1100
21:41:47.066,-12.12,5.32,-157.94,1100
21:41:47.066,-12.12,5.31,-157.97,1100
21:41:47.195,-12.12,5.31,-157.99,1100
21:41:47.195,-12.12,5.31,-158.01,1100
21:41:47.200,-12.12,5.31,-158.04,1100
21:41:47.325,-12.12,5.31,-158.06,1100
21:41:47.325,-12.12,5.31,-158.08,1100
21:41:47.451,-12.12,5.31,-158.11,1100
21:41:47.451,-12.12,5.31,-158.13,1100
21:41:47.454,-12.12,5.32,-158.15,1100
21:41:47.570,-12.12,5.31,-158.18,1100
21:41:47.570,-12.12,5.32,-158.2,1100
21:41:47.702,-12.12,5.31,-158.22,1100
21:41:47.703,-12.12,5.31,-158.25,1100
21:41:47.711,-12.11,5.32,-158.27,1100
21:41:47.851,-12.11,5.31,-158.3,1100
21:41:47.851,-12.11,5.32,-158.31,1100
21:41:47.862,-12.11,5.31,-158.34,1100
21:41:47.993,-12.11,5.31,-158.36,1100
21:41:47.993,-12.11,5.32,-158.38,1100
21:41:48.122,-12.11,5.31,-158.4,1100
21:41:48.122,-12.11,5.32,-158.42,1100
21:41:48.122,-12.11,5.31,-158.45,1100
21:41:48.246,-12.11,5.31,-158.47,1100
21:41:48.246,-12.11,5.31,-158.49,1100
21:41:48.359,-12.11,5.31,-158.52,1100
21:41:48.359,-12.11,5.31,-158.54,1100
21:41:48.373,-12.11,5.31,-158.56,1100
21:41:48.497,-12.11,5.31,-158.59,1100
21:41:48.497,-12.11,5.31,-158.61,1100
21:41:48.610,-12.11,5.32,-158.63,1100
21:41:48.611,-12.12,5.32,-158.65,1100
21:41:48.627,-12.12,5.32,-158.68,1100
21:41:48.766,-12.12,5.32,-158.7,1100
21:41:48.766,-12.12,5.32,-158.72,1100
21:41:48.780,-12.12,5.32,-158.75,1100
21:41:48.908,-12.12,5.32,-158.77,1100
21:41:48.908,-12.12,5.32,-158.79,1100
21:41:49.029,-12.12,5.32,-158.82,1100
21:41:49.029,-12.12,5.32,-158.84,1100
21:41:49.035,-12.12,5.32,-158.87,1100
21:41:49.156,-12.12,5.32,-158.89,1100
21:41:49.156,-12.12,5.31,-158.91,1100
21:41:49.290,-12.12,5.32,-158.94,1100
21:41:49.290,-12.13,5.31,-158.96,1100
21:41:49.290,-12.13,5.32,-158.99,1100
21:41:49.411,-12.13,5.32,-159.01,1100
21:41:49.411,-12.13,5.31,-159.03,1100
21:41:49.548,-12.13,5.32,-159.06,1100
21:41:49.548,-12.13,5.32,-159.08,1100
21:41:49.548,-12.13,5.32,-159.1,1100
21:41:49.661,-12.13,5.32,-159.12,1100
21:41:49.661,-12.13,5.32,-159.15,1100
21:41:49.784,-12.13,5.33,-159.17,1100
21:41:49.784,-12.13,5.32,-159.19,1100
21:41:49.800,-12.13,5.33,-159.21,1100
21:41:49.922,-12.13,5.32,-159.24,1100
21:41:49.922,-12.13,5.33,-159.26,1100
21:41:50.049,-12.13,5.32,-159.29,1100
21:41:50.049,-12.13,5.33,-159.31,1100
21:41:50.056,-12.13,5.33,-159.33,1100
21:41:50.174,-12.13,5.33,-159.35,1100
21:41:50.174,-12.13,5.33,-159.38,1100
21:41:50.301,-12.13,5.33,-159.4,1100
21:41:50.301,-12.13,5.33,-159.42,1100
21:41:50.310,-12.13,5.32,-159.45,1100
21:41:50.439,-12.13,5.33,-159.47,1100
21:41:50.439,-12.13,5.33,-159.49,1100
21:41:50.563,-12.13,5.33,-159.51,1100
21:41:50.563,-12.12,5.33,-159.54,1100
21:41:50.565,-12.12,5.33,-159.56,1100
21:41:50.683,-12.12,5.33,-159.58,1100
21:41:50.683,-12.12,5.33,-159.61,1100
21:41:50.805,-12.12,5.33,-159.63,1100
21:41:50.805,-12.12,5.33,-159.66,1100
21:41:50.820,-12.12,5.33,-159.68,1100
21:41:50.966,-12.12,5.33,-159.7,1100
21:41:50.966,-12.12,5.33,-159.72,1100
21:41:50.973,-12.12,5.33,-159.75,1100
21:41:51.130,-12.12,5.33,-159.77,1100
21:41:51.130,-12.12,5.33,-159.79,1100
21:41:51.130,-12.12,5.33,-159.81,1100
21:41:51.249,-12.12,5.33,-159.83,1100
21:41:51.249,-12.12,5.33,-159.85,1100
21:41:51.383,-12.12,5.33,-159.88,1100
21:41:51.383,-12.12,5.33,-159.9,1100
21:41:51.383,-12.12,5.33,-159.92,1100
21:41:51.496,-12.12,5.33,-159.95,1100
21:41:51.496,-12.12,5.33,-159.97,1100
21:41:51.662,-12.12,5.33,-159.99,1100
21:41:51.662,-12.12,5.33,-160.01,1100
21:41:51.662,-12.12,5.33,-160.03,1100
21:41:51.785,-12.12,5.33,-160.05,1100
21:41:51.785,-12.12,5.33,-160.08,1100
21:41:51.789,-12.12,5.33,-160.1,1100
21:41:51.939,-12.12,5.33,-160.13,1100
21:41:51.939,-12.13,5.33,-160.15,1100
21:41:51.942,-12.13,5.33,-160.18,1100
21:41:52.067,-12.13,5.33,-160.2,1100
21:41:52.067,-12.13,5.33,-160.22,1100
21:41:52.190,-12.13,5.33,-160.24,1100
21:41:52.190,-12.13,5.33,-160.27,1100
21:41:52.198,-12.13,5.33,-160.29,1100
21:41:52.324,-12.13,5.33,-160.31,1100
21:41:52.324,-12.13,5.33,-160.33,1100
21:41:52.444,-12.13,5.33,-160.36,1100
21:41:52.444,-12.13,5.33,-160.38,1100
21:41:52.452,-12.13,5.33,-160.4,1100
21:41:52.598,-12.13,5.33,-160.43,1100
21:41:52.598,-12.13,5.33,-160.45,1100
21:41:52.605,-12.13,5.33,-160.48,1100
21:41:52.749,-12.13,5.33,-160.5,1100
21:41:52.749,-12.13,5.33,-160.52,1100
21:41:52.758,-12.13,5.33,-160.55,1100
21:41:52.889,-12.13,5.33,-160.57,1100
21:41:52.889,-12.13,5.33,-160.59,1100
21:41:53.012,-12.13,5.33,-160.62,1100
21:41:53.012,-12.13,5.34,-160.64,1100
21:41:53.013,-12.13,5.34,-160.66,1100
21:41:53.135,-12.14,5.34,-160.69,1100
21:41:53.135,-12.14,5.34,-160.71,1100
21:41:53.260,-12.14,5.34,-160.73,1100
21:41:53.261,-12.14,5.34,-160.76,1100
21:41:53.268,-12.13,5.34,-160.78,1100
21:41:53.398,-12.14,5.34,-160.8,1100
21:41:53.398,-12.14,5.34,-160.82,1100
21:41:53.518,-12.13,5.34,-160.85,1100
21:41:53.518,-12.13,5.34,-160.87,1100
21:41:53.526,-12.13,5.34,-160.89,1100
21:41:53.666,-12.13,5.34,-160.91,1100
21:41:53.666,-12.13,5.34,-160.93,1100
21:41:53.800,-12.13,5.34,-160.96,1100
21:41:53.800,-12.13,5.34,-160.98,1100
21:41:53.800,-12.13,5.34,-161.01,1100
21:41:53.920,-12.13,5.34,-161.03,1100
21:41:53.920,-12.13,5.34,-161.05,1100
21:41:53.931,-12.13,5.34,-161.07,1100
21:41:54.090,-12.12,5.34,-161.1,1100
21:41:54.090,-12.13,5.34,-161.12,1100
21:41:54.090,-12.13,5.34,-161.15,1100
21:41:54.215,-12.12,5.34,-161.17,1100
21:41:54.215,-12.13,5.34,-161.19,1100
21:41:54.334,-12.12,5.34,-161.22,1100
21:41:54.334,-12.12,5.34,-161.24,1100
21:41:54.339,-12.12,5.34,-161.26,1100
21:41:54.466,-12.12,5.34,-161.29,1100
21:41:54.466,-12.12,5.34,-161.31,1100
21:41:54.608,-12.12,5.34,-161.33,1100
21:41:54.608,-12.12,5.34,-161.35,1100
21:41:54.609,-12.12,5.34,-161.38,1100
21:41:54.719,-12.12,5.33,-161.4,1100
21:41:54.719,-12.12,5.34,-161.42,1100
21:41:54.861,-12.12,5.33,-161.45,1100
21:41:54.861,-12.12,5.34,-161.47,1100
21:41:54.861,-12.12,5.33,-161.49,1100
21:41:55.017,-12.12,5.33,-161.52,1100
21:41:55.017,-12.12,5.33,-161.54,1100
21:41:55.017,-12.12,5.33,-161.57,1100
21:41:55.149,-12.12,5.33,-161.59,1100
21:41:55.149,-12.12,5.33,-161.61,1100
21:41:55.155,-12.12,5.33,-161.64,1100
21:41:55.295,-12.12,5.33,-161.66,1100
21:41:55.295,-12.12,5.33,-161.68,1100
21:41:55.308,-12.12,5.33,-161.7,1100
21:41:55.450,-12.12,5.33,-161.73,1100
21:41:55.450,-12.12,5.33,-161.75,1100
21:41:55.461,-12.12,5.33,-161.77,1100
21:41:55.591,-12.12,5.34,-161.79,1100
21:41:55.591,-12.12,5.33,-161.82,1100
21:41:55.715,-12.12,5.34,-161.84,1100
21:41:55.715,-12.12,5.34,-161.86,1100
21:41:55.716,-12.12,5.34,-161.88,1100
21:41:55.830,-12.12,5.34,-161.91,1100
21:41:55.831,-12.12,5.34,-161.93,1100
21:41:55.953,-12.12,5.34,-161.95,1100
21:41:55.954,-12.12,5.34,-161.97,1100
21:41:55.971,-12.12,5.34,-162.0,1100
21:41:56.081,-12.12,5.34,-162.02,1100
21:41:56.081,-12.12,5.34,-162.04,1100
21:41:56.217,-12.12,5.34,-162.06,1100
21:41:56.217,-12.12,5.34,-162.08,1100
21:41:56.228,-12.12,5.34,-162.1,1100
21:41:56.354,-12.12,5.34,-162.13,1100
21:41:56.354,-12.12,5.34,-162.15,1100
21:41:56.476,-12.12,5.34,-162.17,1100
21:41:56.477,-12.12,5.34,-162.19,1100
21:41:56.481,-12.12,5.34,-162.22,1100
21:41:56.609,-12.12,5.34,-162.24,1100
21:41:56.609,-12.12,5.34,-162.26,1100
21:41:56.733,-12.12,5.34,-162.29,1100
21:41:56.733,-12.12,5.34,-162.31,1100
21:41:56.736,-12.12,5.34,-162.33,1100
21:41:56.876,-12.12,5.34,-162.36,1100
21:41:56.876,-12.12,5.34,-162.38,1100
21:41:56.889,-12.12,5.34,-162.4,1100
21:41:57.038,-12.12,5.34,-162.42,1100
21:41:57.038,-12.12,5.34,-162.45,1100
21:41:57.042,-12.12,5.34,-162.47,1100
21:41:57.169,-12.12,5.34,-162.5,1100
21:41:57.169,-12.12,5.34,-162.52,1100
21:41:57.291,-12.12,5.34,-162.55,1100
21:41:57.291,-12.12,5.34,-162.57,1100
21:41:57.298,-12.12,5.34,-162.59,1100
21:41:57.429,-12.12,5.34,-162.61,1100
21:41:57.430,-12.12,5.34,-162.64,1100
21:41:57.553,-12.12,5.34,-162.66,1100
21:41:57.554,-12.12,5.34,-162.68,1100
21:41:57.554,-12.12,5.34,-162.71,1100
21:41:57.668,-12.12,5.34,-162.73,1100
21:41:57.668,-12.12,5.34,-162.75,1100
21:41:57.793,-12.12,5.34,-162.77,1100
21:41:57.793,-12.12,5.34,-162.8,1100
21:41:57.807,-12.12,5.34,-162.82,1100
21:41:57.939,-12.12,5.34,-162.84,1100
21:41:57.939,-12.12,5.34,-162.87,1100
21:41:58.066,-12.12,5.34,-162.89,1100
21:41:58.066,-12.12,5.34,-162.91,1100
21:41:58.066,-12.12,5.34,-162.93,1100
21:41:58.181,-12.12,5.34,-162.96,1100
21:41:58.181,-12.12,5.34,-162.98,1100
21:41:58.303,-12.12,5.34,-163.01,1100
21:41:58.303,-12.12,5.34,-163.03,1100
21:41:58.318,-12.12,5.34,-163.05,1100
21:41:58.448,-12.12,5.34,-163.08,1100
21:41:58.448,-12.12,5.34,-163.1,1100
21:41:58.597,-12.12,5.34,-163.12,1100
21:41:58.597,-12.12,5.34,-163.14,1100
21:41:58.597,-12.12,5.34,-163.17,1100
21:41:58.729,-12.12,5.34,-163.19,1100
21:41:58.729,-12.12,5.34,-163.22,1100
21:41:58.729,-12.12,5.34,-163.24,1100
21:41:58.850,-12.12,5.34,-163.26,1100
21:41:58.850,-12.12,5.34,-163.28,1100
21:41:58.966,-12.12,5.34,-163.31,1100
21:41:58.966,-12.12,5.34,-163.33,1100
21:41:58.980,-12.12,5.34,-163.35,1100
21:41:59.135,-12.12,5.34,-163.37,1100
21:41:59.135,-12.12,5.34,-163.4,1100
21:41:59.135,-12.12,5.34,-163.42,1100
21:41:59.249,-12.12,5.34,-163.45,1100
21:41:59.249,-12.12,5.34,-163.47,1100
21:41:59.373,-12.12,5.34,-163.49,1100
21:41:59.373,-12.12,5.34,-163.51,1100
21:41:59.388,-12.12,5.34,-163.54,1100
21:41:59.517,-12.12,5.34,-163.56,1100
21:41:59.517,-12.11,5.35,-163.58,1100
21:41:59.671,-12.11,5.34,-163.61,1100
21:41:59.671,-12.11,5.35,-163.63,1100
21:41:59.671,-12.11,5.34,-163.65,1100
21:41:59.807,-12.11,5.34,-163.67,1100
21:41:59.807,-12.11,5.35,-163.7,1100
21:41:59.807,-12.11,5.34,-163.72,1100
21:41:59.945,-12.11,5.35,-163.75,1100
21:41:59.945,-12.11,5.34,-163.77,1100
21:41:59.950,-12.11,5.34,-163.8,1100
21:42:00.072,-12.11,5.34,-163.82,1100
21:42:00.072,-12.11,5.34,-163.84,1100
21:42:00.202,-12.11,5.34,-163.87,1100
21:42:00.202,-12.1,5.34,-163.89,1100
21:42:00.204,-12.11,5.34,-163.92,1100
21:42:00.336,-12.1,5.33,-163.94,1100
21:42:00.336,-12.1,5.34,-163.96,1100
21:42:00.466,-12.1,5.33,-163.99,1100
21:42:00.466,-12.11,5.33,-164.01,1100
21:42:00.466,-12.1,5.34,-164.03,1100
21:42:00.627,-12.11,5.33,-164.05,1100
21:42:00.627,-12.1,5.34,-164.07,1100
21:42:00.627,-12.1,5.33,-164.1,1100
21:42:00.764,-12.1,5.34,-164.12,1100
21:42:00.764,-12.1,5.33,-164.15,1100
21:42:00.765,-12.11,5.33,-164.17,1100
21:42:00.877,-12.1,5.33,-164.2,1100
21:42:00.877,-12.11,5.33,-164.22,1100
21:42:01.013,-12.1,5.33,-164.24,1100
21:42:01.013,-12.11,5.33,-164.26,1100
21:42:01.021,-12.1,5.33,-164.29,1100
21:42:01.144,-12.11,5.32,-164.31,1100
21:42:01.144,-12.11,5.33,-164.33,1100
21:42:01.268,-12.11,5.33,-164.36,1100
21:42:01.268,-12.11,5.33,-164.38,1100
21:42:01.275,-12.11,5.33,-164.4,1100
21:42:01.389,-12.11,5.33,-164.43,1100
21:42:01.389,-12.11,5.33,-164.45,1100
21:42:01.512,-12.11,5.33,-164.47,1100
21:42:01.512,-12.11,5.33,-164.49,1100
21:42:01.530,-12.11,5.33,-164.52,1100
21:42:01.644,-12.11,5.33,-164.54,1100
21:42:01.644,-12.11,5.33,-164.56,1100
21:42:01.768,-12.11,5.33,-164.59,1100
21:42:01.768,-12.1,5.33,-164.61,1100
21:42:01.785,-12.1,5.33,-164.63,1100
21:42:01.902,-12.11,5.33,-164.66,1100
21:42:01.902,-12.11,5.33,-164.68,1100
21:42:02.026,-12.1,5.33,-164.7,1100
21:42:02.026,-12.11,5.33,-164.72,1100
21:42:02.040,-12.1,5.33,-164.75,1100
21:42:02.164,-12.11,5.34,-164.77,1100
21:42:02.164,-12.11,5.33,-164.8,1100
21:42:02.289,-12.11,5.33,-164.82,1100
21:42:02.289,-12.11,5.34,-164.84,1100
21:42:02.295,-12.11,5.32,-164.86,1100
21:42:02.438,-12.11,5.34,-164.88,1100
21:42:02.438,-12.1,5.33,-164.91,1100
21:42:02.448,-12.1,5.33,-164.93,1100
21:42:02.574,-12.1,5.33,-164.96,1100
21:42:02.574,-12.1,5.33,-164.98,1100
21:42:02.685,-12.1,5.33,-165.0,1100
21:42:02.686,-12.1,5.33,-165.02,1100
21:42:02.703,-12.1,5.33,-165.04,1100
21:42:02.831,-12.11,5.33,-165.07,1100
21:42:02.831,-12.11,5.33,-165.09,1100
21:42:02.946,-12.11,5.33,-165.11,1100
21:42:02.946,-12.11,5.33,-165.13,1100
21:42:02.958,-12.11,5.33,-165.16,1100
21:42:03.102,-12.11,5.33,-165.18,1100
21:42:03.102,-12.11,5.33,-165.2,1100
21:42:03.111,-12.11,5.32,-165.23,1100
21:42:03.237,-12.11,5.33,-165.25,1100
21:42:03.237,-12.11,5.33,-165.27,1100
21:42:03.362,-12.11,5.32,-165.3,1100
21:42:03.362,-12.11,5.33,-165.32,1100
21:42:03.366,-12.11,5.32,-165.34,1100
21:42:03.500,-12.11,5.33,-165.36,1100
21:42:03.500,-12.11,5.32,-165.39,1100
21:42:03.519,-12.11,5.33,-165.41,1100
21:42:03.654,-12.11,5.33,-165.43,1100
21:42:03.654,-12.11,5.32,-165.45,1100
21:42:03.672,-12.11,5.34,-165.47,1100
21:42:03.800,-12.11,5.33,-165.5,1100
21:42:03.800,-12.11,5.32,-165.52,1100
21:42:03.928,-12.11,5.34,-165.54,1100
21:42:03.928,-12.1,5.32,-165.57,1100
21:42:03.928,-12.11,5.33,-165.58,1100
21:42:04.040,-12.11,5.34,-165.61,1100
21:42:04.040,-12.11,5.32,-165.64,1100
21:42:04.162,-12.11,5.33,-165.66,1100
21:42:04.162,-12.11,5.33,-165.68,1100
21:42:04.182,-12.11,5.33,-165.71,1100
21:42:04.325,-12.11,5.33,-165.73,1100
21:42:04.326,-12.11,5.33,-165.75,1100
21:42:04.334,-12.11,5.33,-165.78,1100
21:42:04.495,-12.11,5.33,-165.8,1100
21:42:04.495,-12.11,5.33,-165.82,1100
21:42:04.495,-12.11,5.33,-165.84,1100
21:42:04.609,-12.11,5.33,-165.87,1100
21:42:04.609,-12.11,5.33,-165.89,1100
21:42:04.729,-12.11,5.33,-165.91,1100
21:42:04.729,-12.11,5.34,-165.94,1100
21:42:04.745,-12.11,5.33,-165.96,1100
21:42:04.871,-12.11,5.33,-165.98,1100
21:42:04.871,-12.11,5.33,-166.01,1100
21:42:05.003,-12.11,5.33,-166.03,1100
21:42:05.003,-12.11,5.33,-166.05,1100
21:42:05.003,-12.11,5.33,-166.07,1100
21:42:05.127,-12.1,5.33,-166.09,1100
21:42:05.127,-12.1,5.33,-166.11,1100
21:42:05.252,-12.1,5.33,-166.14,1100
21:42:05.252,-12.1,5.33,-166.16,1100
21:42:05.252,-12.11,5.33,-166.18,1100
21:42:05.369,-12.11,5.33,-166.2,1100
21:42:05.369,-12.11,5.33,-166.23,1100
21:42:05.501,-12.1,5.33,-166.25,1100
21:42:05.501,-12.1,5.33,-166.27,1100
21:42:05.507,-12.11,5.33,-166.3,1100
21:42:05.623,-12.1,5.33,-166.32,1100
21:42:05.623,-12.11,5.33,-166.35,1100
21:42:05.749,-12.11,5.33,-166.37,1100
21:42:05.749,-12.11,5.33,-166.39,1100
21:42:05.762,-12.11,5.33,-166.42,1100
21:42:05.880,-12.11,5.33,-166.44,1100
21:42:05.880,-12.11,5.33,-166.46,1100
21:42:06.004,-12.11,5.33,-166.49,1100
21:42:06.004,-12.11,5.33,-166.52,1100
21:42:06.018,-12.11,5.33,-166.54,1100
21:42:06.132,-12.11,5.33,-166.56,1100
21:42:06.132,-12.11,5.34,-166.59,1100
21:42:06.255,-12.11,5.32,-166.61,1100
21:42:06.255,-12.11,5.34,-166.63,1100
21:42:06.275,-12.11,5.33,-166.66,1100
21:42:06.406,-12.11,5.33,-166.68,1100
21:42:06.406,-12.11,5.34,-166.7,1100
21:42:06.425,-12.11,5.33,-166.73,1100
21:42:06.552,-12.11,5.33,-166.75,1100
21:42:06.552,-12.11,5.33,-166.77,1100
21:42:06.665,-12.11,5.33,-166.79,1100
21:42:06.665,-12.11,5.33,-166.82,1100
21:42:06.681,-12.11,5.34,-166.84,1100
21:42:06.814,-12.11,5.33,-166.86,1100
21:42:06.814,-12.11,5.34,-166.89,1100
21:42:06.834,-12.11,5.33,-166.91,1100
21:42:06.946,-12.11,5.34,-166.93,1100
21:42:06.946,-12.11,5.33,-166.96,1100
21:42:07.068,-12.11,5.33,-166.98,1100
21:42:07.068,-12.11,5.34,-166.99,1100
21:42:07.177,-12.11,5.32,-167.02,1100
21:42:07.178,-12.11,5.33,-167.04,1100
21:42:07.191,-12.11,5.33,-167.06,1100
21:42:07.311,-12.11,5.32,-167.09,1100
21:42:07.311,-12.11,5.33,-167.1,1100
21:42:07.420,-12.11,5.32,-167.13,1100
21:42:07.420,-12.11,5.33,-167.16,1100
21:42:07.540,-12.11,5.32,-167.18,1100
21:42:07.540,-12.11,5.33,-167.2,1100
21:42:07.547,-12.11,5.33,-167.22,1100
21:42:07.669,-12.11,5.33,-167.24,1100
21:42:07.669,-12.11,5.33,-167.27,1100
21:42:07.790,-12.11,5.33,-167.29,1100
21:42:07.790,-12.11,5.32,-167.31,1100
21:42:07.805,-12.11,5.34,-167.33,1100
21:42:07.947,-12.11,5.33,-167.36,1100
21:42:07.948,-12.11,5.34,-167.38,1100
21:42:07.955,-12.11,5.34,-167.4,1100
21:42:08.102,-12.11,5.33,-167.43,1100
21:42:08.103,-12.11,5.34,-167.45,1100
21:42:08.108,-12.11,5.33,-167.48,1100
21:42:08.237,-12.11,5.33,-167.5,1100
21:42:08.237,-12.11,5.33,-167.52,1100
21:42:08.376,-12.11,5.33,-167.54,1100
21:42:08.376,-12.11,5.33,-167.57,1100
21:42:08.376,-12.11,5.33,-167.59,1100
21:42:08.490,-12.11,5.33,-167.62,1100
21:42:08.490,-12.11,5.33,-167.64,1100
21:42:08.614,-12.11,5.33,-167.66,1100
21:42:08.614,-12.11,5.33,-167.68,1100
21:42:08.619,-12.11,5.33,-167.71,1100
21:42:08.744,-12.11,5.33,-167.73,1100
21:42:08.744,-12.11,5.33,-167.75,1100
21:42:08.865,-12.11,5.33,-167.77,1100
21:42:08.865,-12.11,5.33,-167.8,1100
21:42:08.873,-12.1,5.33,-167.82,1100
21:42:09.001,-12.1,5.33,-167.84,1100
21:42:09.001,-12.1,5.33,-167.87,1100
21:42:09.124,-12.1,5.33,-167.89,1100
21:42:09.124,-12.1,5.32,-167.92,1100
21:42:09.130,-12.1,5.34,-167.93,1100
21:42:09.261,-12.1,5.32,-167.96,1100
21:42:09.261,-12.1,5.33,-167.98,1100
21:42:09.385,-12.1,5.33,-168.0,1100
21:42:09.385,-12.1,5.32,-168.02,1100
21:42:09.385,-12.1,5.33,-168.05,1100
21:42:09.496,-12.1,5.32,-168.07,1100
21:42:09.496,-12.1,5.34,-168.09,1100
21:42:09.633,-12.1,5.33,-168.12,1100
21:42:09.633,-12.1,5.33,-168.14,1100
21:42:09.639,-12.1,5.33,-168.16,1100
21:42:09.760,-12.1,5.33,-168.19,1100
21:42:09.760,-12.1,5.33,-168.21,1100
21:42:09.883,-12.1,5.33,-168.23,1100
21:42:09.883,-12.1,5.33,-168.26,1100
21:42:09.894,-12.1,5.33,-168.28,1100
21:42:10.026,-12.11,5.34,-168.3,1100
21:42:10.026,-12.11,5.33,-168.33,1100
21:42:10.164,-12.11,5.33,-168.35,1100
21:42:10.164,-12.11,5.33,-168.37,1100
21:42:10.164,-12.11,5.33,-168.4,1100
21:42:10.276,-12.11,5.33,-168.42,1100
21:42:10.276,-12.11,5.33,-168.45,1100
21:42:10.396,-12.11,5.33,-168.47,1100
21:42:10.396,-12.11,5.33,-168.5,1100
21:42:10.405,-12.11,5.33,-168.52,1100
21:42:10.523,-12.11,5.33,-168.54,1100
21:42:10.523,-12.11,5.33,-168.57,1100
21:42:10.674,-12.11,5.33,-168.59,1100
21:42:10.675,-12.11,5.33,-168.61,1100
21:42:10.675,-12.11,5.33,-168.64,1100
21:42:10.795,-12.11,5.33,-168.66,1100
21:42:10.795,-12.11,5.33,-168.68,1100
21:42:10.811,-12.11,5.32,-168.71,1100
21:42:10.946,-12.11,5.33,-168.73,1100
21:42:10.946,-12.11,5.33,-168.75,1100
21:42:10.964,-12.11,5.32,-168.78,1100
21:42:11.084,-12.11,5.33,-168.8,1100
21:42:11.084,-12.11,5.33,-168.82,1100
21:42:11.203,-12.11,5.33,-168.85,1100
21:42:11.204,-12.12,5.33,-168.87,1100
21:42:11.219,-12.11,5.33,-168.89,1100
21:42:11.347,-12.11,5.33,-168.92,1100
21:42:11.347,-12.11,5.32,-168.94,1100
21:42:11.470,-12.11,5.33,-168.96,1100
21:42:11.470,-12.11,5.32,-168.99,1100
21:42:11.474,-12.11,5.33,-169.01,1100
21:42:11.601,-12.11,5.33,-169.03,1100
21:42:11.601,-12.11,5.33,-169.06,1100
21:42:11.724,-12.11,5.33,-169.08,1100
21:42:11.725,-12.11,5.33,-169.1,1100
21:42:11.731,-12.11,5.33,-169.13,1100
21:42:11.869,-12.1,5.32,-169.15,1100
21:42:11.869,-12.11,5.34,-169.17,1100
21:42:11.882,-12.11,5.32,-169.2,1100
21:42:12.038,-12.11,5.32,-169.22,1100
21:42:12.038,-12.11,5.34,-169.23,1100
21:42:12.038,-12.11,5.32,-169.27,1100
21:42:12.157,-12.11,5.33,-169.29,1100
21:42:12.157,-12.11,5.33,-169.31,1100
21:42:12.288,-12.11,5.32,-169.33,1100
21:42:12.288,-12.11,5.33,-169.35,1100
21:42:12.291,-12.1,5.33,-169.38,1100
21:42:12.404,-12.1,5.33,-169.4,1100
21:42:12.404,-12.11,5.33,-169.43,1100
21:42:12.531,-12.11,5.32,-169.45,1100
21:42:12.531,-12.11,5.34,-169.47,1100
21:42:12.545,-12.11,5.33,-169.5,1100
21:42:12.664,-12.11,5.33,-169.52,1100
21:42:12.664,-12.11,5.34,-169.54,1100
21:42:12.797,-12.11,5.33,-169.56,1100
21:42:12.797,-12.11,5.34,-169.59,1100
21:42:12.801,-12.11,5.33,-169.61,1100
21:42:12.932,-12.11,5.34,-169.64,1100
21:42:12.932,-12.11,5.33,-169.66,1100
21:42:13.057,-12.11,5.33,-169.68,1100
21:42:13.057,-12.11,5.33,-169.7,1100
21:42:13.057,-12.11,5.33,-169.73,1100
21:42:13.181,-12.11,5.33,-169.75,1100
21:42:13.182,-12.11,5.32,-169.78,1100
