Timestamp,Roll,Pitch,Yaw,Gyro_X,Gyro_Y,Gyro_Z,Accel_X,Accel_Y,Accel_Z,Throttle
16:59:19.912,5.48,-3.87,-95.05,-1.59,-2.99,7.99,0.07,0.15,1.02,1000
16:59:19.919,5.67,-3.9,-94.96,-2.8,-5.91,8.23,0.06,0.13,1.04,1000
16:59:19.940,5.79,-3.92,-94.87,-3.66,-7.8,7.5,0.07,0.11,1.03,1000
16:59:19.941,5.84,-3.96,-94.79,-3.78,-9.09,6.59,0.07,0.1,1.03,1000
16:59:19.952,5.82,-4.02,-94.72,-4.02,-10.61,5.98,0.08,0.1,1.03,1000
16:59:19.963,5.8,-4.12,-94.66,-3.41,-11.04,6.1,0.08,0.11,1.04,1000
16:59:19.978,5.77,-4.22,-94.58,-2.26,-11.16,6.59,0.08,0.1,1.05,1000
16:59:19.985,5.75,-4.31,-94.51,-0.49,-11.16,7.01,0.1,0.09,1.06,1000
16:59:19.996,5.75,-4.46,-94.43,1.65,-9.7,8.48,0.11,0.12,1.05,1000
16:59:20.008,5.84,-4.63,-94.31,4.51,-7.5,10.73,0.1,0.12,1.07,1000
16:59:20.017,5.95,-4.78,-94.2,6.71,-5.24,11.34,0.13,0.12,1.06,1000
16:59:20.029,6.07,-4.95,-94.08,8.54,-1.46,11.16,0.13,0.11,1.05,1000
16:59:20.040,6.18,-5.13,-93.96,9.57,1.77,10.0,0.12,0.12,1.05,1000
16:59:20.051,6.31,-5.25,-93.86,9.63,4.39,8.84,0.14,0.12,1.03,1000
16:59:20.062,6.47,-5.38,-93.76,8.78,6.04,7.93,0.12,0.14,1.03,1000
16:59:20.073,6.64,-5.44,-93.69,7.13,6.89,7.32,0.12,0.15,1.02,1000
16:59:20.084,6.83,-5.45,-93.6,4.27,6.52,6.89,0.1,0.15,1.02,1000
16:59:20.095,7.0,-5.45,-93.54,1.77,5.79,5.61,0.1,0.14,1.01,1000
16:59:20.106,7.13,-5.44,-93.48,-1.1,4.45,3.78,0.11,0.14,1.01,1000
16:59:20.119,7.2,-5.44,-93.45,-4.15,2.68,1.46,0.1,0.13,1.01,1000
16:59:20.128,7.19,-5.44,-93.45,-6.52,0.37,-1.1,0.1,0.12,1.02,1000
16:59:20.140,7.1,-5.49,-93.48,-8.41,-3.11,-4.33,0.11,0.11,1.01,1000
16:59:20.154,6.96,-5.57,-93.53,-9.76,-6.1,-6.46,0.11,0.1,1.01,1000
16:59:20.162,6.81,-5.69,-93.61,-10.18,-9.7,-8.41,0.13,0.11,1.01,1000
16:59:20.172,6.65,-5.88,-93.71,-9.88,-11.95,-9.02,0.13,0.11,1.03,1000
16:59:20.185,6.51,-6.1,-93.81,-8.84,-11.52,-9.82,0.15,0.1,1.03,1000
16:59:20.194,6.34,-6.39,-93.92,-7.74,-9.94,-10.55,0.17,0.08,1.06,1000
16:59:20.207,6.1,-6.74,-94.04,-6.77,-7.8,-12.13,0.18,0.07,1.04,1000
16:59:20.216,5.86,-7.05,-94.2,-5.55,-5.12,-14.7,0.19,0.05,1.06,1000
16:59:20.228,5.53,-7.42,-94.36,-4.57,-3.78,-16.71,0.19,0.04,1.04,1000
16:59:20.246,5.25,-7.68,-94.55,-3.72,-2.32,-17.99,0.18,0.04,1.04,1000
16:59:20.249,4.96,-7.93,-94.75,-3.35,0.12,-18.05,0.17,0.06,1.02,1000
16:59:20.260,4.77,-8.07,-94.94,-3.29,2.13,-16.4,0.15,0.06,1.04,1000
16:59:20.271,4.56,-8.12,-95.13,-3.72,3.84,-15.06,0.14,0.04,1.03,1000
16:59:20.282,4.36,-8.1,-95.27,-4.02,4.63,-14.15,0.14,0.03,1.03,1000
16:59:20.293,4.12,-8.06,-95.42,-4.51,4.33,-13.29,0.13,0.03,1.02,1000
16:59:20.304,3.83,-7.96,-95.57,-4.7,3.11,-11.1,0.12,0.03,1.01,1000
16:59:20.315,3.57,-7.84,-95.68,-4.51,1.83,-9.09,0.1,0.03,1.01,1000
16:59:20.329,3.33,-7.67,-95.76,-3.84,0.73,-5.55,0.1,0.03,1.01,1000
16:59:20.337,3.16,-7.52,-95.81,-2.8,1.22,-2.2,0.12,0.05,1.0,1000
16:59:20.350,3.08,-7.41,-95.81,-2.07,1.65,1.52,0.1,0.05,1.04,1000
16:59:20.358,2.98,-7.22,-95.78,-1.52,2.5,3.29,0.11,0.03,1.03,1000
16:59:20.370,2.83,-7.08,-95.75,-1.46,3.35,2.99,0.12,0.02,1.02,1000
16:59:20.381,2.67,-7.0,-95.72,-1.65,3.6,2.56,0.12,0.03,1.02,1000
16:59:20.392,2.54,-6.95,-95.69,-1.65,3.48,2.01,0.13,0.04,1.02,1000
16:59:20.402,2.44,-6.93,-95.67,-1.22,2.87,2.32,0.13,0.04,1.01,1000
16:59:20.414,2.4,-6.91,-95.64,-0.06,2.44,2.93,0.12,0.05,1.01,1000
16:59:20.432,2.4,-6.89,-95.6,0.79,2.01,3.72,0.11,0.04,1.01,1000
16:59:20.442,2.4,-6.83,-95.56,1.4,1.34,3.84,0.11,0.03,1.01,1000
16:59:20.455,2.38,-6.78,-95.52,1.77,0.24,3.72,0.12,0.03,1.0,1000
16:59:20.458,2.35,-6.77,-95.48,2.13,-0.3,3.84,0.13,0.04,0.99,1000
16:59:20.471,2.34,-6.79,-95.43,2.32,-0.24,4.33,0.13,0.04,0.99,1000
16:59:20.480,2.36,-6.83,-95.38,2.5,0.55,5.12,0.14,0.06,1.0,1000
16:59:20.491,2.44,-6.89,-95.32,2.5,2.68,6.4,0.14,0.06,1.01,1000
16:59:20.503,2.53,-6.93,-95.25,2.13,6.28,7.01,0.16,0.07,1.02,1000
16:59:20.514,2.64,-6.97,-95.17,1.4,10.49,5.67,0.14,0.05,1.05,1000
16:59:20.527,2.67,-6.94,-95.12,0.3,13.35,3.35,0.15,0.04,1.03,1000
16:59:20.538,2.66,-6.91,-95.1,-0.85,16.16,-0.12,0.15,0.04,1.01,1000
16:59:20.557,2.62,-6.9,-95.11,-1.1,16.95,-2.2,0.12,0.04,1.0,1000
16:59:20.557,2.58,-6.79,-95.14,-0.85,16.1,-2.93,0.12,0.04,0.99,1000
16:59:20.573,2.55,-6.67,-95.17,-0.12,13.9,-2.74,0.11,0.04,0.98,1000
16:59:20.578,2.54,-6.53,-95.2,0.79,10.67,-1.59,0.09,0.04,0.99,1000
16:59:20.593,2.55,-6.4,-95.21,1.77,7.2,0.0,0.1,0.04,0.97,1000
16:59:20.602,2.56,-6.31,-95.2,2.93,3.72,1.95,0.09,0.04,0.99,1000
16:59:20.612,2.56,-6.22,-95.16,3.29,0.3,3.35,0.09,0.03,0.99,1000
16:59:20.624,2.53,-6.16,-95.13,3.17,-2.26,3.72,0.09,0.03,0.99,1000
16:59:20.637,2.49,-6.12,-95.09,2.93,-4.09,4.02,0.09,0.02,0.99,1000
16:59:20.649,2.4,-6.09,-95.04,2.8,-4.88,3.84,0.09,0.01,0.99,1000
16:59:20.658,2.26,-6.1,-95.0,3.11,-4.76,4.51,0.09,0.01,1.0,1000
16:59:20.666,2.1,-6.08,-94.95,3.78,-3.78,5.43,0.1,-0.01,1.01,1000
16:59:20.679,1.89,-6.06,-94.88,5.55,-2.99,6.83,0.1,-0.02,1.03,1000
16:59:20.689,1.67,-6.01,-94.79,8.54,-2.38,9.27,0.09,-0.03,1.03,1000
16:59:20.699,1.49,-5.95,-94.68,11.04,-2.44,12.44,0.1,-0.01,1.03,1000
16:59:20.714,1.36,-5.89,-94.51,13.48,-3.29,17.38,0.09,0.02,1.05,1000
16:59:20.724,1.38,-5.82,-94.29,14.88,-3.84,22.26,0.09,0.03,1.05,1000
16:59:20.734,1.48,-5.77,-94.05,14.76,-4.57,25.85,0.1,0.04,1.07,1000
16:59:20.744,1.65,-5.76,-93.73,12.62,-3.29,27.2,0.11,0.05,1.06,1000
16:59:20.761,1.8,-5.77,-93.46,9.57,-1.77,26.77,0.11,0.05,1.07,1000
16:59:20.767,1.92,-5.8,-93.18,5.79,-0.79,24.09,0.13,0.05,1.06,1000
16:59:20.778,2.01,-5.86,-92.93,1.83,0.06,19.94,0.14,0.06,1.06,1000
16:59:20.788,2.05,-5.94,-92.73,-1.89,0.98,15.49,0.15,0.05,1.05,1000
16:59:20.799,2.07,-6.09,-92.57,-4.82,1.28,10.85,0.15,0.06,1.06,1000
16:59:20.810,2.07,-6.23,-92.47,-6.4,1.71,7.38,0.15,0.05,1.05,1000
16:59:20.821,2.05,-6.37,-92.41,-6.4,2.07,4.27,0.15,0.04,1.06,1000
16:59:20.837,2.01,-6.51,-92.37,-5.49,2.2,2.13,0.14,0.03,1.04,1000
16:59:20.845,1.94,-6.61,-92.36,-3.66,2.13,0.85,0.13,0.03,1.05,1000
16:59:20.861,1.89,-6.65,-92.35,-1.16,2.13,0.18,0.12,0.04,1.03,1000
16:59:20.865,1.87,-6.67,-92.35,0.0,1.52,-0.12,0.12,0.03,1.04,1000
16:59:20.876,1.83,-6.67,-92.36,0.18,1.04,-1.16,0.12,0.02,1.02,1000
16:59:20.887,1.77,-6.66,-92.37,-1.1,1.16,-2.01,0.1,0.03,1.03,1000
16:59:20.901,1.7,-6.6,-92.4,-3.66,1.59,-3.48,0.1,0.02,1.02,1000
16:59:20.910,1.6,-6.52,-92.45,-6.16,1.65,-4.94,0.1,0.02,1.02,1000
16:59:20.921,1.43,-6.4,-92.52,-7.74,1.4,-6.4,0.1,-0.0,1.01,1000
16:59:20.930,1.23,-6.32,-92.58,-7.5,0.55,-7.13,0.1,-0.01,1.01,1000
16:59:20.942,0.98,-6.23,-92.67,-5.37,-1.34,-6.59,0.09,0.0,1.01,1000
16:59:20.959,0.83,-6.18,-92.74,-2.56,-2.87,-4.76,0.09,0.01,1.02,1000
16:59:20.965,0.76,-6.13,-92.77,0.0,-3.84,-1.4,0.09,0.03,1.03,1000
16:59:20.978,0.75,-6.07,-92.77,1.77,-4.39,1.65,0.08,0.02,1.02,1000
16:59:20.988,0.78,-6.0,-92.75,2.26,-4.94,3.72,0.08,0.03,1.04,1000
16:59:20.997,0.84,-5.93,-92.7,1.83,-5.06,4.94,0.08,0.04,1.03,1000
16:59:21.008,0.93,-5.84,-92.63,0.67,-5.43,6.28,0.08,0.04,1.04,1000
16:59:21.021,1.05,-5.77,-92.56,-0.85,-3.54,7.07,0.1,0.08,1.01,1000
16:59:21.029,1.3,-5.7,-92.49,-1.46,0.43,8.11,0.1,0.1,1.04,1000
16:59:21.041,1.6,-5.59,-92.39,-1.65,5.24,7.93,0.08,0.08,1.09,1000
16:59:21.066,1.86,-5.4,-92.32,-0.98,9.76,5.43,0.09,0.07,1.06,1000
16:59:21.070,2.08,-5.21,-92.28,0.55,14.45,1.59,0.11,0.07,1.07,1000
16:59:21.074,2.23,-5.04,-92.28,1.83,16.46,-2.93,0.09,0.05,1.05,1000
16:59:21.085,2.38,-4.88,-92.33,3.05,16.1,-6.95,0.11,0.06,1.04,1000
16:59:21.098,2.48,-4.78,-92.41,3.78,14.33,-9.76,0.09,0.06,1.02,1000
16:59:21.107,2.63,-4.66,-92.54,4.33,10.61,-10.24,0.08,0.09,1.0,1000
16:59:21.118,2.86,-4.6,-92.63,4.51,8.9,-7.74,0.12,0.15,0.98,1000
16:59:21.129,3.32,-4.56,-92.69,5.12,9.7,-2.62,0.05,0.16,1.04,1000
16:59:21.141,3.74,-4.39,-92.7,4.94,12.2,-0.37,0.06,0.12,1.05,1000
16:59:21.152,4.06,-4.22,-92.71,3.9,13.9,-0.79,0.09,0.1,1.06,1000
16:59:21.169,4.27,-4.1,-92.73,1.52,14.27,-4.09,0.08,0.07,1.03,1000
16:59:21.178,4.3,-4.04,-92.79,-0.91,12.93,-7.62,0.09,0.05,1.02,1000
16:59:21.184,4.24,-3.99,-92.9,-2.87,9.51,-10.3,0.1,0.06,0.98,1000
16:59:21.197,4.2,-4.02,-93.0,-3.66,5.61,-10.3,0.07,0.1,1.0,1000
16:59:21.208,4.25,-4.02,-93.11,-2.56,2.99,-8.17,0.07,0.12,1.0,1000
16:59:21.217,4.41,-4.02,-93.19,-0.37,-0.73,-5.43,0.06,0.11,1.04,1000
16:59:21.228,4.57,-4.0,-93.24,1.1,-3.11,-4.33,0.07,0.1,1.01,1000
16:59:21.240,4.67,-4.03,-93.28,0.67,-4.57,-4.39,0.07,0.09,1.06,1000
16:59:21.250,4.69,-4.12,-93.34,-0.61,-7.87,-6.28,0.08,0.06,1.01,1000
16:59:21.263,4.65,-4.25,-93.42,-3.35,-10.98,-8.9,0.09,0.07,1.03,1000
16:59:21.274,4.57,-4.43,-93.54,-7.32,-14.63,-11.46,0.08,0.09,1.01,1000
16:59:21.282,4.5,-4.61,-93.66,-9.82,-16.4,-12.62,0.08,0.09,1.03,1000
16:59:21.293,4.44,-4.78,-93.81,-10.85,-17.44,-13.78,0.08,0.08,1.03,1000
16:59:21.306,4.32,-4.96,-93.98,-10.06,-17.5,-15.61,0.1,0.05,1.04,1000
16:59:21.316,4.16,-5.14,-94.15,-8.35,-17.07,-17.2,0.11,0.05,1.03,1000
16:59:21.329,3.99,-5.35,-94.34,-6.34,-16.28,-18.6,0.11,0.04,1.04,1000
16:59:21.338,3.81,-5.62,-94.57,-4.45,-15.12,-19.33,0.15,0.05,1.02,1000
16:59:21.349,3.67,-5.94,-94.76,-2.87,-13.66,-18.78,0.14,0.07,1.04,1000
16:59:21.364,3.63,-6.21,-94.96,-2.01,-9.63,-17.01,0.13,0.08,1.03,1000
16:59:21.372,3.63,-6.41,-95.14,-1.71,-5.18,-15.85,0.14,0.06,1.05,1000
16:59:21.382,3.6,-6.55,-95.33,-2.38,-0.43,-16.04,0.13,0.04,1.04,1000
16:59:21.392,3.5,-6.62,-95.49,-3.35,3.05,-16.71,0.13,0.04,1.02,1000
16:59:21.404,3.38,-6.63,-95.69,-4.51,5.67,-16.95,0.11,0.04,1.0,1000
16:59:21.415,3.25,-6.55,-95.86,-5.18,6.83,-16.77,0.09,0.04,0.99,1000
16:59:21.425,3.1,-6.41,-96.04,-5.12,7.32,-15.67,0.08,0.03,0.98,1000
16:59:21.437,2.95,-6.23,-96.2,-4.57,7.62,-13.96,0.06,0.02,0.97,1000
16:59:21.448,2.76,-5.96,-96.35,-3.11,7.01,-11.4,0.06,0.03,0.97,1000
16:59:21.460,2.63,-5.72,-96.45,-1.04,7.68,-7.44,0.07,0.04,0.94,1000
16:59:21.476,2.57,-5.47,-96.51,1.22,7.93,-2.62,0.05,0.05,0.98,1000
16:59:21.482,2.57,-5.15,-96.52,3.72,9.27,1.52,0.05,0.04,0.96,1000
16:59:21.491,2.59,-4.89,-96.49,5.85,10.55,4.63,0.06,0.04,0.98,1000
16:59:21.503,2.63,-4.63,-96.42,7.62,10.3,7.44,0.07,0.04,0.97,1000
16:59:21.515,2.68,-4.46,-96.33,8.11,8.54,8.96,0.09,0.05,0.97,1000
16:59:21.529,2.77,-4.39,-96.24,7.87,5.3,10.37,0.09,0.07,0.96,1000
16:59:21.535,2.92,-4.38,-96.12,6.65,0.85,11.34,0.08,0.09,0.97,1000
16:59:21.546,3.13,-4.41,-95.99,5.12,-2.93,11.95,0.1,0.11,0.97,1000
16:59:21.558,3.49,-4.53,-95.84,3.17,-7.56,12.32,0.07,0.12,1.01,1000
16:59:21.571,3.75,-4.61,-95.73,0.73,-10.55,10.3,0.07,0.1,1.0,1000
16:59:21.580,3.96,-4.74,-95.63,-1.77,-13.54,5.79,0.1,0.08,1.01,1000
16:59:21.592,4.07,-4.9,-95.59,-2.13,-15.43,1.16,0.09,0.08,1.01,1000
16:59:21.601,4.11,-5.08,-95.6,-2.32,-17.07,-2.87,0.09,0.09,1.03,1000
16:59:21.613,4.16,-5.27,-95.65,-1.28,-18.9,-6.04,0.1,0.1,1.02,1000
16:59:21.624,4.29,-5.47,-95.72,0.37,-19.94,-7.32,0.09,0.12,1.06,1000
16:59:21.635,4.51,-5.63,-95.8,2.87,-19.33,-7.38,0.09,0.13,1.05,1000
16:59:21.647,4.77,-5.76,-95.89,5.18,-16.65,-8.41,0.11,0.11,1.08,1000
16:59:21.659,4.96,-5.89,-95.99,6.4,-13.23,-10.91,0.12,0.1,1.06,1000
16:59:21.673,5.12,-6.02,-96.13,6.4,-10.0,-13.41,0.13,0.1,1.07,1000
16:59:21.679,5.22,-6.15,-96.28,5.73,-6.95,-15.67,0.14,0.1,1.05,1000
16:59:21.690,5.29,-6.28,-96.46,4.94,-4.63,-16.89,0.13,0.1,1.05,1000
16:59:21.701,5.39,-6.41,-96.65,3.48,-1.4,-16.28,0.14,0.13,1.04,1000
16:59:21.711,5.54,-6.47,-96.81,1.71,1.89,-14.02,0.1,0.13,1.05,1000
16:59:21.723,5.66,-6.45,-96.98,-0.79,5.24,-12.8,0.14,0.1,1.04,1000
16:59:21.734,5.68,-6.45,-97.1,-2.5,7.07,-12.5,0.13,0.09,1.04,1000
16:59:21.745,5.61,-6.44,-97.24,-3.72,7.87,-12.62,0.13,0.08,1.02,1000
16:59:21.755,5.46,-6.46,-97.38,-3.84,7.38,-12.32,0.14,0.06,1.01,1000
16:59:21.774,5.29,-6.5,-97.52,-2.62,5.79,-11.04,0.13,0.06,1.0,1000
16:59:21.786,5.13,-6.56,-97.63,-0.37,4.33,-8.96,0.12,0.07,1.01,1000
16:59:21.789,5.04,-6.57,-97.72,2.13,2.5,-6.34,0.11,0.06,1.02,1000
16:59:21.801,4.94,-6.54,-97.77,4.09,0.43,-5.0,0.1,0.05,1.01,1000
16:59:21.811,4.86,-6.5,-97.82,5.49,-2.07,-3.17,0.09,0.06,1.01,1000
16:59:21.823,4.77,-6.44,-97.85,5.61,-4.33,-1.77,0.09,0.06,1.0,1000
16:59:21.834,4.76,-6.41,-97.86,4.82,-5.79,0.12,0.09,0.09,1.0,1000
16:59:21.847,4.78,-6.37,-97.85,3.54,-5.98,1.34,0.07,0.09,1.02,1000
16:59:21.854,4.81,-6.26,-97.84,1.95,-6.1,1.04,0.08,0.08,1.04,1000
16:59:21.866,4.78,-6.15,-97.84,-0.24,-5.55,-0.91,0.08,0.07,1.02,1000
16:59:21.877,4.7,-6.05,-97.86,-1.95,-4.94,-3.11,0.09,0.07,1.03,1000
16:59:21.888,4.64,-5.98,-97.9,-2.99,-3.78,-4.39,0.09,0.1,1.02,1000
16:59:21.899,4.63,-5.9,-97.95,-2.62,-2.8,-4.63,0.08,0.09,1.04,1000
16:59:21.910,4.64,-5.78,-98.01,-1.28,-2.8,-5.43,0.1,0.08,1.05,1000
16:59:21.921,4.64,-5.72,-98.07,-0.12,-2.68,-6.16,0.1,0.08,1.04,1000
16:59:21.936,4.63,-5.69,-98.15,1.52,-3.29,-7.13,0.11,0.08,1.04,1000
16:59:21.944,4.63,-5.73,-98.23,2.8,-3.96,-6.71,0.13,0.09,1.02,1000
16:59:21.954,4.66,-5.81,-98.29,3.05,-4.39,-5.73,0.13,0.1,1.03,1000
16:59:21.968,4.75,-5.94,-98.34,2.56,-4.45,-3.66,0.12,0.11,1.04,1000
16:59:21.975,4.86,-6.04,-98.37,1.4,-4.15,-1.46,0.12,0.11,1.04,1000
16:59:21.989,4.96,-6.16,-98.38,0.24,-3.66,0.18,0.14,0.1,1.04,1000
16:59:21.997,5.03,-6.28,-98.37,-1.4,-2.74,1.16,0.14,0.1,1.03,1000
16:59:22.009,5.07,-6.44,-98.35,-2.68,-2.26,1.71,0.15,0.1,1.02,1000
16:59:22.021,5.11,-6.6,-98.34,-3.17,-1.28,2.38,0.14,0.12,1.02,1000
16:59:22.031,5.2,-6.72,-98.3,-3.17,-0.12,3.23,0.13,0.12,1.03,1000
16:59:22.042,5.28,-6.78,-98.27,-3.29,1.77,2.2,0.15,0.1,1.03,1000
16:59:22.056,5.34,-6.86,-98.26,-3.54,3.96,0.06,0.14,0.11,1.03,1000
16:59:22.063,5.36,-6.87,-98.27,-3.96,5.67,-2.44,0.12,0.09,1.03,1000
16:59:22.075,5.32,-6.84,-98.32,-4.57,6.04,-6.34,0.13,0.07,1.03,1000
16:59:22.091,5.2,-6.82,-98.41,-4.76,5.12,-9.76,0.13,0.07,1.02,1000
16:59:22.097,5.06,-6.81,-98.53,-4.57,2.68,-12.13,0.12,0.06,1.02,1000
16:59:22.108,4.9,-6.82,-98.67,-4.02,0.3,-13.05,0.13,0.08,1.01,1000
16:59:22.118,4.81,-6.85,-98.8,-2.87,-1.28,-12.13,0.1,0.08,1.02,1000
16:59:22.133,4.75,-6.84,-98.94,-1.83,-2.2,-11.1,0.11,0.08,1.02,1000
16:59:22.145,4.69,-6.81,-99.04,-1.46,-2.44,-10.49,0.12,0.06,1.03,1000
16:59:22.152,4.59,-6.8,-99.17,-1.28,-2.2,-10.49,0.12,0.06,1.01,1000
16:59:22.165,4.46,-6.79,-99.28,-1.22,-1.77,-10.24,0.12,0.05,1.01,1000
16:59:22.174,4.32,-6.79,-99.39,-1.28,-0.67,-9.57,0.13,0.06,1.0,1000
16:59:22.191,4.21,-6.82,-99.49,-0.55,0.55,-8.11,0.12,0.07,1.01,1000
16:59:22.196,4.15,-6.81,-99.57,0.18,2.07,-5.85,0.11,0.07,1.01,1000
16:59:22.207,4.11,-6.77,-99.62,0.24,2.93,-4.57,0.12,0.06,1.02,1000
16:59:22.218,4.04,-6.74,-99.67,-0.67,3.84,-3.41,0.13,0.06,1.0,1000
16:59:22.229,3.97,-6.72,-99.7,-1.83,4.21,-1.95,0.11,0.06,1.02,1000
16:59:22.241,3.9,-6.67,-99.71,-3.35,2.99,-0.85,0.11,0.06,1.0,1000
16:59:22.251,3.83,-6.63,-99.72,-4.39,2.01,0.0,0.11,0.06,1.0,1000
16:59:22.262,3.76,-6.59,-99.71,-4.21,0.24,1.28,0.1,0.07,1.01,1000
16:59:22.274,3.73,-6.54,-99.69,-3.17,-1.34,2.2,0.1,0.07,1.01,1000
16:59:22.288,3.69,-6.47,-99.67,-1.89,-2.44,2.56,0.1,0.05,1.02,1000
16:59:22.295,3.63,-6.45,-99.64,-0.24,-3.6,1.71,0.11,0.05,1.02,1000
16:59:22.308,3.57,-6.46,-99.63,1.1,-4.09,1.1,0.11,0.05,1.01,1000
16:59:22.318,3.52,-6.48,-99.62,2.07,-4.15,0.49,0.12,0.06,1.02,1000
16:59:22.327,3.53,-6.5,-99.61,2.68,-3.29,0.73,0.11,0.08,1.02,1000
16:59:22.338,3.57,-6.51,-99.6,2.74,-2.13,0.85,0.1,0.07,1.03,1000
16:59:22.352,3.63,-6.49,-99.6,1.89,-1.28,0.24,0.12,0.07,1.03,1000
16:59:22.361,3.67,-6.5,-99.6,0.73,-0.79,-0.37,0.11,0.07,1.02,1000
16:59:22.372,3.71,-6.49,-99.6,-0.43,-1.1,-0.79,0.12,0.08,1.02,1000
16:59:22.396,3.74,-6.5,-99.61,-1.59,-1.46,-0.91,0.12,0.08,1.01,1000
16:59:22.397,3.81,-6.53,-99.62,-2.5,-0.61,-0.12,0.12,0.1,1.02,1000
16:59:22.405,3.9,-6.54,-99.61,-3.41,0.43,1.1,0.11,0.09,1.04,1000
16:59:22.416,3.98,-6.51,-99.6,-3.78,0.43,0.85,0.12,0.08,1.04,1000
16:59:22.427,3.99,-6.5,-99.6,-3.78,0.3,-0.37,0.12,0.07,1.03,1000
16:59:22.439,3.97,-6.48,-99.61,-3.35,0.0,-2.01,0.11,0.07,1.02,1000
16:59:22.448,3.93,-6.46,-99.64,-2.44,-0.91,-2.74,0.11,0.07,1.02,1000
16:59:22.459,3.91,-6.43,-99.67,-1.16,-2.01,-2.74,0.1,0.07,1.01,1000
16:59:22.472,3.91,-6.39,-99.7,0.12,-2.74,-2.07,0.09,0.07,1.03,1000
16:59:22.483,3.92,-6.36,-99.72,0.98,-3.6,-1.52,0.1,0.06,1.02,1000
16:59:22.498,3.93,-6.35,-99.73,1.52,-3.17,-0.85,0.11,0.07,1.02,1000
16:59:22.506,3.95,-6.35,-99.73,1.22,-2.32,-0.06,0.11,0.07,1.02,1000
16:59:22.515,3.97,-6.32,-99.73,0.24,-1.22,0.06,0.12,0.07,1.02,1000
16:59:22.526,3.96,-6.32,-99.73,-0.67,-0.37,0.18,0.12,0.07,1.03,1000
16:59:22.539,3.93,-6.33,-99.73,-1.59,0.0,-0.18,0.11,0.07,1.02,1000
16:59:22.548,3.9,-6.33,-99.73,-2.44,-0.24,-0.06,0.12,0.07,1.02,1000
16:59:22.559,3.88,-6.35,-99.73,-2.68,-0.73,0.49,0.12,0.08,1.01,1000
16:59:22.569,3.88,-6.37,-99.73,-2.44,-0.91,1.16,0.11,0.08,1.02,1000
16:59:22.581,3.9,-6.35,-99.71,-2.01,-0.73,1.34,0.1,0.07,1.02,1000
16:59:22.592,3.9,-6.32,-99.7,-1.4,-0.79,0.61,0.12,0.06,1.03,1000
16:59:22.603,3.86,-6.31,-99.7,-1.04,-0.79,-0.73,0.11,0.06,1.01,1000
16:59:22.613,3.81,-6.32,-99.71,-1.1,-1.22,-1.59,0.12,0.06,1.02,1000
16:59:22.625,3.78,-6.35,-99.73,-0.85,-1.52,-2.13,0.12,0.08,1.03,1000
16:59:22.635,3.79,-6.39,-99.75,-0.73,0.3,-1.95,0.12,0.09,1.02,1000
16:59:22.653,3.89,-6.46,-99.77,-0.18,3.17,-1.1,0.14,0.11,1.05,1000
16:59:22.659,3.99,-6.44,-99.78,0.55,7.13,-1.46,0.1,0.07,1.07,1000
16:59:22.668,4.04,-6.37,-99.81,1.4,10.49,-3.41,0.13,0.07,1.05,1000
16:59:22.680,4.05,-6.3,-99.86,0.79,12.2,-5.55,0.12,0.06,1.04,1000
16:59:22.692,4.03,-6.19,-99.93,-0.06,11.1,-6.77,0.1,0.07,1.03,1000
16:59:22.705,4.0,-6.06,-100.01,-1.1,8.35,-6.34,0.1,0.07,1.01,1000
16:59:22.712,4.0,-5.93,-100.06,-1.52,5.73,-4.45,0.07,0.08,1.01,1000
16:59:22.724,4.02,-5.74,-100.1,-1.59,2.32,-1.46,0.07,0.07,1.01,1000
16:59:22.736,4.02,-5.58,-100.1,-1.52,-1.04,0.67,0.07,0.06,1.0,1000
16:59:22.745,3.99,-5.45,-100.08,-1.1,-4.15,2.93,0.08,0.06,0.99,1000
16:59:22.756,3.94,-5.41,-100.04,-0.91,-6.95,4.63,0.09,0.07,0.99,1000
16:59:22.769,3.91,-5.42,-99.98,-0.91,-7.32,6.46,0.1,0.07,0.98,1000
16:59:22.781,3.91,-5.48,-99.9,-0.73,-6.22,7.93,0.1,0.08,1.02,1000
16:59:22.791,3.94,-5.53,-99.81,-0.91,-2.8,8.17,0.11,0.08,1.02,1000
16:59:22.808,3.94,-5.55,-99.72,-1.34,0.55,6.4,0.1,0.05,1.03,1000
16:59:22.813,3.89,-5.56,-99.67,-1.59,2.38,3.66,0.11,0.05,1.02,1000
16:59:22.822,3.83,-5.56,-99.65,-1.4,3.35,0.73,0.13,0.06,1.01,1000
16:59:22.835,3.78,-5.6,-99.65,-0.55,2.99,-0.73,0.1,0.07,1.02,1000
16:59:22.846,3.76,-5.61,-99.66,0.67,1.95,-1.59,0.11,0.06,1.02,1000
16:59:22.855,3.79,-5.64,-99.68,2.07,0.67,-1.71,0.1,0.08,1.04,1000
16:59:22.867,3.86,-5.64,-99.7,2.68,-0.37,-1.34,0.1,0.08,1.02,1000
16:59:22.883,3.92,-5.64,-99.71,2.56,-1.4,-1.52,0.11,0.07,1.04,1000
16:59:22.888,3.96,-5.65,-99.73,1.04,-2.13,-2.26,0.1,0.07,1.01,1000
16:59:22.900,3.96,-5.68,-99.76,-0.67,-2.99,-2.8,0.12,0.07,1.03,1000
16:59:22.915,3.97,-5.76,-99.79,-2.93,-3.48,-2.62,0.11,0.09,1.02,1000
16:59:22.922,3.99,-5.83,-99.81,-4.57,-3.6,-1.1,0.11,0.1,1.05,1000
16:59:22.933,4.04,-5.9,-99.82,-5.79,-3.11,0.18,0.11,0.09,1.05,1000
16:59:22.944,4.05,-5.94,-99.81,-6.65,-2.87,0.43,0.1,0.07,1.06,1000
16:59:22.955,3.97,-5.97,-99.81,-7.38,-3.48,-0.3,0.12,0.05,1.05,1000
16:59:22.967,3.84,-6.04,-99.82,-7.56,-4.27,-1.16,0.12,0.06,1.05,1000
16:59:22.977,3.72,-6.13,-99.83,-6.89,-4.63,-0.85,0.14,0.07,1.06,1000
16:59:22.988,3.64,-6.25,-99.84,-5.73,-3.96,-0.37,0.13,0.07,1.08,1000
16:59:22.999,3.59,-6.34,-99.84,-4.88,-2.44,-1.28,0.14,0.05,1.08,1000
16:59:23.011,3.49,-6.44,-99.87,-4.63,-0.12,-4.09,0.14,0.04,1.06,1000
16:59:23.021,3.38,-6.5,-99.92,-4.7,1.71,-5.98,0.13,0.05,1.04,1000
16:59:23.031,3.26,-6.55,-99.99,-4.57,4.45,-7.13,0.12,0.06,1.01,1000
16:59:23.047,3.22,-6.52,-100.07,-5.06,7.07,-6.89,0.1,0.07,1.01,1000
16:59:23.053,3.23,-6.43,-100.14,-5.67,10.37,-5.91,0.11,0.09,0.98,1000
16:59:23.065,3.33,-6.26,-100.2,-6.16,13.6,-3.96,0.08,0.09,1.0,1000
16:59:23.075,3.43,-6.03,-100.24,-6.28,15.0,-3.66,0.08,0.07,0.98,1000
16:59:23.087,3.44,-5.78,-100.29,-5.91,16.71,-4.33,0.11,0.04,0.96,1000
16:59:23.115,3.39,-5.61,-100.34,-5.24,15.55,-4.94,0.09,0.04,0.95,1000
16:59:23.115,3.33,-5.44,-100.39,-3.72,13.29,-4.63,0.08,0.06,0.93,1000
16:59:23.120,3.32,-5.28,-100.43,-1.71,10.24,-2.68,0.06,0.07,0.93,1000
16:59:23.133,3.39,-5.1,-100.45,0.3,6.95,-0.12,0.05,0.08,0.94,1000
16:59:23.141,3.52,-4.93,-100.43,3.05,4.45,3.17,0.07,0.1,0.92,1000
16:59:23.153,3.78,-4.75,-100.38,5.49,1.59,6.95,0.03,0.09,0.97,1000
16:59:23.163,4.01,-4.54,-100.3,6.4,-1.65,7.68,0.06,0.08,0.96,1000
16:59:23.176,4.16,-4.45,-100.22,6.16,-4.88,6.59,0.08,0.06,0.97,1000
16:59:23.186,4.23,-4.45,-100.16,4.63,-8.41,3.72,0.06,0.07,0.97,1000
16:59:23.198,4.28,-4.47,-100.13,3.54,-11.52,2.2,0.06,0.09,0.99,1000
16:59:23.218,4.39,-4.48,-100.11,2.8,-14.88,1.22,0.04,0.09,1.0,1000
16:59:23.219,4.53,-4.51,-100.1,2.74,-16.16,0.55,0.07,0.12,1.01,1000
16:59:23.229,4.72,-4.55,-100.09,2.74,-17.2,-0.12,0.05,0.1,1.04,1000
16:59:23.240,4.84,-4.6,-100.11,2.44,-18.05,-3.41,0.1,0.07,1.05,1000
16:59:23.959,2.36,-4.17,0.01,7.5,15.61,5.06,0.05,-0.08,1.09,1100
16:59:23.967,2.45,-4.03,0.02,1.89,22.62,-0.43,0.36,0.1,0.99,1100
16:59:23.978,2.45,-3.93,-0.01,-5.73,28.11,-4.63,0.54,0.07,1.03,1100
16:59:23.990,2.39,-3.8,-0.08,-6.65,20.67,-9.76,0.39,0.31,1.01,1100
16:59:25.001,1.23,-1.32,-23.79,-8.29,10.98,-37.38,0.33,0.0,1.09,1170
16:59:26.013,-0.51,1.63,-7.32,18.17,-5.73,-40.85,-0.22,-0.15,0.93,1180
16:59:27.037,1.65,0.39,-8.84,10.85,1.77,-8.29,-0.32,-0.33,1.13,1210
16:59:27.047,1.51,0.13,-8.86,11.89,11.59,5.85,0.24,0.42,1.05,1210
16:59:27.059,1.49,0.15,-8.91,0.12,-14.21,-7.99,0.62,-0.24,0.53,1210
16:59:28.074,3.2,-0.91,-15.75,-37.62,6.52,6.46,0.12,0.78,1.32,1260
16:59:29.094,-0.51,-1.77,-16.08,-15.06,-18.17,4.02,-0.1,-0.36,1.15,1260
16:59:29.104,-0.59,-1.66,-15.99,3.05,-3.29,11.71,0.1,0.22,1.25,1260
16:59:29.116,-0.6,-1.51,-15.91,7.38,15.91,13.05,-0.41,0.08,0.98,1260
16:59:29.126,-0.6,-1.42,-15.82,10.24,-4.33,4.88,0.3,-0.01,0.51,1260
16:59:31.109,0.61,-2.01,-14.77,32.26,-12.5,0.67,0.01,-0.03,0.46,1260
16:59:32.124,-0.11,-1.48,-15.41,37.32,-14.45,4.39,0.2,0.71,0.58,1260
16:59:32.129,-0.55,-0.94,-15.4,-12.56,5.3,-4.02,-0.61,-1.38,0.71,1260
16:59:32.139,-0.53,-0.66,-15.37,26.16,6.83,5.61,0.07,1.01,1.02,1260
16:59:32.151,-0.55,-0.46,-15.36,-44.02,18.17,2.07,-0.06,-0.09,1.74,1260
16:59:33.162,-0.23,-1.17,-16.32,-33.17,25.24,-0.98,-0.61,-0.63,1.59,1260
16:59:34.185,0.79,-2.28,-18.4,-33.84,-9.7,-8.35,0.42,0.4,1.49,1260
16:59:34.196,0.52,-2.32,-18.43,0.91,19.45,0.98,-0.53,-0.74,1.23,1260
16:59:34.207,0.71,-2.41,-18.46,14.45,3.23,1.4,0.31,0.81,1.05,1260
16:59:34.218,0.74,-2.48,-18.5,-18.05,24.15,-4.09,0.12,-0.28,1.24,1260
16:59:37.188,0.12,-2.99,-11.83,-2.87,4.15,-21.46,-0.41,-0.76,0.83,1270
16:59:39.201,-2.4,0.03,-17.71,-0.06,-11.71,1.95,0.31,-0.51,0.72,1270
16:59:41.214,-0.34,1.7,-18.99,-8.23,13.11,-1.59,-0.5,-0.69,1.3,1270
16:59:41.225,-0.56,1.69,-19.0,19.76,-41.95,2.13,0.25,0.24,0.81,1270
16:59:41.238,-0.75,1.84,-19.0,-13.29,1.4,-1.46,-0.19,-0.73,1.34,1270
16:59:42.254,0.04,-1.66,-20.08,39.02,8.29,3.54,-0.22,0.34,1.18,1270
16:59:42.263,0.43,-1.83,-20.11,2.74,32.56,2.5,-0.27,-0.51,1.03,1270
16:59:42.270,0.5,-1.9,-20.13,23.17,-7.32,-0.18,-0.11,-0.18,0.52,1270
16:59:43.284,-1.71,0.65,-18.51,32.87,7.13,18.66,0.32,0.92,1.19,1270
16:59:44.295,-1.19,-0.54,-22.04,15.73,-28.78,-7.26,0.02,-1.03,0.65,1270
16:59:47.321,-1.22,2.3,-18.47,21.65,-27.13,-8.11,0.2,0.62,1.15,1270
16:59:48.354,1.01,-4.6,-23.3,1.04,0.85,4.51,0.81,-0.03,0.86,1270
16:59:49.367,-1.61,1.89,-22.01,-2.68,-8.29,-10.3,0.15,-0.27,1.24,1270
16:59:49.376,-1.54,1.4,-22.09,18.05,21.28,0.55,0.18,0.15,1.36,1270
16:59:49.387,-1.51,0.94,-22.16,6.46,11.89,0.18,-0.24,0.09,1.13,1270
16:59:50.400,0.7,-2.3,-13.3,13.84,-4.82,18.6,-0.42,-0.27,0.9,1270
16:59:51.411,-2.27,-1.35,-26.02,25.49,-27.56,10.98,0.74,-0.24,0.54,1270
16:59:53.437,-0.56,-1.55,-19.72,2.2,-18.48,-6.89,0.31,-0.63,0.65,1270
16:59:54.458,-0.38,-0.53,-13.14,6.83,-23.17,-7.07,0.01,0.03,0.75,1270
16:59:54.471,-0.21,-0.58,-13.18,-29.21,-0.55,-10.91,-0.19,-0.7,1.22,1270
16:59:54.479,0.06,-0.61,-13.22,15.91,-15.79,0.0,0.21,0.38,1.14,1270
16:59:54.490,0.26,-0.54,-13.27,-4.39,17.8,-4.27,-0.7,-0.54,1.07,1270
16:59:56.460,-1.99,0.72,-19.58,19.02,-22.2,-8.11,0.59,0.46,0.84,1270
16:59:57.472,0.34,-1.14,-13.8,5.73,14.45,8.17,-0.26,-0.26,1.06,1270
16:59:58.484,-0.02,-2.96,-21.97,5.18,36.4,13.78,-0.19,0.88,1.1,1270
17:00:00.496,-1.09,-2.18,-14.6,-32.38,2.56,15.06,0.69,0.46,1.58,1270
17:00:01.512,1.53,-4.54,-23.41,13.78,14.82,-1.16,0.48,0.39,1.02,1270
17:00:02.539,-1.49,5.94,-12.85,17.44,-29.33,-28.6,0.04,-0.14,0.89,1270
17:00:02.543,-1.61,6.0,-13.19,4.57,-28.84,-36.59,0.11,-0.17,1.05,1270
17:00:03.570,-6.41,-4.06,-18.4,22.07,1.71,21.77,-0.06,-0.57,1.09,1270
17:00:03.570,-6.53,-4.02,-18.14,16.95,1.83,24.88,0.19,0.68,1.49,1270
17:00:03.576,-6.48,-4.02,-17.88,8.35,20.3,26.52,-0.28,-1.06,1.27,1270
17:00:04.588,-0.64,6.16,-19.44,-10.37,-25.73,-56.16,-0.07,0.33,1.19,1270
17:00:05.609,-2.16,1.71,-18.19,-37.87,9.33,26.83,-0.08,-0.6,1.61,1270
17:00:05.613,-1.95,1.61,-17.85,65.24,-4.63,31.22,0.24,-0.03,0.54,1270
17:00:06.632,0.81,-2.79,-13.98,-0.85,-11.71,-0.61,0.15,0.09,0.92,1270
17:00:06.635,0.83,-2.72,-13.96,-1.59,-37.26,-0.18,0.76,0.09,1.21,1270
17:00:06.645,0.91,-3.03,-13.93,4.7,20.49,8.11,-0.15,-0.17,0.99,1270
17:00:06.658,0.94,-3.08,-13.89,17.62,10.49,4.7,-0.28,0.52,0.65,1270
17:00:07.669,-0.82,-2.42,-1.9,-17.26,-11.28,-30.73,0.12,-0.06,0.68,1270
17:00:08.681,0.67,-1.91,-3.07,-0.49,-8.41,-12.26,-0.21,-0.48,0.74,1270
17:00:08.691,0.64,-2.17,-3.14,-7.93,21.65,-4.51,-0.19,0.13,1.6,1270
17:00:08.702,0.65,-2.34,-3.25,-4.09,24.02,-5.12,-0.15,0.32,1.22,1270
17:00:08.715,0.61,-2.21,-3.36,6.34,-0.61,-4.82,0.62,0.15,0.96,1270
17:00:09.725,-0.76,0.58,-9.77,9.57,-23.05,11.71,0.35,0.06,1.0,1270
17:00:10.738,0.69,-1.23,-19.96,-5.06,21.28,-5.85,0.19,-0.04,0.63,1270
17:00:12.751,-1.01,-1.49,-19.5,-12.5,-7.2,12.07,0.08,-0.01,1.13,1270
17:00:14.766,1.1,-0.61,-25.52,-0.43,-28.23,-29.63,0.26,-0.72,0.25,1270
17:00:15.774,43.47,11.66,-67.63,63.29,-77.13,-21.71,-0.59,0.61,1.67,1000
17:00:15.786,44.11,11.35,-67.51,-29.63,-223.35,27.44,1.25,-0.96,2.04,1000
17:00:15.798,44.73,9.8,-67.34,336.95,-225.24,34.02,1.07,4.03,2.94,1000
17:00:15.809,48.78,7.51,-68.02,137.93,-64.76,-317.99,-5.2,12.11,-10.25,1000
17:00:15.820,51.78,6.48,-69.44,15.79,-532.5,-150.91,3.81,-0.7,2.17,1000
17:00:15.830,53.79,5.27,-71.17,16.34,-72.8,-142.74,2.82,-0.17,0.71,1000
17:00:15.850,55.56,3.15,-72.72,24.27,-2.38,-133.66,-1.04,-1.2,1.63,1000
17:00:15.853,56.69,0.93,-73.93,-31.89,-15.37,-86.46,-0.23,0.18,-0.15,1000
17:00:15.863,57.64,-0.68,-74.37,8.78,115.3,-1.34,-0.76,1.64,2.5,1000
17:00:15.873,54.76,0.1,-74.36,-65.85,96.1,15.3,-0.33,0.22,0.27,1000
17:00:15.885,52.28,1.49,-74.2,-49.27,42.26,22.93,-0.2,-0.1,1.55,1000
17:00:15.895,49.63,2.93,-73.95,-55.3,52.2,27.93,-0.07,-0.05,0.26,1000
17:00:15.907,46.69,4.9,-73.54,-47.2,45.24,44.02,-0.5,0.87,1.38,1000
17:00:15.917,45.29,6.29,-73.17,-52.93,62.56,33.78,-0.14,0.9,0.79,1000
17:00:15.929,43.34,7.05,-72.78,-35.24,-0.79,39.39,-0.14,0.54,0.51,1000
17:00:15.940,40.68,7.0,-72.38,-5.55,-21.34,41.28,0.34,0.39,1.22,1000
17:00:15.951,38.8,6.88,-71.92,12.56,-17.38,36.1,-0.1,0.13,1.14,1000
17:00:15.962,37.4,6.68,-71.54,11.89,-56.1,35.49,-0.11,0.27,1.3,1000
17:00:15.973,36.24,6.46,-71.16,38.84,-49.33,34.63,0.09,-0.03,0.82,1000
17:00:15.983,35.07,5.96,-70.8,46.16,-65.55,34.39,-0.33,0.56,0.86,1000
17:00:15.995,34.36,5.22,-70.42,19.94,-69.94,29.27,0.15,0.72,0.89,1000
17:00:16.006,34.47,3.93,-70.2,-56.65,-17.44,14.33,0.31,0.4,1.37,1000
17:00:16.019,34.52,2.49,-70.16,-29.33,22.74,-3.54,0.73,0.64,0.19,1000
17:00:16.028,34.95,1.07,-70.22,-16.65,37.8,-6.77,0.23,0.58,0.85,1000
17:00:16.039,34.9,0.21,-70.29,-8.23,41.4,-7.13,0.0,0.14,0.92,1000
17:00:16.054,33.82,-0.08,-70.27,-63.17,22.74,2.93,0.49,0.85,0.8,1000
17:00:16.060,32.97,-0.21,-70.19,-39.7,10.12,9.7,0.03,0.38,1.09,1000
17:00:16.072,32.39,-0.26,-70.06,15.24,-5.0,10.43,-0.04,0.32,1.16,1000
17:00:16.082,31.4,-0.13,-69.96,2.62,-12.44,7.56,0.06,0.24,1.01,1000
17:00:16.094,30.12,-0.31,-69.9,5.79,-7.99,3.17,0.16,0.43,0.67,1000
17:00:16.105,29.48,-0.57,-69.86,13.66,-9.39,3.05,-0.02,0.58,1.13,1000
17:00:16.117,29.16,-0.68,-69.84,1.71,-8.54,1.65,0.06,0.51,0.87,1000
17:00:16.127,29.06,-0.87,-69.83,2.68,-1.1,-1.1,0.08,0.47,0.89,1000
17:00:16.138,28.92,-1.02,-69.84,1.28,3.23,-0.55,0.07,0.42,0.94,1000
17:00:16.150,28.69,-1.11,-69.84,-0.49,2.2,-0.43,0.03,0.46,0.85,1000
17:00:16.161,28.49,-1.1,-69.84,0.24,1.46,-0.61,-0.02,0.44,0.92,1000
17:00:16.171,28.28,-0.99,-69.85,0.79,-1.46,-0.06,-0.0,0.49,0.89,1000
17:00:16.183,28.09,-0.91,-69.85,0.18,-2.56,0.12,0.02,0.49,0.9,1000
17:00:16.194,27.94,-0.89,-69.85,-1.52,-0.73,0.06,0.02,0.45,0.92,1000
17:00:16.206,27.76,-0.91,-69.86,-0.06,1.1,-1.22,0.03,0.46,0.92,1000
17:00:16.219,27.64,-0.93,-69.86,0.37,1.65,-0.85,-0.01,0.45,0.93,1000
17:00:16.225,27.49,-0.92,-69.87,-0.73,-0.49,-0.49,0.02,0.43,0.93,1000
17:00:16.237,27.32,-0.94,-69.88,-0.73,-1.4,-0.98,0.04,0.44,0.92,1000
17:00:16.250,27.19,-0.99,-69.88,0.06,-0.06,-0.91,0.01,0.47,0.93,1000
17:00:16.260,27.09,-0.98,-69.89,-0.67,0.67,-0.55,0.02,0.46,0.92,1000
17:00:16.269,27.02,-0.98,-69.89,-0.37,-0.49,-0.61,0.03,0.47,0.93,1000
17:00:16.281,26.96,-0.97,-69.9,-0.49,-0.12,-0.18,0.02,0.47,0.93,1000
17:00:16.291,26.91,-0.96,-69.91,-0.43,0.3,-0.49,0.03,0.46,0.9,1000
17:00:16.303,26.85,-0.95,-69.91,0.06,-0.98,-0.61,0.0,0.48,0.91,1000
17:00:16.321,26.79,-0.95,-69.92,0.3,0.24,-0.79,0.02,0.47,0.93,1000
17:00:16.325,26.73,-0.97,-69.93,-1.1,-0.18,-0.3,0.04,0.45,0.91,1000
17:00:16.336,26.66,-0.99,-69.93,-0.73,-0.43,-0.06,0.03,0.45,0.9,1000
17:00:16.347,26.6,-0.98,-69.93,0.12,-1.1,-0.49,0.01,0.48,0.91,1000
17:00:16.364,26.57,-0.99,-69.94,0.24,-0.49,-0.61,0.03,0.45,0.92,1000
17:00:16.369,26.54,-1.02,-69.95,-0.61,0.98,-0.24,0.01,0.45,0.92,1000
17:00:16.380,26.51,-1.02,-69.95,-0.85,-1.1,-0.49,0.02,0.46,0.92,1000
17:00:16.390,26.48,-0.99,-69.96,0.67,0.06,-0.37,-0.01,0.47,0.91,1000
17:00:16.401,26.47,-0.98,-69.96,0.37,0.18,-0.43,0.03,0.45,0.92,1000
17:00:16.413,26.46,-1.01,-69.97,-0.98,0.85,-0.85,0.02,0.46,0.93,1000
17:00:16.424,26.44,-1.01,-69.98,-0.98,0.06,-0.43,0.01,0.44,0.92,1000
17:00:16.438,26.41,-0.98,-69.98,-0.3,-1.1,-0.37,0.0,0.46,0.92,1000
17:00:16.446,26.4,-0.96,-69.98,0.0,-1.34,-0.73,0.04,0.46,0.92,1000
17:00:16.464,26.4,-0.97,-69.99,-0.37,0.79,-0.43,0.01,0.46,0.94,1000
17:00:16.468,26.38,-0.99,-70.0,-0.06,0.91,-0.67,0.02,0.46,0.92,1000
17:00:16.480,26.36,-0.96,-70.0,0.0,-0.61,-0.49,0.01,0.45,0.93,1000
17:00:16.489,26.34,-0.94,-70.01,0.0,-1.4,-0.37,0.01,0.45,0.91,1000
17:00:16.502,26.34,-0.94,-70.01,-0.85,-1.04,-0.37,0.03,0.47,0.91,1000
17:00:16.513,26.34,-0.94,-70.02,-1.34,-0.12,-0.98,0.02,0.44,0.93,1000
17:00:16.524,26.32,-0.94,-70.02,-0.79,-1.28,-0.55,0.02,0.46,0.91,1000
17:00:16.534,26.32,-0.95,-70.03,-0.79,-0.12,-0.18,0.02,0.48,0.92,1000
17:00:16.546,26.33,-0.98,-70.03,-0.85,-1.34,-0.24,0.05,0.45,0.91,1000
17:00:16.560,26.33,-1.0,-70.04,-0.43,0.61,-0.55,-0.02,0.45,0.93,1000
17:00:16.569,26.32,-1.01,-70.05,-1.71,0.06,-0.37,0.04,0.46,0.91,1000
17:00:16.578,26.32,-1.01,-70.05,0.06,-0.12,-0.61,-0.01,0.45,0.92,1000
17:00:16.589,26.34,-1.03,-70.06,-0.55,1.1,-0.37,-0.01,0.43,0.93,1000
17:00:16.600,26.35,-1.03,-70.06,-0.12,0.0,0.0,0.01,0.45,0.89,1000
17:00:16.612,26.36,-1.03,-70.07,-1.28,-1.52,-1.04,0.04,0.45,0.92,1000
17:00:16.626,26.36,-1.04,-70.07,-0.79,-0.43,-0.43,0.03,0.47,0.93,1000
17:00:16.633,26.35,-1.07,-70.08,-0.49,0.0,-0.49,0.03,0.46,0.94,1000
17:00:16.644,26.35,-1.06,-70.09,0.91,2.2,-0.49,-0.01,0.47,0.92,1000
17:00:16.671,26.35,-1.05,-70.09,-0.55,-0.43,-0.49,0.04,0.46,0.91,1000
17:00:16.671,26.36,-1.04,-70.1,-0.3,-0.12,-0.55,0.01,0.46,0.93,1000
17:00:16.678,26.36,-1.04,-70.11,0.24,0.98,-0.49,0.03,0.47,0.92,1000
17:00:16.688,26.35,-1.06,-70.11,-0.91,-0.24,-0.61,0.03,0.45,0.93,1000
17:00:16.699,26.35,-1.06,-70.12,-0.24,0.73,-0.43,0.02,0.45,0.94,1000
17:00:16.710,26.35,-1.08,-70.12,0.0,-2.07,-0.67,0.02,0.46,0.89,1000
17:00:16.722,26.35,-1.06,-70.13,0.12,0.49,-0.55,0.01,0.45,0.92,1000
17:00:16.732,26.35,-1.06,-70.13,-0.67,-0.61,-0.55,0.03,0.45,0.91,1000
17:00:16.747,26.35,-1.06,-70.14,-0.24,-0.18,-0.61,0.01,0.45,0.92,1000
17:00:16.754,26.34,-1.06,-70.15,0.61,0.67,-0.55,0.02,0.46,0.92,1000
17:00:16.774,26.34,-1.06,-70.15,-0.37,0.0,-0.55,0.01,0.47,0.92,1000
17:00:16.777,26.35,-1.06,-70.16,-0.55,0.24,-1.1,0.01,0.46,0.92,1000
17:00:16.787,26.35,-1.06,-70.17,-0.98,-1.28,-0.73,0.02,0.43,0.91,1000
17:00:16.800,26.34,-1.06,-70.17,0.85,0.0,-0.61,0.02,0.47,0.9,1000
17:00:16.811,26.34,-1.07,-70.18,0.06,-1.4,-0.49,0.03,0.47,0.93,1000
17:00:16.820,26.33,-1.07,-70.18,-1.1,0.37,-0.3,-0.0,0.49,0.93,1000
17:00:16.831,26.32,-1.06,-70.19,-0.79,-0.24,-1.16,0.03,0.48,0.93,1000
17:00:16.844,26.32,-1.07,-70.19,-1.1,-1.16,0.12,0.04,0.45,0.93,1000
17:00:16.853,26.31,-1.09,-70.2,-0.67,0.24,-0.43,0.04,0.45,0.92,1000
17:00:16.867,26.3,-1.11,-70.2,0.3,0.0,-0.55,0.01,0.48,0.93,1000
17:00:16.875,26.28,-1.1,-70.21,-0.43,0.18,-0.67,-0.0,0.49,0.94,1000
17:00:16.886,26.28,-1.09,-70.21,0.0,-0.12,-0.49,0.02,0.47,0.93,1000
17:00:16.897,26.27,-1.1,-70.22,0.12,-0.49,-0.67,0.01,0.46,0.91,1000
17:00:16.908,26.28,-1.1,-70.23,-0.06,-0.12,-0.06,0.01,0.44,0.91,1000
17:00:16.919,26.28,-1.11,-70.23,-0.67,-0.43,-0.3,0.03,0.45,0.9,1000
17:00:16.931,26.29,-1.11,-70.24,0.0,0.12,-0.73,0.04,0.46,0.89,1000
17:00:16.941,26.28,-1.11,-70.24,-0.43,-0.49,-0.61,0.02,0.44,0.94,1000
17:00:16.952,26.29,-1.13,-70.25,-0.49,-0.55,-0.37,0.0,0.43,0.92,1000
17:00:16.963,26.3,-1.13,-70.25,-0.37,-0.37,-0.37,0.05,0.48,0.89,1000
17:00:16.978,26.31,-1.13,-70.26,-0.12,-0.37,-0.73,0.03,0.47,0.92,1000
17:00:16.985,26.32,-1.14,-70.26,0.0,0.55,-0.37,-0.0,0.45,0.92,1000
17:00:16.995,26.33,-1.14,-70.27,-1.22,0.0,-0.49,0.04,0.48,0.92,1000
17:00:17.006,26.34,-1.15,-70.28,-1.1,-0.61,-0.79,0.03,0.46,0.92,1000
17:00:17.021,26.35,-1.14,-70.28,-0.73,0.3,-0.61,0.02,0.44,0.92,1000
17:00:17.028,26.35,-1.14,-70.28,-0.06,-0.55,-0.43,0.02,0.43,0.9,1000
17:00:17.040,26.34,-1.14,-70.29,0.61,0.12,-0.12,0.02,0.49,0.92,1000
17:00:17.051,26.35,-1.15,-70.3,0.06,0.0,-0.73,0.02,0.47,0.91,1000
17:00:17.062,26.34,-1.16,-70.3,-0.24,-0.49,-0.37,-0.01,0.45,0.92,1000
17:00:17.080,26.34,-1.17,-70.31,-0.18,0.61,-0.43,0.03,0.48,0.9,1000
17:00:17.084,26.34,-1.17,-70.31,-0.24,-0.55,-0.79,0.02,0.47,0.92,1000
17:00:17.095,26.34,-1.18,-70.32,0.0,0.49,-0.73,0.01,0.46,0.91,1000
17:00:17.105,26.35,-1.19,-70.32,-0.18,-0.12,-0.24,0.02,0.46,0.91,1000
17:00:17.118,26.35,-1.18,-70.33,-0.37,0.24,-0.49,0.04,0.47,0.91,1000
17:00:17.127,26.36,-1.19,-70.33,-0.37,-0.12,-0.73,0.02,0.45,0.91,1000
17:00:17.141,26.36,-1.19,-70.34,-0.24,-0.24,-0.49,0.02,0.46,0.92,1000
17:00:17.150,26.36,-1.19,-70.34,-0.37,0.0,-0.49,0.03,0.47,0.91,1000
17:00:17.160,26.36,-1.19,-70.35,-0.49,-0.18,-0.55,0.02,0.46,0.92,1000
17:00:17.182,26.37,-1.19,-70.36,-0.43,-0.12,-0.61,0.02,0.45,0.92,1000
17:00:17.183,26.37,-1.19,-70.36,-0.37,-0.55,-0.18,0.02,0.46,0.92,1000
17:00:17.193,26.36,-1.18,-70.37,-0.3,-0.43,-0.61,0.03,0.46,0.92,1000
17:00:17.205,26.36,-1.18,-70.37,-0.3,-0.12,-0.61,0.02,0.46,0.91,1000
17:00:17.217,26.37,-1.18,-70.38,-0.3,-0.43,-0.3,0.02,0.46,0.92,1000
17:00:17.227,26.37,-1.18,-70.39,-0.37,-0.06,-0.61,0.02,0.46,0.92,1000
17:00:17.240,26.37,-1.18,-70.39,-0.3,-0.37,-0.55,0.03,0.46,0.92,1000
17:00:17.249,26.38,-1.18,-70.4,-0.24,0.0,-0.91,0.02,0.46,0.92,1000
17:00:17.259,26.39,-1.18,-70.4,-0.37,-0.18,-0.49,0.02,0.46,0.92,1000
17:00:17.271,26.39,-1.18,-70.41,-0.24,-0.49,-0.43,0.03,0.46,0.92,1000
17:00:17.283,26.39,-1.18,-70.42,-0.24,0.0,-0.43,0.02,0.46,0.92,1000
17:00:17.293,26.39,-1.18,-70.42,-0.37,-0.55,-0.49,0.02,0.46,0.92,1000
17:00:17.303,26.4,-1.19,-70.43,-0.24,-0.06,-0.61,0.02,0.46,0.92,1000
17:00:17.314,26.4,-1.19,-70.43,-0.37,-0.37,-0.61,0.02,0.46,0.92,1000
17:00:17.325,26.4,-1.19,-70.44,-0.24,-0.3,-0.73,0.03,0.46,0.92,1000
17:00:17.336,26.4,-1.19,-70.44,-0.24,-0.37,-0.3,0.02,0.46,0.92,1000
17:00:17.348,26.4,-1.18,-70.45,-0.24,0.0,-0.67,0.03,0.46,0.92,1000
17:00:17.358,26.41,-1.18,-70.46,-0.37,0.0,-0.61,0.02,0.46,0.92,1000
17:00:17.369,26.41,-1.18,-70.46,-0.37,-0.43,-0.61,0.03,0.46,0.92,1000
17:00:17.387,26.41,-1.18,-70.47,-0.24,0.06,-0.49,0.02,0.46,0.92,1000
17:00:17.391,26.41,-1.18,-70.47,-0.24,-0.3,-0.55,0.02,0.46,0.92,1000
17:00:17.402,26.41,-1.18,-70.48,-0.06,-0.12,-0.67,0.02,0.46,0.92,1000
17:00:17.414,26.41,-1.19,-70.48,-0.24,-0.24,-0.55,0.02,0.46,0.92,1000
17:00:17.425,26.41,-1.19,-70.49,-0.12,-0.24,-0.61,0.03,0.46,0.92,1000
17:00:17.435,26.41,-1.19,-70.5,-0.37,-0.18,-0.61,0.02,0.46,0.92,1000
17:00:17.448,26.42,-1.19,-70.5,-0.3,-0.24,-0.61,0.02,0.46,0.92,1000
17:00:17.458,26.42,-1.19,-70.51,-0.37,-0.18,-0.43,0.02,0.46,0.92,1000
17:00:17.469,26.42,-1.2,-70.52,-0.3,-0.18,-0.55,0.02,0.46,0.92,1000
17:00:17.487,26.42,-1.2,-70.52,-0.37,-0.3,-0.49,0.02,0.46,0.92,1000
17:00:17.492,26.42,-1.2,-70.53,-0.24,-0.18,-0.43,0.02,0.46,0.92,1000
17:00:17.503,26.42,-1.2,-70.53,-0.18,-0.12,-0.49,0.02,0.46,0.92,1000
17:00:17.513,26.43,-1.21,-70.54,-0.3,-0.18,-0.55,0.02,0.46,0.92,1000
17:00:17.526,26.43,-1.21,-70.54,-0.37,-0.18,-0.55,0.02,0.46,0.92,1000
17:00:17.535,26.43,-1.21,-70.55,-0.3,-0.18,-0.61,0.02,0.46,0.92,1000
17:00:17.546,26.43,-1.21,-70.56,-0.3,-0.18,-0.55,0.02,0.46,0.92,1000
17:00:17.557,26.43,-1.2,-70.56,-0.37,-0.18,-0.43,0.02,0.46,0.92,1000
17:00:17.571,26.43,-1.2,-70.57,-0.37,-0.12,-0.49,0.02,0.46,0.92,1000
17:00:17.582,26.43,-1.2,-70.57,-0.24,-0.18,-0.49,0.02,0.46,0.92,1000
17:00:17.590,26.42,-1.2,-70.58,-0.43,-0.18,-0.61,0.02,0.46,0.92,1000
17:00:17.601,26.42,-1.21,-70.58,-0.37,-0.37,-0.61,0.02,0.46,0.92,1000
17:00:17.612,26.42,-1.21,-70.59,-0.24,-0.18,-0.55,0.02,0.46,0.92,1000
17:00:17.623,26.42,-1.21,-70.6,-0.24,-0.12,-0.43,0.02,0.46,0.92,1000
17:00:17.634,26.43,-1.21,-70.6,-0.24,-0.18,-0.73,0.02,0.46,0.92,1000
17:00:17.644,26.43,-1.21,-70.61,-0.3,-0.18,-0.43,0.02,0.46,0.92,1000
17:00:17.655,26.42,-1.21,-70.61,-0.3,-0.24,-0.55,0.02,0.46,0.92,1000
17:00:17.667,26.43,-1.21,-70.62,-0.18,-0.06,-0.55,0.02,0.46,0.92,1000
17:00:17.678,26.43,-1.21,-70.62,-0.24,-0.12,-0.49,0.02,0.46,0.92,1000
17:00:17.693,26.43,-1.21,-70.63,-0.24,-0.24,-0.43,0.02,0.46,0.92,1000
17:00:17.700,26.43,-1.21,-70.64,-0.3,-0.18,-0.43,0.02,0.46,0.92,1000
17:00:17.710,26.43,-1.21,-70.64,-0.37,-0.24,-0.55,0.02,0.46,0.92,1000
17:00:17.724,26.43,-1.21,-70.65,-0.37,-0.18,-0.49,0.02,0.46,0.92,1000
17:00:17.733,26.43,-1.21,-70.65,-0.3,-0.3,-0.49,0.02,0.46,0.92,1000
17:00:17.744,26.43,-1.21,-70.66,-0.24,-0.18,-0.61,0.02,0.46,0.92,1000
17:00:17.755,26.43,-1.21,-70.66,-0.3,-0.3,-0.61,0.02,0.46,0.92,1000
17:00:17.768,26.43,-1.21,-70.67,-0.18,-0.12,-0.43,0.02,0.46,0.92,1000
17:00:17.777,26.43,-1.21,-70.68,-0.24,-0.18,-0.49,0.02,0.46,0.92,1000
17:00:17.798,26.43,-1.21,-70.68,-0.43,-0.06,-0.79,0.02,0.46,0.92,1000
17:00:17.801,26.43,-1.21,-70.69,-0.3,-0.12,-0.43,0.02,0.46,0.92,1000
17:00:17.815,26.43,-1.21,-70.69,-0.24,-0.3,-0.55,0.02,0.46,0.92,1000
17:00:17.820,26.44,-1.21,-70.7,-0.3,-0.12,-0.61,0.02,0.46,0.92,1000
17:00:17.832,26.44,-1.21,-70.71,-0.18,-0.24,-0.61,0.02,0.46,0.92,1000
17:00:17.843,26.44,-1.21,-70.71,-0.18,-0.24,-0.43,0.02,0.46,0.92,1000
17:00:17.854,26.44,-1.21,-70.72,-0.37,-0.12,-0.61,0.02,0.46,0.92,1000
17:00:17.865,26.44,-1.21,-70.73,-0.24,-0.06,-0.49,0.02,0.46,0.92,1000
17:00:17.877,26.44,-1.21,-70.73,-0.37,-0.18,-0.49,0.02,0.46,0.92,1000
17:00:17.888,26.44,-1.21,-70.74,-0.37,-0.18,-0.61,0.02,0.46,0.92,1000
17:00:17.899,26.45,-1.21,-70.74,-0.37,-0.18,-0.61,0.02,0.46,0.92,1000
17:00:17.909,26.44,-1.21,-70.75,-0.24,-0.3,-0.55,0.02,0.46,0.92,1000
17:00:17.919,26.44,-1.22,-70.76,-0.37,-0.18,-0.43,0.02,0.46,0.92,1000
17:00:17.930,26.44,-1.22,-70.76,-0.3,-0.3,-0.43,0.02,0.46,0.92,1000
17:00:17.941,26.44,-1.22,-70.77,-0.24,-0.12,-0.55,0.02,0.46,0.92,1000
17:00:17.954,26.44,-1.22,-70.77,-0.37,-0.06,-0.73,0.02,0.46,0.92,1000
17:00:17.963,26.44,-1.22,-70.78,-0.37,-0.18,-0.55,0.02,0.46,0.92,1000
17:00:17.980,26.44,-1.22,-70.79,-0.3,-0.24,-0.55,0.02,0.46,0.92,1000
17:00:17.988,26.44,-1.22,-70.79,-0.24,-0.18,-0.49,0.02,0.46,0.92,1000
17:00:18.003,26.44,-1.22,-70.8,-0.37,-0.18,-0.49,0.02,0.46,0.92,1000
17:00:18.007,26.45,-1.22,-70.8,-0.43,-0.18,-0.24,0.02,0.46,0.92,1000
17:00:18.019,26.45,-1.22,-70.81,-0.24,-0.18,-0.49,0.02,0.46,0.92,1000
17:00:18.030,26.45,-1.23,-70.81,-0.24,-0.18,-0.49,0.02,0.46,0.92,1000
17:00:18.041,26.45,-1.23,-70.82,-0.3,-0.24,-0.49,0.02,0.46,0.92,1000
17:00:18.051,26.46,-1.23,-70.82,-0.3,-0.12,-0.55,0.02,0.46,0.92,1000
17:00:18.062,26.46,-1.23,-70.83,-0.37,-0.3,-0.61,0.02,0.46,0.92,1000
17:00:18.075,26.46,-1.23,-70.84,-0.49,-0.3,-0.61,0.02,0.46,0.92,1000
17:00:18.085,26.46,-1.23,-70.84,-0.37,-0.12,-0.49,0.02,0.46,0.92,1000
17:00:18.098,26.46,-1.23,-70.85,-0.37,-0.18,-0.61,0.02,0.46,0.92,1000
17:00:18.106,26.46,-1.23,-70.85,-0.49,-0.18,-0.55,0.02,0.46,0.92,1000
17:00:18.118,26.46,-1.23,-70.86,-0.37,-0.18,-0.61,0.02,0.46,0.92,1000
17:00:18.129,26.46,-1.23,-70.87,-0.3,-0.12,-0.73,0.02,0.46,0.92,1000
17:00:18.140,26.47,-1.23,-70.87,-0.3,-0.18,-0.55,0.02,0.46,0.92,1000
17:00:18.152,26.47,-1.23,-70.88,-0.24,-0.18,-0.55,0.02,0.46,0.92,1000
17:00:18.165,26.47,-1.23,-70.88,-0.37,-0.12,-0.73,0.03,0.46,0.92,1000
17:00:18.173,26.47,-1.23,-70.89,-0.24,-0.12,-0.49,0.02,0.46,0.92,1000
17:00:18.186,26.47,-1.23,-70.89,-0.3,-0.06,-0.73,0.02,0.46,0.92,1000
17:00:18.196,26.47,-1.23,-70.9,-0.37,-0.18,-0.61,0.02,0.46,0.92,1000
17:00:18.206,26.47,-1.23,-70.91,-0.3,-0.12,-0.43,0.02,0.46,0.92,1000
17:00:18.216,26.47,-1.23,-70.91,-0.3,-0.24,-0.49,0.02,0.46,0.92,1000
17:00:18.228,26.47,-1.23,-70.92,-0.3,-0.24,-0.43,0.02,0.46,0.92,1000
17:00:18.239,26.47,-1.23,-70.92,-0.3,0.0,-0.55,0.02,0.46,0.92,1000
17:00:18.250,26.43,-1.02,-70.92,-5.43,-23.48,4.94,-0.31,0.38,0.78,1000
17:00:18.264,26.52,-0.39,-70.83,-8.84,-35.0,9.15,-0.2,0.96,1.0,1000
17:00:18.272,26.7,-0.22,-70.72,-17.26,2.87,11.1,0.2,0.6,0.9,1000
17:00:18.282,27.22,-0.92,-70.6,-5.73,-0.91,12.32,0.22,0.35,0.69,1000
17:00:18.295,27.05,-1.45,-70.49,-13.6,3.9,7.74,-0.01,0.23,1.23,1000
17:00:18.306,26.46,-1.69,-70.43,-3.29,-1.95,2.44,-0.03,0.32,0.95,1000
17:00:18.316,25.9,-1.8,-70.41,-5.0,-10.0,0.12,0.08,0.46,0.93,1000
17:00:18.331,25.66,-2.13,-70.43,-1.34,2.74,-5.18,0.25,0.53,0.94,1000
17:00:18.338,25.53,-2.56,-70.51,2.2,4.27,-9.7,0.04,0.42,0.9,1000
17:00:18.350,25.25,-2.67,-70.63,11.46,11.04,-13.72,0.13,0.26,0.98,1000
17:00:18.359,24.78,-2.92,-70.81,22.01,17.62,-19.88,0.14,0.31,0.83,1000
17:00:18.371,25.05,-2.95,-71.03,-6.1,-5.55,-17.93,-0.36,0.59,0.69,1000
17:00:18.383,25.62,-2.54,-71.2,2.2,-4.94,-10.73,-0.11,0.7,0.51,1000
17:00:18.392,26.2,-2.08,-71.35,1.46,6.22,-14.15,0.11,0.69,0.79,1000
17:00:18.412,26.62,-2.02,-71.56,-13.41,14.09,-26.59,0.12,0.51,0.97,1000
17:00:18.417,26.71,-2.14,-71.98,-14.63,16.89,-46.04,0.12,0.44,0.88,1000
17:00:18.426,26.77,-2.11,-72.56,-20.24,10.06,-61.4,-0.15,0.59,1.0,1000
17:00:18.436,27.0,-1.8,-73.18,-27.99,22.07,-52.13,0.22,0.81,0.91,1000
17:00:18.448,27.31,-2.19,-73.6,-23.05,46.65,-24.27,0.23,0.24,0.77,1000
17:00:18.459,26.9,-2.33,-73.87,-33.35,58.29,-30.3,0.09,0.31,1.07,1000
17:00:18.473,25.96,-2.05,-74.19,-38.66,57.93,-25.85,0.09,0.45,0.96,1000
17:00:18.481,25.31,-1.48,-74.45,-33.35,48.23,-24.21,-0.24,0.46,0.96,1000
17:00:18.494,24.96,-0.31,-74.75,-32.87,35.12,-26.71,-0.36,0.53,0.83,1000
17:00:18.505,24.87,1.04,-75.02,-35.55,27.13,-27.38,-0.33,0.51,0.8,1000
17:00:18.515,25.15,2.58,-75.28,-29.51,15.0,-18.35,-0.29,0.76,0.59,1000
17:00:18.525,26.16,3.77,-75.43,-5.18,8.48,-7.44,-0.35,0.83,0.65,1000
17:00:18.536,27.54,4.97,-75.52,8.29,1.65,-11.95,-0.52,0.7,0.67,1000
17:00:18.547,29.17,6.72,-75.73,17.32,-12.5,-22.38,-0.29,0.37,0.9,1000
17:00:18.558,29.95,7.94,-75.97,46.77,-4.57,-20.79,-0.06,0.16,0.76,1000
17:00:18.569,30.12,8.46,-76.15,19.94,-47.5,-15.85,-0.12,0.59,1.27,1000
17:00:18.580,29.62,8.04,-76.38,20.98,-43.66,-25.3,-0.07,0.55,0.9,1000
17:00:18.591,29.04,7.49,-76.67,23.9,-50.37,-26.34,-0.0,0.29,0.92,1000
17:00:18.603,28.26,6.7,-76.97,27.44,-58.96,-21.89,-0.04,0.32,0.92,1000
17:00:18.614,27.34,6.04,-77.17,34.09,-56.34,-15.67,-0.11,0.31,0.94,1000
17:00:18.624,27.0,5.37,-77.33,45.18,-62.38,-13.48,-0.06,0.54,0.88,1000
17:00:18.635,26.89,4.46,-77.48,50.06,-63.78,-10.43,0.08,0.39,0.92,1000
17:00:18.646,26.91,3.53,-77.52,66.16,-57.01,9.76,0.02,0.45,1.23,1000
17:00:18.656,26.83,2.63,-77.4,61.83,-59.45,13.48,0.25,0.29,1.14,1000
17:00:18.667,27.0,1.39,-77.24,50.61,-49.7,8.17,0.33,0.56,1.07,1000
17:00:18.678,27.22,-0.3,-77.22,25.79,-17.38,-5.91,0.28,0.47,0.86,1000
17:00:18.690,27.58,-1.61,-77.33,5.79,15.91,-12.5,0.22,0.56,0.75,1000
17:00:18.700,27.84,-2.44,-77.46,-8.48,35.79,-10.73,0.15,0.55,0.92,1000
17:00:18.712,28.17,-2.53,-77.58,-10.49,40.67,-11.22,-0.02,0.67,0.98,1000
17:00:18.723,28.8,-2.38,-77.71,-3.72,33.41,-13.41,-0.02,0.71,0.89,1000
17:00:18.733,29.58,-2.01,-77.87,4.82,25.0,-16.77,-0.02,0.62,0.78,1000
17:00:18.744,30.47,-1.56,-78.04,14.02,18.05,-13.35,-0.07,0.74,0.9,1000
17:00:18.755,31.64,-0.96,-78.2,17.32,1.95,-12.56,-0.04,0.64,0.84,1000
17:00:18.767,33.12,-0.29,-78.37,22.07,-9.82,-13.78,-0.19,0.75,0.6,1000
17:00:18.779,34.5,0.34,-78.48,33.29,-19.02,-8.72,0.06,0.62,0.81,1000
17:00:18.789,35.71,0.63,-78.57,33.72,-13.41,-5.37,-0.07,0.85,0.66,1000
17:00:18.800,36.97,0.86,-78.62,30.18,-18.29,-3.23,-0.11,0.75,0.72,1000
17:00:18.821,38.19,1.08,-78.64,36.52,-17.32,0.85,-0.05,0.6,0.66,1000
17:00:18.822,39.27,1.22,-78.6,44.51,-15.98,7.44,0.14,0.57,0.64,1000
17:00:18.833,40.25,1.33,-78.51,46.71,-15.98,12.8,-0.08,0.79,0.71,1000
17:00:18.843,41.07,1.58,-78.37,32.32,-1.4,17.5,0.02,0.73,0.86,1000
17:00:18.856,41.62,1.84,-78.15,16.65,22.38,24.88,-0.04,0.79,0.71,1000
17:00:18.865,42.02,2.14,-77.85,10.73,41.46,31.59,-0.09,0.64,0.75,1000
17:00:18.876,42.02,2.39,-77.46,-0.55,52.68,42.93,-0.16,0.78,0.73,1000
17:00:18.888,41.87,2.87,-76.89,-7.01,54.09,51.4,-0.16,0.66,0.7,1000
17:00:18.900,41.75,3.42,-76.28,-6.16,59.57,59.7,-0.04,0.49,0.7,1000
17:00:18.912,41.44,3.93,-75.66,-12.5,56.34,63.35,-0.15,0.58,0.79,1000
17:00:18.921,40.94,4.57,-74.87,-10.18,58.11,66.89,0.09,0.48,0.95,1000
17:00:18.931,40.33,5.02,-74.21,-13.23,64.27,64.88,-0.13,0.73,0.92,1000
17:00:18.943,39.63,5.55,-73.46,-14.51,64.21,60.12,0.01,0.54,0.91,1000
17:00:18.953,38.89,5.89,-72.87,-11.83,62.07,57.07,-0.01,0.48,0.99,1000
17:00:18.965,38.12,6.39,-72.18,-13.23,60.37,56.95,-0.04,0.51,0.87,1000
17:00:18.976,37.34,6.82,-71.56,-14.7,61.16,57.13,-0.01,0.39,0.95,1000
17:00:18.987,36.55,7.22,-71.0,-19.33,61.77,55.55,-0.12,0.42,0.76,1000
17:00:18.997,35.9,7.76,-70.38,-24.15,55.12,55.55,-0.14,0.48,0.8,1000
17:00:19.008,35.24,8.38,-69.74,-35.12,65.73,59.88,-0.2,0.46,0.6,1000
17:00:19.020,34.6,9.11,-69.01,-44.51,68.9,62.01,0.07,0.25,0.71,1000
17:00:19.031,33.71,9.55,-68.33,-53.96,70.61,60.67,0.04,0.36,0.93,1000
17:00:19.043,32.53,9.84,-67.72,-62.44,74.09,59.82,0.19,0.21,1.63,1000
17:00:19.052,30.55,9.83,-67.08,-63.29,90.18,53.9,-0.02,0.25,1.2,1000
17:00:19.063,28.54,9.79,-66.52,-64.09,86.22,43.35,-0.05,0.35,1.3,1000
17:00:19.074,26.53,9.58,-66.1,-50.79,87.56,29.76,-0.2,0.43,0.88,1000
17:00:19.087,24.84,9.69,-65.8,-52.2,79.76,19.88,-0.07,0.35,1.17,1000
17:00:19.097,23.42,9.79,-65.65,-50.37,74.63,8.66,-0.23,0.21,0.82,1000
17:00:19.107,22.03,10.19,-65.58,-51.1,66.71,2.13,-0.27,0.36,1.3,1000
17:00:19.118,20.82,10.96,-65.56,-62.56,56.4,0.98,-0.27,0.3,0.98,1000
17:00:19.134,19.48,11.66,-65.57,-79.88,29.51,-2.07,-0.16,0.18,1.17,1000
17:00:19.140,17.98,11.99,-65.6,-83.72,16.46,-6.22,-0.25,0.12,1.15,1000
17:00:19.151,16.38,12.02,-65.68,-71.95,19.63,-9.63,-0.01,0.13,0.65,1000
17:00:19.164,15.09,12.01,-65.83,-42.44,50.18,-14.45,-0.15,0.12,0.78,1000
17:00:19.173,14.1,12.03,-66.0,-26.34,58.35,-21.22,-0.22,0.08,1.0,1000
17:00:19.184,12.86,12.18,-66.27,-39.27,48.23,-32.2,-0.23,0.09,1.33,1000
17:00:19.195,11.7,12.44,-66.7,-79.88,29.45,-47.26,-0.24,0.31,0.79,1000
17:00:19.206,11.44,13.1,-67.23,-75.98,32.74,-46.4,-0.52,0.47,0.71,1000
17:00:19.219,11.97,14.37,-67.68,-37.5,40.61,-33.23,-0.33,0.34,0.31,1000
17:00:19.229,12.26,15.63,-68.0,-27.44,35.67,-25.55,-0.44,0.19,1.18,1000
17:00:19.239,11.93,16.6,-68.24,-47.74,9.15,-19.82,-0.5,0.07,1.46,1000
17:00:19.250,10.94,16.88,-68.48,-78.72,2.2,-24.63,-0.38,0.08,1.32,1000
17:00:19.261,10.07,16.73,-68.78,-84.27,-3.41,-27.87,-0.32,0.37,1.1,1000
17:00:19.272,9.91,16.59,-69.1,-46.65,14.57,-30.91,-0.14,0.44,0.48,1000
17:00:19.285,10.56,16.52,-69.53,-39.57,7.38,-41.52,-0.13,0.21,1.27,1000
17:00:19.294,10.53,16.17,-69.95,-45.98,-3.9,-42.07,-0.5,0.12,1.16,1000
17:00:19.307,9.81,15.77,-70.38,-61.71,-19.7,-34.94,-0.15,0.04,1.11,1000
17:00:19.316,8.87,15.41,-70.7,-51.83,-15.12,-19.94,-0.11,0.05,0.76,1000
17:00:19.332,7.91,15.08,-70.85,-47.01,-17.13,-7.68,-0.25,0.04,0.98,1000
17:00:19.338,6.8,14.59,-70.89,-56.4,-24.94,1.52,-0.26,-0.02,1.34,1000
17:00:19.349,5.32,13.87,-70.82,-80.12,-45.12,12.32,-0.05,-0.21,1.11,1000
17:00:19.360,3.36,12.8,-70.64,-88.54,-47.32,21.89,-0.11,-0.14,1.08,1000
17:00:19.371,1.5,11.68,-70.37,-83.11,-35.73,29.21,-0.01,-0.07,0.83,1000
17:00:19.382,0.11,10.74,-70.01,-61.52,-21.71,35.43,-0.04,-0.02,1.01,1000
17:00:19.394,-0.88,9.68,-69.6,-40.3,-8.41,42.01,-0.08,-0.08,0.98,1000
17:00:19.406,-1.54,8.95,-69.05,-20.3,2.01,52.2,-0.07,-0.09,1.02,1000
17:00:19.416,-2.13,8.53,-68.41,-16.65,5.06,65.61,-0.17,-0.09,0.95,1000
17:00:19.426,-2.64,8.51,-67.69,-18.84,4.7,78.72,-0.26,-0.06,1.07,1000
17:00:19.440,-3.03,8.78,-66.76,-20.79,5.55,91.52,-0.22,-0.02,0.94,1000
17:00:19.449,-3.21,9.12,-65.62,-17.44,11.4,99.7,-0.21,0.06,0.9,1000
17:00:19.460,-2.9,9.62,-64.5,-2.62,27.56,102.44,-0.22,0.08,0.87,1000
17:00:19.471,-2.31,10.14,-63.47,15.0,39.94,103.54,-0.16,0.07,0.86,1000
17:00:19.481,-1.41,10.57,-62.34,32.32,49.57,100.61,-0.08,0.09,0.92,1000
17:00:19.496,-0.49,10.73,-61.27,41.1,54.45,93.11,-0.13,0.07,1.02,1000
17:00:19.503,0.47,10.83,-60.29,46.95,51.4,83.41,-0.18,0.17,1.09,1000
17:00:19.516,1.56,11.01,-59.43,45.49,46.04,70.49,-0.18,0.21,1.02,1000
17:00:19.527,2.67,11.26,-58.72,43.48,40.49,57.38,-0.21,0.23,1.03,1000
17:00:19.537,3.73,11.55,-58.14,46.28,36.83,46.16,-0.25,0.23,0.98,1000
17:00:19.547,4.94,11.93,-57.67,49.7,34.02,38.9,-0.27,0.23,0.94,1000
17:00:19.559,6.32,12.48,-57.23,55.49,30.98,33.48,-0.3,0.23,0.94,1000
17:00:19.569,7.54,13.03,-56.91,59.27,26.77,30.3,-0.29,0.21,0.94,1000
17:00:19.580,8.6,13.55,-56.58,66.89,21.83,29.76,-0.29,0.16,0.96,1000
17:00:19.593,9.44,13.97,-56.24,77.26,14.57,32.56,-0.3,0.12,0.94,1000
17:00:19.603,10.26,14.42,-55.82,89.15,7.13,38.9,-0.33,0.14,0.92,1000
17:00:19.614,10.96,14.9,-55.41,98.84,0.55,43.78,-0.33,0.19,0.88,1000
17:00:19.629,12.36,15.31,-54.86,38.54,-53.54,46.16,-1.03,0.99,1.51,1000
17:00:19.636,13.51,15.51,-54.37,51.16,-64.63,48.05,-0.3,0.3,0.68,1000
17:00:19.646,14.55,15.43,-53.82,36.34,-76.1,50.79,-0.42,0.5,0.71,1000
17:00:19.658,15.37,15.26,-53.16,37.99,-74.76,57.93,-0.39,0.16,0.86,1000
17:00:19.669,16.11,15.08,-52.48,42.93,-81.1,66.89,-0.37,0.47,1.01,1000
17:00:19.679,16.86,14.69,-51.77,40.0,-94.76,75.37,-0.09,0.29,0.55,1000
17:00:19.690,17.74,14.08,-50.92,50.06,-95.24,81.34,-0.31,0.34,0.86,1000
17:00:19.702,18.49,13.46,-49.98,57.74,-105.24,89.02,-0.28,0.32,0.87,1000
17:00:19.714,19.48,12.58,-48.88,63.9,-128.41,95.55,-0.15,0.39,0.93,1000
17:00:19.724,20.5,11.42,-47.9,83.78,-141.46,100.49,-0.13,0.46,0.83,1000
17:00:19.741,21.67,9.84,-46.77,102.2,-154.21,106.71,-0.13,0.3,0.89,1000
17:00:19.746,22.55,7.94,-45.58,111.52,-162.8,110.06,-0.06,0.23,0.82,1000
17:00:19.756,23.79,5.63,-44.59,0.06,47.38,85.0,1.74,-0.31,2.73,1000
17:00:19.768,24.21,3.8,-44.08,-110.67,152.07,51.16,0.17,1.09,0.11,1000
17:00:19.779,25.61,1.81,-43.78,-107.68,52.01,31.89,0.09,-0.21,1.22,1000
17:00:19.790,25.83,-0.06,-43.46,1.52,48.35,28.23,0.52,0.18,0.58,1000
17:00:19.802,26.75,-2.31,-43.18,83.35,-7.99,33.96,0.74,0.25,0.75,1000
17:00:19.817,27.59,-3.24,-42.97,-12.38,-33.96,2.01,0.1,0.92,2.18,1000
17:00:19.823,27.56,-4.75,-42.89,-24.21,11.77,-2.26,-0.39,0.45,0.24,1000
17:00:19.837,27.89,-6.03,-42.86,-2.74,0.55,1.28,0.03,0.7,1.68,1000
17:00:19.844,27.29,-6.12,-42.86,-27.74,-0.3,-4.51,-0.12,0.54,1.01,1000
17:00:19.856,26.88,-6.05,-42.87,0.12,1.04,1.52,-0.24,0.32,0.86,1000
17:00:19.867,26.59,-5.46,-42.84,14.27,-8.84,2.56,-0.12,0.41,0.89,1000
17:00:19.882,26.4,-4.81,-42.84,8.54,0.55,0.18,0.04,0.59,0.96,1000
17:00:19.889,26.41,-4.64,-42.83,-0.12,3.11,-1.1,0.08,0.42,0.97,1000
17:00:19.901,26.36,-4.49,-42.84,1.04,0.55,-1.4,-0.02,0.41,0.94,1000
17:00:19.915,26.28,-4.22,-42.85,1.65,0.37,-0.73,-0.05,0.4,0.92,1000
17:00:19.921,26.24,-4.03,-42.85,0.79,-0.37,-0.49,0.04,0.43,0.92,1000
17:00:19.939,26.18,-3.84,-42.86,0.0,-0.67,-0.73,0.04,0.44,0.93,1000
17:00:19.948,26.16,-3.71,-42.87,-0.12,-0.61,-0.18,0.03,0.43,0.93,1000
17:00:19.955,26.15,-3.59,-42.87,-0.61,-0.79,-0.3,0.04,0.42,0.93,1000
17:00:19.965,26.13,-3.46,-42.88,0.43,0.18,-0.61,0.02,0.42,0.96,1000
17:00:19.976,26.12,-3.36,-42.88,-0.67,-0.67,-0.61,0.02,0.45,0.93,1000
17:00:19.987,26.12,-3.28,-42.89,0.06,-0.18,-0.55,0.02,0.45,0.93,1000
17:00:19.999,26.1,-3.2,-42.89,0.61,-0.49,-0.49,0.03,0.46,0.92,1000
17:00:20.009,26.08,-3.12,-42.9,-0.61,-0.79,-0.61,0.03,0.44,0.92,1000
17:00:20.021,26.06,-3.05,-42.91,-0.24,0.24,-0.61,0.03,0.44,0.92,1000
17:00:20.031,26.03,-2.95,-42.91,-0.06,-0.18,-0.49,0.03,0.44,0.92,1000
17:00:20.043,26.02,-2.91,-42.92,-0.85,-0.61,-0.61,0.03,0.44,0.92,1000
17:00:20.053,26.01,-2.86,-42.92,-0.85,-0.43,-0.61,0.02,0.43,0.94,1000
17:00:20.064,26.01,-2.83,-42.93,-0.24,0.24,-0.67,0.02,0.45,0.93,1000
17:00:20.075,26.0,-2.79,-42.94,-0.24,0.0,-0.37,0.02,0.45,0.92,1000
17:00:20.086,25.98,-2.73,-42.94,-0.12,-0.55,-0.49,0.03,0.44,0.93,1000
17:00:20.097,25.97,-2.68,-42.95,-0.37,-0.18,-0.61,0.03,0.45,0.92,1000
17:00:20.110,25.97,-2.65,-42.96,-0.43,-0.3,-0.49,0.03,0.44,0.92,1000
17:00:20.119,25.96,-2.61,-42.96,-0.12,-0.43,-0.61,0.03,0.44,0.93,1000
17:00:20.133,25.94,-2.55,-42.97,-0.43,-0.12,-0.61,0.03,0.44,0.93,1000
17:00:20.154,25.93,-2.51,-42.97,-0.37,-0.49,-0.37,0.02,0.44,0.92,1000
17:00:20.154,25.92,-2.48,-42.98,0.0,-0.24,-0.61,0.02,0.44,0.93,1000
17:00:20.166,25.91,-2.45,-42.98,-0.49,-0.12,-0.37,0.03,0.44,0.93,1000
17:00:20.174,25.91,-2.42,-42.99,-0.3,-0.3,-0.49,0.03,0.44,0.92,1000
17:00:20.185,25.91,-2.4,-43.0,-0.12,-0.12,-0.37,0.03,0.44,0.93,1000
17:00:20.199,25.91,-2.38,-43.0,-0.43,-0.3,-0.61,0.03,0.44,0.92,1000
17:00:20.214,25.9,-2.36,-43.01,-0.43,-0.49,-0.43,0.02,0.44,0.93,1000
17:00:20.220,25.9,-2.35,-43.01,-0.3,-0.06,-0.61,0.03,0.44,0.93,1000
17:00:20.236,25.9,-2.32,-43.02,-0.3,0.0,-0.55,0.02,0.44,0.92,1000
17:00:20.255,25.89,-2.3,-43.02,-0.3,-0.37,-0.61,0.03,0.44,0.93,1000
17:00:20.255,25.88,-2.27,-43.03,-0.3,0.12,-0.49,0.03,0.44,0.93,1000
17:00:20.265,25.88,-2.25,-43.04,-0.37,-0.3,-0.55,0.02,0.44,0.93,1000
17:00:20.274,25.87,-2.21,-43.04,-0.18,-0.49,-0.55,0.03,0.44,0.93,1000
17:00:20.285,25.86,-2.2,-43.05,-0.49,0.0,-0.55,0.03,0.44,0.93,1000
17:00:20.299,25.86,-2.19,-43.05,-0.24,-0.24,-0.55,0.02,0.44,0.93,1000
17:00:20.313,25.86,-2.18,-43.06,-0.18,-0.24,-0.49,0.03,0.44,0.93,1000
17:00:20.319,25.86,-2.16,-43.07,-0.37,-0.12,-0.61,0.03,0.44,0.93,1000
17:00:20.357,25.86,-2.16,-43.07,-0.37,-0.3,-0.61,0.03,0.44,0.92,1000
17:00:20.357,25.86,-2.15,-43.08,-0.24,-0.18,-0.55,0.03,0.44,0.92,1000
17:00:20.357,25.86,-2.14,-43.08,-0.37,-0.18,-0.49,0.03,0.44,0.92,1000
17:00:20.363,25.86,-2.14,-43.09,-0.3,-0.37,-0.55,0.03,0.44,0.92,1000
17:00:20.373,25.86,-2.12,-43.1,-0.3,0.0,-0.43,0.03,0.44,0.93,1000
17:00:20.384,25.84,-2.1,-43.1,-0.37,-0.12,-0.37,0.03,0.44,0.93,1000
17:00:20.395,25.83,-2.08,-43.11,-0.3,-0.12,-0.61,0.03,0.44,0.92,1000
17:00:20.405,25.83,-2.06,-43.11,-0.37,-0.12,-0.43,0.03,0.44,0.92,1000
17:00:20.417,25.83,-2.06,-43.12,-0.24,-0.3,-0.73,0.03,0.44,0.93,1000
17:00:20.428,25.83,-2.06,-43.12,-0.24,-0.37,-0.61,0.03,0.44,0.92,1000
17:00:20.440,25.83,-2.06,-43.13,-0.37,-0.06,-0.49,0.03,0.44,0.92,1000
17:00:20.451,25.82,-2.05,-43.14,-0.3,-0.12,-0.73,0.03,0.44,0.93,1000
17:00:20.461,25.82,-2.05,-43.14,-0.3,-0.24,-0.49,0.03,0.44,0.93,1000
17:00:20.473,25.81,-2.04,-43.15,-0.37,-0.06,-0.55,0.02,0.44,0.93,1000
17:00:20.482,25.8,-2.02,-43.15,-0.24,-0.24,-0.43,0.03,0.44,0.92,1000
17:00:20.496,25.79,-2.01,-43.16,-0.37,-0.3,-0.55,0.03,0.44,0.93,1000
17:00:20.506,25.79,-2.01,-43.17,-0.18,-0.24,-0.73,0.03,0.44,0.93,1000
17:00:20.515,25.78,-2.0,-43.17,-0.24,-0.18,-0.55,0.03,0.44,0.92,1000
17:00:20.526,25.78,-1.99,-43.18,-0.61,-2.44,-0.24,0.01,0.44,0.9,1000
17:00:20.540,25.79,-2.0,-43.18,-3.17,-0.43,0.0,0.02,0.48,0.96,1000
17:00:20.553,25.8,-1.99,-43.18,-1.59,-0.3,-0.12,0.03,0.43,0.92,1000
17:00:20.560,25.8,-1.98,-43.18,-2.56,-0.43,0.0,0.02,0.44,0.94,1000
17:00:20.570,25.77,-1.97,-43.18,-0.12,-0.43,-0.43,0.04,0.43,0.92,1000
17:00:20.581,25.73,-2.0,-43.19,0.67,0.06,-0.3,0.04,0.45,0.94,1000
17:00:20.597,25.72,-2.01,-43.19,0.18,0.24,-0.49,0.02,0.45,0.93,1000
17:00:20.603,25.72,-2.0,-43.2,-0.49,-1.59,-0.55,0.03,0.44,0.92,1000
17:00:20.617,25.71,-2.02,-43.2,0.12,-0.3,-0.67,0.03,0.45,0.95,1000
17:00:20.626,25.71,-2.03,-43.21,-0.67,-0.49,-0.73,0.02,0.44,0.93,1000
17:00:20.636,25.7,-2.01,-43.21,-0.12,-0.43,-0.49,0.03,0.44,0.92,1000
17:00:20.648,25.7,-2.01,-43.22,-0.06,0.24,-0.55,0.03,0.44,0.93,1000
17:00:20.661,25.69,-2.01,-43.23,-0.06,-0.3,-0.61,0.02,0.44,0.93,1000
17:00:20.670,25.69,-2.0,-43.23,-0.24,-0.67,-0.43,0.03,0.44,0.93,1000
17:00:20.681,25.69,-2.0,-43.24,0.06,0.85,-0.91,0.03,0.44,0.93,1000
17:00:20.691,25.69,-1.98,-43.24,0.43,2.38,-0.73,0.03,0.45,0.92,1000
17:00:20.704,25.69,-1.95,-43.25,0.37,2.62,-0.73,0.03,0.44,0.93,1000
17:00:20.714,25.7,-1.94,-43.26,-0.18,-0.73,-0.61,0.02,0.44,0.91,1000
17:00:20.725,25.71,-1.92,-43.27,-0.24,-0.85,-0.43,0.02,0.44,0.92,1000
17:00:20.738,25.72,-1.91,-43.27,-0.67,-0.06,-0.55,0.02,0.44,0.93,1000
17:00:20.747,25.72,-1.89,-43.28,-0.3,-0.49,-0.73,0.02,0.44,0.92,1000
17:00:20.758,25.72,-1.89,-43.28,-0.18,-0.24,-0.61,0.03,0.44,0.92,1000
17:00:20.782,25.71,-1.89,-43.29,-0.37,-1.28,-0.49,0.01,0.44,0.93,1000
17:00:20.783,25.71,-1.88,-43.3,-0.37,0.18,-0.61,0.02,0.44,0.93,1000
17:00:20.803,25.71,-1.87,-43.3,-0.3,-0.37,-0.73,0.02,0.44,0.92,1000
17:00:20.803,25.7,-1.87,-43.31,-0.12,0.3,-0.37,0.03,0.44,0.92,1000
17:00:20.812,25.69,-1.86,-43.31,-0.06,0.0,-0.49,0.03,0.44,0.93,1000
17:00:20.824,25.69,-1.85,-43.32,-0.37,-0.43,-0.61,0.03,0.44,0.92,1000
17:00:20.834,25.68,-1.84,-43.32,-0.24,-0.55,-0.49,0.03,0.44,0.91,1000
17:00:20.847,25.68,-1.84,-43.33,-0.18,-0.12,-0.61,0.03,0.44,0.92,1000
17:00:20.858,25.68,-1.84,-43.34,-0.49,-0.37,-0.61,0.03,0.44,0.93,1000
17:00:20.868,25.67,-1.83,-43.34,-0.18,-0.12,-0.55,0.03,0.44,0.93,1000
17:00:20.879,25.67,-1.84,-43.35,0.06,-0.24,-0.61,0.02,0.44,0.93,1000
17:00:20.889,25.67,-1.83,-43.35,-0.06,-0.43,-0.61,0.03,0.44,0.93,1000
17:00:20.900,25.67,-1.83,-43.36,-0.3,-0.18,-0.49,0.03,0.45,0.93,1000
17:00:20.911,25.67,-1.82,-43.37,-0.37,-0.24,-0.49,0.03,0.44,0.93,1000
17:00:20.925,25.67,-1.82,-43.37,-0.06,-0.06,-0.73,0.03,0.44,0.92,1000
17:00:20.934,25.67,-1.81,-43.38,-0.37,-0.12,-0.79,0.03,0.44,0.92,1000
17:00:20.944,25.67,-1.81,-43.38,-0.37,-0.24,-0.37,0.03,0.44,0.93,1000
17:00:20.969,25.66,-1.8,-43.39,-0.18,-0.18,-0.43,0.02,0.44,0.93,1000
17:00:20.969,25.67,-1.81,-43.4,-0.37,-0.3,-0.43,0.03,0.44,0.93,1000
17:00:20.978,25.66,-1.8,-43.4,-0.37,-0.18,-0.61,0.02,0.44,0.93,1000
17:00:20.990,25.66,-1.8,-43.41,-0.12,-0.12,-0.49,0.03,0.44,0.93,1000
17:00:20.999,25.66,-1.79,-43.41,-0.06,-0.18,-0.49,0.02,0.44,0.92,1000
17:00:21.011,25.66,-1.78,-43.42,-0.06,0.18,-0.67,0.03,0.44,0.92,1000
17:00:21.021,25.66,-1.77,-43.42,-0.18,-0.06,-0.55,0.03,0.44,0.93,1000
17:00:21.033,25.65,-1.77,-43.43,0.85,0.85,-0.73,0.02,0.45,0.95,1000
17:00:21.043,25.65,-1.75,-43.44,0.49,0.3,-0.55,0.03,0.45,0.93,1000
17:00:21.055,25.65,-1.75,-43.44,-0.3,-0.18,-0.61,0.03,0.44,0.92,1000
17:00:21.071,25.64,-1.74,-43.45,-0.49,-0.24,-0.61,0.03,0.44,0.93,1000
17:00:21.077,25.65,-1.74,-43.45,0.67,-1.34,-0.3,0.03,0.44,0.96,1000
17:00:21.087,25.65,-1.74,-43.46,-0.43,-0.61,-0.79,0.03,0.44,0.92,1000
17:00:21.098,25.65,-1.74,-43.47,-0.37,-0.43,-0.79,0.03,0.44,0.93,1000
