Timestamp,Roll,Pitch,Yaw,Gyro_X,Gyro_Y,Gyro_Z,Accel_X,Accel_Y,Accel_Z,Throttle
17:19:42.311,-3.73,-4.1,-176.11,-1.04,-0.67,-0.61,0.07,-0.06,1.02,1000
17:19:42.324,-3.72,-4.08,-176.12,0.0,-0.55,-0.67,0.07,-0.07,1.03,1000
17:19:42.335,-3.71,-4.06,-176.12,-0.06,-0.85,-1.04,0.07,-0.06,1.04,1000
17:19:42.344,-3.69,-4.05,-176.13,-0.06,-0.61,-0.43,0.08,-0.07,1.02,1000
17:19:42.355,-3.67,-4.11,-176.13,-0.12,-0.37,-0.24,0.08,-0.06,1.02,1000
17:19:42.368,-3.64,-4.15,-176.14,-0.67,-0.18,-0.49,0.07,-0.06,1.02,1000
17:19:42.379,-3.6,-4.16,-176.15,-0.3,-0.12,-0.79,0.07,-0.06,1.03,1000
17:19:42.390,-3.58,-4.16,-176.15,-0.79,-0.37,-0.43,0.08,-0.07,1.03,1000
17:19:42.399,-3.62,-4.16,-176.16,-0.73,0.18,-0.24,0.08,-0.07,1.03,1000
17:19:42.410,-3.67,-4.16,-176.16,-0.3,0.06,-0.37,0.07,-0.07,1.02,1000
17:19:42.421,-3.71,-4.14,-176.16,-0.12,-0.18,-0.79,0.07,-0.07,1.03,1000
17:19:42.433,-3.73,-4.08,-176.17,0.12,-0.67,-0.85,0.07,-0.06,1.03,1000
17:19:42.443,-3.72,-4.06,-176.18,0.06,-0.79,-0.67,0.08,-0.07,1.02,1000
17:19:42.454,-3.71,-4.08,-176.18,0.12,-0.43,-0.37,0.07,-0.06,1.03,1000
17:19:42.468,-3.69,-4.09,-176.19,-0.06,-0.18,-0.49,0.08,-0.06,1.03,1000
17:19:42.490,-3.62,-4.12,-176.19,-0.49,-0.18,-0.73,0.07,-0.06,1.02,1000
17:19:42.490,-3.58,-4.13,-176.2,-0.91,-0.12,-0.85,0.08,-0.07,1.02,1000
17:19:42.498,-3.59,-4.15,-176.21,-0.67,0.3,-0.24,0.08,-0.07,1.02,1000
17:19:42.509,-3.62,-4.16,-176.21,-0.67,0.06,-0.18,0.07,-0.07,1.02,1000
17:19:42.520,-3.68,-4.14,-176.21,-0.37,0.06,-0.3,0.07,-0.07,1.03,1000
17:19:42.531,-3.7,-4.08,-176.21,-0.3,-0.55,-0.91,0.07,-0.07,1.02,1000
17:19:42.545,-3.72,-4.05,-176.22,0.0,-0.55,-0.91,0.07,-0.07,1.03,1000
17:19:42.553,-3.74,-4.03,-176.23,0.0,-0.43,-0.49,0.08,-0.07,1.03,1000
17:19:42.564,-3.74,-4.04,-176.23,-0.06,-0.61,-0.3,0.08,-0.06,1.02,1000
17:19:42.575,-3.69,-4.06,-176.24,-0.3,-0.49,-0.61,0.08,-0.06,1.03,1000
17:19:42.591,-3.65,-4.09,-176.25,-0.37,-0.12,-0.55,0.08,-0.06,1.02,1000
17:19:42.597,-3.61,-4.14,-176.26,-0.37,0.0,-0.24,0.08,-0.06,1.03,1000
17:19:42.608,-3.61,-4.16,-176.26,-0.79,0.24,-0.18,0.07,-0.07,1.03,1000
17:19:42.620,-3.62,-4.15,-176.26,-0.55,-0.12,-0.37,0.07,-0.06,1.02,1000
17:19:42.631,-3.63,-4.14,-176.26,-0.49,-0.18,-0.43,0.07,-0.07,1.03,1000
17:19:42.643,-3.67,-4.11,-176.27,-0.24,-0.18,-0.73,0.07,-0.07,1.03,1000
17:19:42.652,-3.71,-4.09,-176.28,0.06,-0.49,-0.49,0.07,-0.07,1.02,1000
17:19:42.663,-3.72,-4.08,-176.28,0.18,-0.43,-0.55,0.07,-0.06,1.02,1000
17:19:42.674,-3.71,-4.07,-176.29,-0.06,-0.37,-0.55,0.07,-0.06,1.02,1000
17:19:42.685,-3.67,-4.08,-176.3,0.0,0.06,-0.3,0.07,-0.06,1.05,1000
17:19:42.696,-3.61,-4.07,-176.3,-0.55,-0.3,-0.43,0.07,-0.06,1.02,1000
17:19:42.707,-3.58,-4.08,-176.31,-0.61,-0.73,-0.37,0.08,-0.06,1.01,1000
17:19:42.718,-3.57,-4.12,-176.31,-0.73,-0.85,-0.37,0.08,-0.07,1.04,1000
17:19:42.729,-3.62,-4.22,-176.32,-0.37,0.18,-0.55,0.09,-0.07,1.02,1000
17:19:42.741,-3.65,-4.31,-176.32,0.06,0.73,-0.67,0.07,-0.06,1.03,1000
17:19:42.751,-3.65,-4.27,-176.33,-0.79,0.37,-0.61,0.06,-0.06,1.03,1000
17:19:42.762,-3.61,-4.15,-176.34,-0.79,-0.37,-0.61,0.06,-0.06,1.02,1000
17:19:42.774,-3.6,-4.06,-176.34,-0.79,-0.79,-0.12,0.07,-0.08,1.02,1000
17:19:42.785,-3.67,-4.02,-176.34,-0.3,-0.12,-0.12,0.08,-0.07,1.04,1000
17:19:42.797,-3.71,-4.06,-176.34,0.43,0.06,-0.61,0.07,-0.06,1.02,1000
17:19:42.807,-3.71,-4.07,-176.35,0.18,-0.73,-1.16,0.06,-0.06,1.03,1000
17:19:42.817,-3.68,-4.04,-176.36,-0.18,-0.98,-1.04,0.07,-0.06,1.03,1000
17:19:42.828,-3.62,-4.07,-176.37,-0.67,-1.16,-0.37,0.09,-0.07,1.02,1000
17:19:42.839,-3.62,-4.17,-176.37,-0.67,0.12,0.0,0.08,-0.07,1.02,1000
17:19:42.850,-3.62,-4.26,-176.37,-0.61,0.73,-0.73,0.08,-0.06,1.02,1000
17:19:42.861,-3.59,-4.28,-176.38,-0.91,0.49,-1.1,0.06,-0.06,1.03,1000
17:19:42.872,-3.6,-4.2,-176.39,-0.91,0.3,-0.61,0.06,-0.07,1.03,1000
17:19:42.889,-3.63,-4.11,-176.39,-0.67,-0.37,0.12,0.07,-0.07,1.02,1000
17:19:42.901,-3.68,-4.04,-176.39,-0.06,-0.61,0.12,0.07,-0.08,1.03,1000
17:19:42.905,-3.72,-4.0,-176.4,0.49,-0.61,-0.85,0.08,-0.07,1.03,1000
17:19:42.918,-3.72,-4.01,-176.41,0.55,-1.04,-1.28,0.08,-0.06,1.02,1000
17:19:42.927,-3.7,-4.04,-176.42,0.24,-0.91,-1.16,0.08,-0.06,1.02,1000
17:19:42.938,-3.65,-4.08,-176.43,-0.3,-0.18,-0.37,0.08,-0.05,1.02,1000
17:19:42.949,-3.58,-4.14,-176.43,-0.73,0.12,-0.06,0.08,-0.06,1.02,1000
17:19:42.960,-3.53,-4.18,-176.43,-1.22,0.55,-0.3,0.07,-0.06,1.03,1000
17:19:42.972,-3.54,-4.19,-176.43,-1.16,0.67,-0.85,0.08,-0.07,1.02,1000
17:19:42.983,-3.59,-4.19,-176.44,-0.79,0.3,-0.55,0.07,-0.08,1.03,1000
17:19:42.993,-3.7,-4.11,-176.44,-0.37,0.0,-0.24,0.06,-0.07,1.03,1000
17:19:43.004,-3.76,-4.04,-176.45,0.0,-0.73,-0.43,0.07,-0.07,1.02,1000
17:19:43.015,-3.78,-3.99,-176.45,0.49,-1.16,-0.85,0.07,-0.07,1.03,1000
17:19:43.026,-3.78,-3.99,-176.46,0.67,-1.04,-0.98,0.08,-0.07,1.02,1000
17:19:43.037,-3.74,-4.04,-176.47,0.18,-0.67,-0.55,0.08,-0.06,1.02,1000
17:19:43.049,-3.68,-4.11,-176.48,-0.43,-0.24,-0.3,0.08,-0.06,1.02,1000
17:19:43.060,-3.63,-4.16,-176.48,-0.79,0.24,-0.24,0.08,-0.06,1.02,1000
17:19:43.070,-3.57,-4.21,-176.48,-1.16,0.49,-0.43,0.08,-0.06,1.03,1000
17:19:43.084,-3.57,-4.22,-176.48,-0.98,0.49,-0.37,0.07,-0.07,1.03,1000
17:19:43.103,-3.61,-4.17,-176.49,-0.73,0.3,-0.67,0.07,-0.07,1.02,1000
17:19:43.104,-3.66,-4.1,-176.49,-0.3,-0.24,-0.37,0.06,-0.07,1.03,1000
17:19:43.114,-3.72,-4.01,-176.5,0.06,-0.79,-0.55,0.07,-0.07,1.03,1000
17:19:43.125,-3.77,-3.97,-176.5,0.49,-1.04,-0.85,0.08,-0.07,1.03,1000
17:19:43.138,-3.76,-4.0,-176.51,0.67,-0.91,-0.85,0.08,-0.06,1.03,1000
17:19:43.147,-3.72,-4.05,-176.52,0.18,-0.67,-0.67,0.08,-0.06,1.03,1000
17:19:43.159,-3.65,-4.1,-176.53,-0.37,-0.3,-0.43,0.08,-0.06,1.03,1000
17:19:43.170,-3.57,-4.16,-176.53,-0.98,0.24,-0.49,0.08,-0.06,1.03,1000
17:19:43.180,-3.54,-4.19,-176.54,-1.16,0.3,-0.37,0.08,-0.07,1.02,1000
17:19:43.191,-3.55,-4.21,-176.54,-1.16,0.43,-0.61,0.07,-0.07,1.03,1000
17:19:43.202,-3.61,-4.19,-176.55,-0.61,0.3,-0.43,0.07,-0.07,1.03,1000
17:19:43.213,-3.68,-4.13,-176.55,-0.18,-0.24,-0.61,0.06,-0.07,1.03,1000
17:19:43.225,-3.75,-4.05,-176.56,0.3,-0.85,-0.79,0.07,-0.07,1.03,1000
17:19:43.239,-3.76,-4.01,-176.56,0.61,-0.98,-0.55,0.07,-0.07,1.03,1000
17:19:43.247,-3.76,-4.02,-176.57,0.43,-0.85,-0.85,0.08,-0.06,1.02,1000
17:19:43.257,-3.72,-4.06,-176.58,0.06,-0.43,-0.79,0.08,-0.06,1.03,1000
17:19:43.268,-3.65,-4.12,-176.59,-0.37,-0.06,-0.49,0.08,-0.06,1.02,1000
17:19:43.279,-3.58,-4.18,-176.59,-0.98,0.37,-0.61,0.08,-0.06,1.03,1000
17:19:43.290,-3.55,-4.19,-176.59,-1.22,0.3,-0.24,0.08,-0.07,1.03,1000
17:19:43.301,-3.57,-4.19,-176.6,-1.04,0.18,-0.49,0.07,-0.07,1.02,1000
17:19:43.312,-3.62,-4.17,-176.6,-0.61,0.0,-0.3,0.07,-0.07,1.03,1000
17:19:43.323,-3.68,-4.14,-176.6,0.12,-0.43,-0.55,0.07,-0.07,1.03,1000
17:19:43.334,-3.75,-4.09,-176.61,0.3,-0.79,-0.67,0.07,-0.07,1.03,1000
17:19:43.345,-3.76,-4.04,-176.62,0.49,-0.79,-0.55,0.07,-0.06,1.02,1000
17:19:43.356,-3.72,-4.03,-176.63,0.24,-0.55,-0.61,0.07,-0.06,1.02,1000
17:19:43.367,-3.66,-4.04,-176.64,-0.12,-0.3,-0.43,0.08,-0.06,1.03,1000
17:19:43.378,-3.6,-4.07,-176.64,-0.49,-0.12,-0.37,0.08,-0.06,1.02,1000
17:19:43.392,-3.57,-4.13,-176.65,-0.85,-0.06,-0.61,0.08,-0.07,1.02,1000
17:19:43.404,-3.58,-4.17,-176.65,-0.85,0.3,-0.3,0.08,-0.07,1.02,1000
17:19:43.412,-3.61,-4.18,-176.66,-0.61,0.12,-0.3,0.07,-0.07,1.03,1000
17:19:43.425,-3.64,-4.15,-176.66,-0.3,0.0,-0.49,0.07,-0.07,1.02,1000
17:19:43.433,-3.69,-4.08,-176.67,0.06,-0.18,-0.55,0.07,-0.07,1.02,1000
17:19:43.444,-3.74,-4.04,-176.67,0.12,-0.79,-0.55,0.08,-0.07,1.03,1000
17:19:43.455,-3.76,-4.06,-176.68,0.43,-0.85,-0.67,0.08,-0.07,1.02,1000
17:19:43.467,-3.75,-4.13,-176.69,0.18,-0.61,-0.67,0.08,-0.06,1.02,1000
17:19:43.477,-3.7,-4.17,-176.7,-0.18,-0.12,-0.67,0.07,-0.06,1.03,1000
17:19:43.493,-3.64,-4.18,-176.7,-0.61,0.3,-0.3,0.07,-0.06,1.02,1000
17:19:43.504,-3.55,-4.15,-176.7,-1.1,0.24,-0.3,0.07,-0.06,1.02,1000
17:19:43.510,-3.52,-4.11,-176.7,-1.1,0.12,-0.24,0.07,-0.07,1.03,1000
17:19:43.521,-3.54,-4.08,-176.7,-0.79,-0.06,-0.37,0.07,-0.07,1.02,1000
17:19:43.532,-3.62,-4.07,-176.71,-0.24,-0.24,-0.67,0.07,-0.07,1.03,1000
17:19:43.543,-3.7,-4.06,-176.72,0.3,-0.49,-0.73,0.07,-0.07,1.03,1000
17:19:43.554,-3.74,-4.04,-176.73,0.43,-0.67,-0.61,0.07,-0.07,1.02,1000
17:19:43.565,-3.73,-4.02,-176.73,0.18,-0.85,-0.61,0.08,-0.06,1.03,1000
17:19:43.576,-3.69,-4.06,-176.74,-0.06,-0.61,-0.49,0.08,-0.06,1.02,1000
17:19:43.587,-3.66,-4.14,-176.74,-0.37,-0.3,-0.49,0.08,-0.06,1.02,1000
17:19:43.608,-3.63,-4.2,-176.75,-0.49,0.3,-0.37,0.08,-0.06,1.03,1000
17:19:43.609,-3.59,-4.21,-176.76,-0.79,0.43,-0.55,0.07,-0.06,1.02,1000
17:19:43.620,-3.57,-4.17,-176.76,-0.98,0.0,-0.43,0.06,-0.07,1.03,1000
17:19:43.631,-3.6,-4.11,-176.77,-0.61,-0.12,-0.24,0.07,-0.07,1.03,1000
17:19:43.642,-3.64,-4.07,-176.77,-0.3,-0.49,-0.49,0.07,-0.07,1.02,1000
17:19:43.654,-3.7,-4.05,-176.78,0.18,-0.49,-0.73,0.08,-0.07,1.03,1000
17:19:43.664,-3.73,-4.06,-176.78,0.24,-0.61,-0.67,0.07,-0.06,1.02,1000
17:19:43.675,-3.72,-4.08,-176.79,0.3,-0.55,-0.79,0.07,-0.06,1.03,1000
17:19:43.688,-3.68,-4.1,-176.8,-0.37,-0.24,-0.55,0.07,-0.06,1.03,1000
17:19:43.697,-3.63,-4.11,-176.81,-0.67,-0.18,-0.49,0.08,-0.06,1.02,1000
17:19:43.710,-3.59,-4.13,-176.81,-0.79,0.0,-0.43,0.07,-0.06,1.02,1000
17:19:43.719,-3.58,-4.14,-176.81,-0.73,0.06,-0.67,0.08,-0.07,1.03,1000
17:19:43.730,-3.59,-4.14,-176.82,-0.49,0.06,-0.43,0.07,-0.07,1.02,1000
17:19:43.741,-3.63,-4.12,-176.82,-0.43,-0.12,-0.49,0.07,-0.07,1.03,1000
17:19:43.752,-3.67,-4.09,-176.83,-0.24,-0.37,-0.49,0.07,-0.07,1.03,1000
17:19:43.764,-3.68,-4.05,-176.84,0.06,-0.73,-0.61,0.07,-0.07,1.03,1000
17:19:43.774,-3.68,-4.04,-176.84,-0.12,-0.73,-0.61,0.08,-0.06,1.03,1000
17:19:43.785,-3.66,-4.06,-176.85,-0.24,-0.55,-0.61,0.08,-0.06,1.02,1000
17:19:43.800,-3.64,-4.11,-176.86,-0.43,-0.3,-0.37,0.08,-0.06,1.02,1000
17:19:43.807,-3.63,-4.17,-176.86,-0.67,0.06,-0.67,0.08,-0.06,1.02,1000
17:19:43.821,-3.62,-4.2,-176.87,-0.61,0.12,-0.73,0.07,-0.07,1.03,1000
17:19:43.829,-3.63,-4.19,-176.87,-0.67,0.06,-0.61,0.07,-0.07,1.03,1000
17:19:43.840,-3.65,-4.16,-176.88,-0.79,-0.18,-0.61,0.07,-0.07,1.02,1000
17:19:43.851,-3.68,-4.11,-176.88,-0.55,-0.43,-0.37,0.07,-0.07,1.03,1000
17:19:43.862,-3.71,-4.08,-176.89,-0.06,-0.49,-0.43,0.07,-0.07,1.03,1000
17:19:43.873,-3.73,-4.08,-176.9,0.06,-0.61,-0.55,0.07,-0.07,1.02,1000
17:19:43.884,-3.73,-4.09,-176.9,0.0,-0.55,-0.67,0.07,-0.06,1.03,1000
17:19:43.895,-3.71,-4.1,-176.91,-0.06,-0.3,-0.55,0.08,-0.07,1.02,1000
17:19:43.906,-3.69,-4.12,-176.92,-0.3,-0.12,-0.43,0.08,-0.06,1.03,1000
17:19:43.917,-3.66,-4.15,-176.92,-0.49,0.06,-0.55,0.08,-0.06,1.03,1000
17:19:43.928,-3.64,-4.16,-176.93,-0.73,-0.12,-0.73,0.07,-0.07,1.02,1000
17:19:43.939,-3.65,-4.16,-176.93,-0.49,0.0,-0.61,0.07,-0.07,1.03,1000
17:19:43.950,-3.67,-4.14,-176.94,-0.49,-0.12,-0.37,0.07,-0.07,1.03,1000
17:19:43.962,-3.69,-4.12,-176.94,-0.18,-0.18,-0.37,0.07,-0.07,1.02,1000
17:19:43.973,-3.69,-4.09,-176.95,0.06,-0.43,-0.61,0.07,-0.07,1.02,1000
17:19:43.983,-3.69,-4.08,-176.96,-0.12,-0.55,-0.61,0.07,-0.07,1.02,1000
17:19:43.994,-3.68,-4.08,-176.96,-0.06,-0.37,-0.79,0.08,-0.06,1.02,1000
17:19:44.005,-3.67,-4.11,-176.97,-0.18,-0.24,-0.3,0.08,-0.06,1.03,1000
17:19:44.017,-3.65,-4.14,-176.97,-0.37,-0.12,-0.43,0.08,-0.06,1.02,1000
17:19:44.028,-3.63,-4.15,-176.98,-0.61,-0.06,-0.55,0.08,-0.06,1.03,1000
17:19:44.038,-3.62,-4.14,-176.98,-0.73,0.0,-0.61,0.07,-0.07,1.03,1000
17:19:44.049,-3.64,-4.13,-176.99,-0.67,-0.12,-0.3,0.07,-0.07,1.02,1000
17:19:44.060,-3.67,-4.12,-176.99,-0.06,-0.24,-0.43,0.07,-0.07,1.02,1000
17:19:44.071,-3.69,-4.1,-177.0,-0.12,-0.55,-0.43,0.08,-0.07,1.03,1000
17:19:44.082,-3.7,-4.1,-177.01,0.12,-0.3,-0.61,0.07,-0.07,1.03,1000
17:19:44.093,-3.7,-4.11,-177.01,0.0,-0.49,-0.67,0.08,-0.06,1.03,1000
17:19:44.106,-3.69,-4.12,-177.02,-0.18,-0.18,-0.43,0.07,-0.06,1.02,1000
17:19:44.124,-3.67,-4.12,-177.03,-0.43,-0.24,-0.37,0.07,-0.06,1.03,1000
17:19:44.128,-3.65,-4.14,-177.03,-0.55,-0.12,-0.61,0.08,-0.06,1.03,1000
17:19:44.137,-3.64,-4.15,-177.04,-0.67,-0.12,-0.49,0.08,-0.07,1.02,1000
17:19:44.148,-3.66,-4.15,-177.04,-0.55,-0.12,-0.49,0.07,-0.07,1.03,1000
17:19:44.161,-3.69,-4.14,-177.05,-0.37,-0.24,-0.49,0.07,-0.07,1.02,1000
17:19:44.170,-3.7,-4.11,-177.05,-0.24,-0.3,-0.55,0.07,-0.06,1.03,1000
17:19:44.181,-3.7,-4.09,-177.06,-0.12,-0.43,-0.55,0.07,-0.07,1.03,1000
17:19:44.194,-3.7,-4.08,-177.07,-0.06,-0.43,-0.43,0.08,-0.06,1.02,1000
17:19:44.203,-3.68,-4.09,-177.07,-0.18,-0.43,-0.49,0.08,-0.06,1.03,1000
17:19:44.220,-3.66,-4.12,-177.08,-0.37,-0.3,-0.55,0.08,-0.06,1.02,1000
17:19:44.227,-3.65,-4.13,-177.08,-0.49,-0.18,-0.49,0.07,-0.06,1.03,1000
17:19:44.236,-3.64,-4.14,-177.09,-0.61,-0.18,-0.67,0.07,-0.06,1.03,1000
17:19:44.247,-3.64,-4.14,-177.1,-0.67,-0.18,-0.43,0.07,-0.07,1.02,1000
17:19:44.259,-3.65,-4.12,-177.1,-0.37,-0.06,-0.61,0.07,-0.07,1.03,1000
17:19:44.270,-3.67,-4.11,-177.11,-0.37,-0.3,-0.61,0.08,-0.07,1.02,1000
17:19:44.281,-3.69,-4.09,-177.11,-0.24,-0.3,-0.67,0.07,-0.07,1.03,1000
17:19:44.291,-3.7,-4.09,-177.12,-0.12,-0.49,-0.73,0.07,-0.07,1.03,1000
17:19:44.303,-3.7,-4.09,-177.13,-0.18,-0.37,-0.61,0.07,-0.06,1.03,1000
17:19:44.313,-3.68,-4.1,-177.13,-0.18,-0.24,-0.37,0.08,-0.06,1.03,1000
17:19:44.324,-3.66,-4.1,-177.14,-0.43,-0.24,-0.49,0.08,-0.06,1.03,1000
17:19:44.336,-3.65,-4.13,-177.14,-0.55,-0.18,-0.61,0.08,-0.06,1.03,1000
17:19:44.346,-3.65,-4.14,-177.15,-0.37,-0.06,-0.49,0.07,-0.07,1.03,1000
17:19:44.357,-3.67,-4.14,-177.15,-0.37,-0.24,-0.55,0.07,-0.07,1.03,1000
17:19:44.368,-3.7,-4.13,-177.16,-0.37,-0.18,-0.37,0.07,-0.07,1.03,1000
17:19:44.379,-3.71,-4.12,-177.16,-0.24,-0.37,-0.55,0.07,-0.06,1.03,1000
17:19:44.391,-3.71,-4.1,-177.17,-0.3,-0.37,-0.67,0.07,-0.07,1.03,1000
17:19:44.401,-3.7,-4.1,-177.18,-0.3,-0.49,-0.73,0.08,-0.07,1.03,1000
17:19:44.412,-3.69,-4.11,-177.18,-0.18,-0.37,-0.55,0.07,-0.06,1.02,1000
17:19:44.426,-3.68,-4.12,-177.19,-0.3,-0.3,-0.43,0.08,-0.06,1.03,1000
17:19:44.435,-3.67,-4.14,-177.19,-0.37,-0.18,-0.61,0.07,-0.06,1.03,1000
17:19:44.445,-3.65,-4.14,-177.2,-0.49,-0.18,-0.43,0.07,-0.06,1.03,1000
17:19:44.456,-3.64,-4.14,-177.2,-0.55,0.0,-0.55,0.07,-0.07,1.03,1000
17:19:44.467,-3.65,-4.13,-177.21,-0.49,-0.12,-0.55,0.07,-0.07,1.02,1000
17:19:44.478,-3.67,-4.12,-177.22,-0.43,-0.37,-0.67,0.07,-0.07,1.03,1000
17:19:44.490,-3.69,-4.11,-177.22,-0.12,-0.37,-0.55,0.07,-0.07,1.03,1000
17:19:44.500,-3.7,-4.11,-177.23,-0.06,-0.24,-0.73,0.07,-0.07,1.03,1000
17:19:44.513,-3.69,-4.11,-177.24,-0.12,-0.49,-0.73,0.07,-0.07,1.03,1000
17:19:44.528,-3.68,-4.11,-177.24,-0.18,-0.49,-0.49,0.07,-0.06,1.03,1000
17:19:44.537,-3.67,-4.12,-177.25,-0.43,-0.12,-0.67,0.08,-0.07,1.02,1000
17:19:44.544,-3.65,-4.13,-177.26,-0.49,-0.06,-0.67,0.07,-0.06,1.03,1000
17:19:44.556,-3.64,-4.14,-177.26,-0.49,-0.06,-0.49,0.08,-0.07,1.02,1000
17:19:44.566,-3.65,-4.14,-177.27,-0.3,-0.12,-0.49,0.07,-0.07,1.03,1000
17:19:44.578,-3.66,-4.14,-177.27,-0.43,-0.12,-0.49,0.08,-0.07,1.03,1000
17:19:44.589,-3.67,-4.13,-177.28,-0.24,-0.3,-0.55,0.07,-0.07,1.03,1000
17:19:44.599,-3.69,-4.12,-177.29,-0.18,-0.24,-0.61,0.07,-0.07,1.02,1000
17:19:44.610,-3.69,-4.11,-177.29,0.0,-0.55,-0.55,0.07,-0.06,1.03,1000
17:19:44.621,-3.69,-4.12,-177.3,-0.12,-0.3,-0.67,0.08,-0.06,1.03,1000
17:19:44.632,-3.68,-4.14,-177.3,-0.3,-0.37,-0.55,0.08,-0.06,1.02,1000
17:19:44.643,-3.66,-4.15,-177.31,-0.49,-0.24,-0.61,0.07,-0.06,1.03,1000
17:19:44.654,-3.64,-4.16,-177.32,-0.49,-0.06,-0.49,0.08,-0.06,1.02,1000
17:19:44.665,-3.63,-4.15,-177.32,-0.55,0.0,-0.49,0.07,-0.07,1.02,1000
17:19:44.676,-3.64,-4.14,-177.33,-0.49,-0.18,-0.37,0.08,-0.07,1.03,1000
17:19:44.687,-3.67,-4.13,-177.33,-0.3,-0.18,-0.73,0.07,-0.07,1.02,1000
17:19:44.699,-3.7,-4.12,-177.34,-0.12,-0.49,-0.49,0.07,-0.07,1.03,1000
17:19:44.709,-3.71,-4.11,-177.34,0.06,-0.3,-0.61,0.07,-0.07,1.03,1000
17:19:44.720,-3.71,-4.1,-177.35,-0.12,-0.43,-0.61,0.07,-0.06,1.03,1000
17:19:44.735,-3.69,-4.1,-177.36,-0.18,-0.43,-0.61,0.07,-0.06,1.03,1000
17:19:44.743,-3.67,-4.1,-177.36,-0.3,-0.24,-0.67,0.08,-0.06,1.03,1000
17:19:44.753,-3.65,-4.11,-177.37,-0.49,-0.12,-0.37,0.08,-0.06,1.03,1000
17:19:44.764,-3.64,-4.13,-177.37,-0.43,-0.12,-0.43,0.07,-0.06,1.03,1000
17:19:44.776,-3.64,-4.13,-177.38,-0.37,0.06,-0.3,0.07,-0.06,1.03,1000
17:19:44.786,-3.64,-4.12,-177.38,-0.37,-0.24,-0.43,0.07,-0.07,1.03,1000
17:19:44.798,-3.66,-4.11,-177.39,-0.3,-0.43,-0.37,0.07,-0.07,1.03,1000
17:19:44.808,-3.68,-4.09,-177.4,-0.06,-0.37,-0.43,0.07,-0.07,1.03,1000
17:19:44.819,-3.69,-4.08,-177.4,0.0,-0.55,-0.67,0.07,-0.07,1.03,1000
17:19:44.835,-3.69,-4.08,-177.41,-0.12,-0.37,-0.61,0.07,-0.06,1.03,1000
17:19:44.843,-3.68,-4.09,-177.41,-0.18,-0.3,-0.43,0.07,-0.06,1.03,1000
17:19:44.852,-3.67,-4.1,-177.42,-0.37,-0.18,-0.55,0.07,-0.07,1.03,1000
17:19:44.863,-3.66,-4.11,-177.42,-0.49,-0.12,-0.43,0.08,-0.06,1.02,1000
17:19:44.874,-3.65,-4.12,-177.43,-0.49,-0.18,-0.37,0.07,-0.07,1.03,1000
17:19:44.885,-3.65,-4.13,-177.43,-0.49,-0.24,-0.73,0.07,-0.07,1.03,1000
17:19:44.896,-3.67,-4.12,-177.44,-0.43,-0.18,-0.79,0.07,-0.07,1.03,1000
17:19:44.907,-3.69,-4.12,-177.45,-0.24,-0.24,-0.55,0.07,-0.07,1.03,1000
17:19:44.918,-3.7,-4.11,-177.45,0.0,-0.49,-0.61,0.07,-0.07,1.03,1000
17:19:44.929,-3.7,-4.1,-177.46,-0.18,-0.61,-0.73,0.07,-0.07,1.02,1000
17:19:44.940,-3.69,-4.1,-177.47,-0.24,-0.37,-0.49,0.08,-0.06,1.03,1000
17:19:44.951,-3.68,-4.12,-177.47,-0.3,-0.24,-0.49,0.07,-0.06,1.03,1000
17:19:44.962,-3.66,-4.13,-177.48,-0.3,-0.18,-0.61,0.08,-0.06,1.03,1000
17:19:44.973,-3.64,-4.14,-177.48,-0.43,-0.18,-0.43,0.08,-0.07,1.03,1000
17:19:44.984,-3.64,-4.15,-177.49,-0.37,-0.12,-0.49,0.07,-0.06,1.03,1000
17:19:44.995,-3.64,-4.14,-177.49,-0.37,-0.18,-0.49,0.07,-0.07,1.03,1000
17:19:45.006,-3.65,-4.13,-177.5,-0.3,-0.18,-0.55,0.07,-0.07,1.03,1000
17:19:45.017,-3.66,-4.11,-177.5,-0.18,-0.3,-0.55,0.07,-0.07,1.03,1000
17:19:45.028,-3.67,-4.1,-177.51,-0.3,-0.49,-0.67,0.07,-0.06,1.02,1000
17:19:45.040,-3.68,-4.1,-177.52,-0.12,-0.37,-0.67,0.07,-0.06,1.03,1000
17:19:45.053,-3.66,-4.11,-177.52,-0.12,-0.43,-0.55,0.07,-0.06,1.03,1000
17:19:45.061,-3.65,-4.13,-177.53,-0.12,-0.18,-0.37,0.08,-0.06,1.03,1000
17:19:45.072,-3.63,-4.14,-177.53,-0.24,-0.18,-0.49,0.08,-0.06,1.02,1000
17:19:45.083,-3.62,-4.14,-177.54,-0.49,-0.18,-0.49,0.07,-0.06,1.03,1000
17:19:45.094,-3.62,-4.15,-177.54,-0.18,-0.18,-0.67,0.07,-0.06,1.02,1000
17:19:45.105,-3.62,-4.14,-177.55,-0.49,-0.24,-0.49,0.08,-0.07,1.02,1000
17:19:45.117,-3.64,-4.14,-177.55,-0.3,-0.24,-0.49,0.07,-0.07,1.02,1000
17:19:45.129,-3.65,-4.12,-177.56,-0.18,-0.24,-0.55,0.07,-0.07,1.03,1000
17:19:45.141,-3.67,-4.11,-177.57,-0.18,-0.37,-0.43,0.08,-0.07,1.03,1000
17:19:45.159,-3.68,-4.11,-177.57,-0.06,-0.3,-0.49,0.07,-0.07,1.02,1000
17:19:45.161,-3.68,-4.11,-177.58,-0.12,-0.18,-0.61,0.08,-0.06,1.03,1000
17:19:45.171,-3.67,-4.13,-177.59,-0.3,-0.3,-0.49,0.08,-0.06,1.02,1000
17:19:45.184,-3.65,-4.14,-177.59,-0.37,-0.18,-0.55,0.07,-0.06,1.03,1000
17:19:45.196,-3.64,-4.16,-177.6,-0.43,-0.12,-0.43,0.07,-0.06,1.02,1000
17:19:45.204,-3.63,-4.15,-177.6,-0.3,-0.18,-0.43,0.08,-0.07,1.03,1000
17:19:45.215,-3.64,-4.15,-177.61,-0.43,-0.12,-0.43,0.07,-0.07,1.03,1000
17:19:45.226,-3.65,-4.14,-177.61,-0.18,-0.24,-0.55,0.07,-0.07,1.02,1000
17:19:45.237,-3.67,-4.13,-177.62,-0.3,-0.24,-0.43,0.07,-0.07,1.03,1000
17:19:45.248,-3.68,-4.13,-177.62,-0.24,-0.18,-0.73,0.07,-0.07,1.03,1000
17:19:45.259,-3.68,-4.13,-177.63,-0.24,-0.37,-0.61,0.07,-0.07,1.02,1000
17:19:45.270,-3.68,-4.13,-177.64,-0.24,-0.18,-0.61,0.08,-0.06,1.02,1000
17:19:45.281,-3.66,-4.13,-177.64,-0.37,-0.24,-0.55,0.08,-0.06,1.03,1000
17:19:45.292,-3.64,-4.13,-177.65,-0.43,-0.24,-0.37,0.07,-0.06,1.02,1000
17:19:45.304,-3.63,-4.13,-177.66,-0.37,-0.06,-0.55,0.07,-0.06,1.03,1000
17:19:45.314,-3.62,-4.13,-177.66,-0.37,-0.18,-0.49,0.07,-0.06,1.03,1000
17:19:45.325,-3.63,-4.12,-177.67,-0.37,-0.12,-0.61,0.07,-0.07,1.03,1000
17:19:45.336,-3.64,-4.12,-177.67,-0.12,-0.24,-0.43,0.07,-0.07,1.02,1000
17:19:45.348,-3.64,-4.12,-177.68,-0.12,-0.3,-0.43,0.07,-0.07,1.03,1000
17:19:45.358,-3.65,-4.11,-177.68,-0.18,-0.18,-0.43,0.07,-0.07,1.03,1000
17:19:45.369,-3.65,-4.1,-177.69,-0.3,-0.55,-0.49,0.07,-0.06,1.03,1000
17:19:45.380,-3.66,-4.11,-177.69,-0.3,-0.24,-0.55,0.08,-0.07,1.02,1000
17:19:45.391,-3.66,-4.12,-177.7,-0.3,-0.37,-0.49,0.07,-0.06,1.03,1000
17:19:45.402,-3.64,-4.13,-177.71,-0.3,-0.24,-0.55,0.08,-0.06,1.03,1000
17:19:45.413,-3.63,-4.14,-177.71,-0.3,-0.18,-0.73,0.07,-0.06,1.02,1000
17:19:45.424,-3.63,-4.14,-177.72,-0.3,-0.18,-0.67,0.07,-0.07,1.03,1000
17:19:45.439,-3.64,-4.14,-177.72,-0.43,-0.12,-0.43,0.07,-0.07,1.03,1000
17:19:45.455,-3.65,-4.13,-177.73,-0.24,-0.18,-0.49,0.07,-0.07,1.03,1000
17:19:45.459,-3.66,-4.13,-177.73,-0.24,-0.37,-0.55,0.07,-0.07,1.03,1000
17:19:45.468,-3.68,-4.12,-177.74,-0.37,-0.37,-0.79,0.07,-0.07,1.02,1000
17:19:45.479,-3.69,-4.11,-177.75,-0.37,-0.3,-0.49,0.07,-0.07,1.03,1000
17:19:45.490,-3.69,-4.12,-177.75,-0.18,-0.24,-0.67,0.07,-0.07,1.03,1000
17:19:45.501,-3.67,-4.13,-177.76,-0.37,-0.3,-0.61,0.07,-0.06,1.02,1000
17:19:45.512,-3.66,-4.14,-177.77,-0.49,-0.37,-0.49,0.07,-0.07,1.02,1000
17:19:45.523,-3.66,-4.14,-177.77,-0.49,-0.18,-0.49,0.07,-0.07,1.03,1000
17:19:45.534,-3.66,-4.14,-177.78,-0.3,-0.18,-0.43,0.07,-0.07,1.03,1000
17:19:45.545,-3.66,-4.14,-177.78,-0.49,-0.12,-0.67,0.07,-0.07,1.02,1000
17:19:45.558,-3.67,-4.14,-177.79,-0.3,-0.18,-0.61,0.08,-0.07,1.03,1000
17:19:45.567,-3.67,-4.13,-177.79,-0.3,-0.24,-0.73,0.07,-0.07,1.03,1000
17:19:45.578,-3.68,-4.13,-177.8,-0.18,-0.3,-0.55,0.08,-0.07,1.03,1000
17:19:45.589,-3.69,-4.13,-177.81,0.0,-0.3,-0.55,0.07,-0.07,1.02,1000
17:19:45.600,-3.69,-4.13,-177.81,-0.24,-0.3,-0.67,0.07,-0.06,1.03,1000
17:19:45.613,-3.67,-4.12,-177.82,-0.24,-0.18,-0.43,0.07,-0.06,1.02,1000
17:19:45.624,-3.65,-4.13,-177.82,-0.37,-0.18,-0.55,0.07,-0.06,1.02,1000
17:19:45.634,-3.65,-4.12,-177.83,-0.37,0.0,-0.49,0.07,-0.06,1.03,1000
17:19:45.644,-3.64,-4.12,-177.83,-0.37,-0.06,-0.37,0.07,-0.06,1.03,1000
17:19:45.655,-3.65,-4.11,-177.84,-0.43,-0.12,-0.73,0.07,-0.07,1.03,1000
17:19:45.666,-3.66,-4.11,-177.84,-0.24,-0.37,-0.55,0.07,-0.07,1.02,1000
17:19:45.678,-3.66,-4.1,-177.85,-0.37,-0.3,-0.61,0.07,-0.06,1.02,1000
17:19:45.692,-3.66,-4.1,-177.86,-0.12,-0.37,-0.67,0.07,-0.06,1.03,1000
17:19:45.704,-3.66,-4.1,-177.86,-0.12,-0.24,-0.55,0.08,-0.06,1.02,1000
17:19:45.710,-3.66,-4.1,-177.87,-0.18,-0.37,-0.61,0.08,-0.06,1.02,1000
17:19:45.721,-3.66,-4.11,-177.88,-0.37,-0.06,-0.49,0.07,-0.06,1.02,1000
17:19:45.732,-3.65,-4.12,-177.88,-0.43,-0.3,-0.49,0.08,-0.06,1.02,1000
17:19:45.744,-3.65,-4.13,-177.89,-0.3,-0.18,-0.43,0.07,-0.07,1.02,1000
17:19:45.757,-3.64,-4.14,-177.89,-0.49,-0.12,-0.43,0.08,-0.06,1.02,1000
17:19:45.767,-3.64,-4.14,-177.9,-0.37,-0.3,-0.67,0.07,-0.07,1.03,1000
17:19:45.776,-3.65,-4.13,-177.9,-0.24,-0.18,-0.43,0.07,-0.07,1.03,1000
17:19:45.787,-3.67,-4.12,-177.91,-0.24,-0.18,-0.43,0.08,-0.07,1.02,1000
17:19:45.799,-3.67,-4.12,-177.92,-0.18,-0.24,-0.67,0.08,-0.06,1.02,1000
17:19:45.809,-3.66,-4.13,-177.92,-0.37,-0.3,-0.61,0.07,-0.07,1.03,1000
17:19:45.822,-3.65,-4.13,-177.93,-0.12,-0.12,-0.55,0.07,-0.06,1.03,1000
17:19:45.831,-3.64,-4.14,-177.94,-0.3,-0.18,-0.49,0.07,-0.06,1.02,1000
17:19:45.842,-3.64,-4.14,-177.94,-0.49,-0.18,-0.67,0.07,-0.06,1.03,1000
17:19:45.857,-3.64,-4.13,-177.95,-0.37,-0.24,-0.49,0.08,-0.06,1.02,1000
17:19:45.871,-3.64,-4.14,-177.95,-0.37,-0.18,-0.55,0.07,-0.07,1.03,1000
17:19:45.875,-3.65,-4.14,-177.96,-0.3,-0.18,-0.55,0.07,-0.07,1.02,1000
17:19:45.886,-3.66,-4.13,-177.96,-0.24,-0.3,-0.55,0.07,-0.06,1.03,1000
17:19:45.897,-3.67,-4.12,-177.97,-0.3,-0.43,-0.67,0.07,-0.07,1.03,1000
17:19:45.908,-3.67,-4.11,-177.98,-0.24,-0.3,-0.55,0.07,-0.06,1.02,1000
17:19:45.920,-3.67,-4.1,-177.98,-0.3,-0.24,-0.49,0.07,-0.06,1.03,1000
17:19:45.930,-3.67,-4.1,-177.99,-0.3,-0.3,-0.49,0.07,-0.07,1.03,1000
17:19:45.941,-3.67,-4.1,-177.99,-0.3,-0.24,-0.49,0.07,-0.07,1.03,1000
17:19:45.952,-3.66,-4.12,-178.0,-0.43,-0.3,-0.61,0.07,-0.07,1.03,1000
17:19:45.968,-3.66,-4.12,-178.0,-0.24,-0.18,-0.55,0.07,-0.07,1.02,1000
17:19:45.974,-3.66,-4.13,-178.01,-0.37,-0.18,-0.43,0.08,-0.07,1.02,1000
17:19:46.005,-3.66,-4.14,-178.02,-0.24,-0.24,-0.37,0.08,-0.06,1.03,1000
17:19:46.030,-3.66,-4.14,-178.02,-0.37,-0.18,-0.37,0.07,-0.07,1.03,1000
17:19:46.030,-3.67,-4.14,-178.03,-0.3,-0.24,-0.49,0.07,-0.07,1.03,1000
17:19:46.030,-3.68,-4.13,-178.03,-0.37,-0.12,-0.61,0.07,-0.07,1.02,1000
17:19:46.030,-3.68,-4.11,-178.04,-0.43,-0.18,-0.55,0.07,-0.07,1.03,1000
17:19:46.040,-3.68,-4.1,-178.05,-0.24,-0.43,-0.49,0.08,-0.07,1.03,1000
17:19:46.051,-3.68,-4.1,-178.05,-0.3,-0.37,-0.61,0.08,-0.07,1.03,1000
17:19:46.065,-3.68,-4.11,-178.06,-0.18,-0.37,-0.49,0.08,-0.07,1.02,1000
17:19:46.075,-3.67,-4.12,-178.07,-0.3,-0.49,-0.61,0.08,-0.06,1.03,1000
17:19:46.087,-3.66,-4.14,-178.07,-0.37,-0.24,-0.73,0.07,-0.06,1.03,1000
17:19:46.095,-3.65,-4.14,-178.08,-0.37,-0.24,-0.79,0.07,-0.06,1.03,1000
17:19:46.107,-3.63,-4.14,-178.08,-0.37,-0.18,-0.49,0.07,-0.06,1.03,1000
17:19:46.117,-3.63,-4.13,-178.09,-0.37,-0.18,-0.61,0.08,-0.07,1.02,1000
17:19:46.129,-3.64,-4.11,-178.09,-0.24,-0.06,-0.43,0.07,-0.07,1.03,1000
17:19:46.141,-3.65,-4.11,-178.1,-0.3,-0.18,-0.49,0.07,-0.07,1.03,1000
17:19:46.150,-3.67,-4.1,-178.1,-0.24,-0.37,-0.55,0.07,-0.07,1.03,1000
17:19:46.166,-3.68,-4.11,-178.11,-0.18,-0.37,-0.37,0.08,-0.07,1.03,1000
17:19:46.179,-3.68,-4.12,-178.12,-0.24,-0.37,-0.55,0.07,-0.06,1.02,1000
17:19:46.183,-3.66,-4.14,-178.12,-0.3,-0.24,-0.61,0.07,-0.06,1.03,1000
17:19:46.194,-3.63,-4.15,-178.13,-0.3,-0.18,-0.67,0.07,-0.07,1.03,1000
17:19:46.205,-3.62,-4.16,-178.13,-0.49,-0.24,-0.67,0.08,-0.07,1.03,1000
17:19:46.216,-3.62,-4.18,-178.14,-0.43,-0.18,-0.55,0.07,-0.07,1.03,1000
17:19:46.227,-3.63,-4.18,-178.15,-0.55,-0.18,-0.37,0.07,-0.07,1.03,1000
17:19:46.238,-3.64,-4.16,-178.15,-0.49,-0.18,-0.55,0.07,-0.07,1.03,1000
17:19:46.250,-3.66,-4.13,-178.16,-0.24,-0.18,-0.55,0.07,-0.07,1.03,1000
17:19:46.260,-3.67,-4.1,-178.16,-0.43,-0.37,-0.55,0.07,-0.07,1.03,1000
17:19:46.271,-3.67,-4.08,-178.17,-0.43,-0.43,-0.61,0.07,-0.07,1.03,1000
17:19:46.282,-3.67,-4.06,-178.18,-0.43,-0.49,-0.37,0.07,-0.07,1.01,1000
17:19:46.293,-3.68,-4.04,-178.18,-0.06,-0.18,-0.37,0.07,-0.07,1.04,1000
17:19:46.304,-3.68,-4.05,-178.19,-0.49,-0.49,-0.37,0.07,-0.07,1.03,1000
17:19:46.317,-3.69,-4.07,-178.19,-0.12,-0.3,-0.49,0.08,-0.07,1.01,1000
17:19:46.326,-3.7,-4.1,-178.2,0.0,-0.3,-0.61,0.08,-0.06,1.02,1000
17:19:46.337,-3.68,-4.15,-178.2,-0.3,-0.49,-0.55,0.08,-0.06,1.02,1000
17:19:46.352,-3.64,-4.18,-178.21,0.0,0.0,-0.55,0.08,-0.06,1.03,1000
17:19:46.359,-3.62,-4.19,-178.22,-0.79,-0.12,-0.43,0.07,-0.06,1.03,1000
17:19:46.372,-3.59,-4.18,-178.22,-0.67,0.12,-0.43,0.07,-0.06,1.02,1000
17:19:46.381,-3.6,-4.16,-178.22,-0.85,-0.18,-0.37,0.07,-0.07,1.02,1000
17:19:46.392,-3.63,-4.12,-178.23,-0.49,-0.06,-0.55,0.07,-0.07,1.03,1000
17:19:46.403,-3.68,-4.07,-178.24,-0.12,-0.3,-0.67,0.07,-0.07,1.03,1000
17:19:46.414,-3.73,-4.05,-178.24,-0.12,-0.73,-0.37,0.07,-0.07,1.03,1000
17:19:46.425,-3.76,-4.05,-178.25,0.24,-0.73,-0.43,0.08,-0.07,1.03,1000
17:19:46.436,-3.75,-4.09,-178.25,0.12,-0.67,-0.85,0.08,-0.06,1.02,1000
17:19:46.448,-3.71,-4.14,-178.26,0.0,-0.49,-0.61,0.08,-0.06,1.03,1000
17:19:46.458,-3.67,-4.19,-178.27,-0.3,-0.06,-0.43,0.08,-0.06,1.03,1000
17:19:46.486,-3.61,-4.21,-178.27,-0.73,0.3,-0.55,0.07,-0.06,1.02,1000
17:19:46.486,-3.57,-4.18,-178.28,-1.04,0.3,-0.49,0.07,-0.07,1.03,1000
17:19:46.491,-3.58,-4.13,-178.28,-0.79,0.18,-0.3,0.07,-0.07,1.03,1000
17:19:46.502,-3.63,-4.08,-178.28,-0.49,-0.06,-0.43,0.07,-0.08,1.02,1000
17:19:46.513,-3.71,-4.06,-178.29,0.18,-0.37,-0.55,0.07,-0.07,1.03,1000
17:19:46.524,-3.76,-4.06,-178.3,0.37,-0.67,-0.91,0.07,-0.07,1.02,1000
17:19:46.535,-3.77,-4.07,-178.3,0.37,-0.73,-0.73,0.08,-0.07,1.02,1000
17:19:46.546,-3.75,-4.1,-178.31,0.18,-0.67,-0.55,0.08,-0.06,1.02,1000
17:19:46.557,-3.69,-4.14,-178.32,-0.3,-0.3,-0.61,0.08,-0.06,1.02,1000
17:19:46.581,-3.63,-4.17,-178.32,-0.67,0.06,-0.49,0.08,-0.06,1.02,1000
17:19:46.581,-3.58,-4.18,-178.33,-0.98,0.37,-0.43,0.08,-0.06,1.02,1000
17:19:46.590,-3.56,-4.18,-178.33,-0.85,0.3,-0.43,0.07,-0.07,1.02,1000
17:19:46.601,-3.59,-4.17,-178.34,-0.67,0.18,-0.55,0.07,-0.07,1.03,1000
17:19:46.612,-3.66,-4.11,-178.34,-0.37,-0.18,-0.49,0.07,-0.07,1.03,1000
17:19:46.623,-3.71,-4.07,-178.35,0.18,-0.61,-0.61,0.07,-0.07,1.03,1000
17:19:46.636,-3.76,-4.04,-178.36,0.18,-0.85,-0.67,0.07,-0.07,1.03,1000
17:19:46.645,-3.76,-4.05,-178.36,0.43,-0.61,-0.67,0.08,-0.06,1.03,1000
17:19:46.656,-3.72,-4.09,-178.37,0.12,-0.55,-0.61,0.08,-0.06,1.02,1000
17:19:46.667,-3.67,-4.14,-178.38,-0.37,-0.12,-0.37,0.08,-0.06,1.03,1000
17:19:46.684,-3.61,-4.17,-178.38,-0.73,0.12,-0.61,0.08,-0.06,1.02,1000
17:19:46.689,-3.56,-4.19,-178.39,-0.91,0.3,-0.3,0.07,-0.06,1.03,1000
17:19:46.700,-3.56,-4.17,-178.39,-0.85,0.18,-0.49,0.07,-0.07,1.02,1000
17:19:46.711,-3.59,-4.14,-178.39,-0.55,-0.18,-0.43,0.07,-0.07,1.02,1000
17:19:46.722,-3.65,-4.1,-178.4,-0.18,-0.37,-0.3,0.07,-0.07,1.03,1000
17:19:46.733,-3.72,-4.08,-178.4,0.12,-0.73,-0.73,0.07,-0.07,1.03,1000
17:19:46.744,-3.75,-4.07,-178.41,0.49,-0.61,-0.79,0.07,-0.07,1.02,1000
17:19:46.755,-3.74,-4.09,-178.42,0.3,-0.73,-0.61,0.08,-0.06,1.02,1000
17:19:46.770,-3.7,-4.11,-178.43,0.0,-0.43,-0.61,0.08,-0.06,1.03,1000
17:19:46.790,-3.65,-4.13,-178.43,-0.49,-0.12,-0.37,0.08,-0.06,1.03,1000
17:19:46.790,-3.59,-4.16,-178.44,-0.85,0.12,-0.43,0.07,-0.06,1.02,1000
17:19:46.799,-3.57,-4.16,-178.44,-0.85,0.18,-0.3,0.08,-0.06,1.02,1000
17:19:46.810,-3.58,-4.15,-178.44,-0.73,0.06,-0.49,0.07,-0.07,1.03,1000
17:19:46.821,-3.63,-4.12,-178.45,-0.43,-0.18,-0.49,0.07,-0.07,1.02,1000
17:19:46.832,-3.7,-4.08,-178.45,-0.06,-0.43,-0.55,0.07,-0.07,1.02,1000
17:19:46.843,-3.75,-4.06,-178.46,0.12,-0.73,-0.49,0.07,-0.07,1.03,1000
17:19:46.854,-3.77,-4.06,-178.47,0.24,-0.73,-0.73,0.08,-0.06,1.03,1000
17:19:46.865,-3.76,-4.08,-178.48,0.0,-0.61,-0.73,0.08,-0.06,1.03,1000
17:19:46.876,-3.71,-4.11,-178.48,-0.12,-0.18,-0.43,0.08,-0.06,1.03,1000
17:19:46.892,-3.66,-4.14,-178.49,-0.61,0.12,-0.43,0.08,-0.06,1.03,1000
17:19:46.898,-3.62,-4.15,-178.49,-0.85,0.12,-0.3,0.08,-0.06,1.03,1000
17:19:46.909,-3.6,-4.16,-178.49,-0.98,0.18,-0.3,0.07,-0.07,1.02,1000
17:19:46.920,-3.63,-4.14,-178.5,-0.61,0.0,-0.37,0.07,-0.07,1.03,1000
17:19:46.931,-3.68,-4.12,-178.5,-0.24,-0.24,-0.43,0.07,-0.07,1.03,1000
17:19:46.942,-3.72,-4.11,-178.51,0.06,-0.55,-0.61,0.07,-0.07,1.03,1000
17:19:46.953,-3.75,-4.09,-178.51,0.12,-0.73,-0.73,0.07,-0.07,1.02,1000
17:19:46.964,-3.74,-4.09,-178.52,0.18,-0.61,-0.55,0.08,-0.06,1.02,1000
17:19:46.975,-3.71,-4.11,-178.53,-0.12,-0.49,-0.43,0.08,-0.06,1.03,1000
17:19:46.986,-3.67,-4.13,-178.53,-0.37,-0.12,-0.37,0.08,-0.06,1.02,1000
17:19:46.997,-3.62,-4.15,-178.54,-0.85,0.0,-0.3,0.08,-0.06,1.02,1000
17:19:47.009,-3.6,-4.16,-178.54,-0.91,0.06,-0.37,0.07,-0.07,1.03,1000
17:19:47.019,-3.61,-4.16,-178.55,-0.79,0.06,-0.37,0.07,-0.07,1.03,1000
17:19:47.030,-3.63,-4.14,-178.55,-0.37,-0.06,-0.49,0.07,-0.07,1.02,1000
17:19:47.041,-3.68,-4.11,-178.56,-0.12,-0.24,-0.55,0.07,-0.07,1.03,1000
17:19:47.052,-3.72,-4.08,-178.57,0.0,-0.55,-0.73,0.07,-0.07,1.03,1000
17:19:47.063,-3.74,-4.07,-178.57,0.18,-0.61,-0.79,0.08,-0.06,1.03,1000
17:19:47.075,-3.73,-4.09,-178.58,-0.12,-0.49,-0.67,0.08,-0.06,1.03,1000
17:19:47.086,-3.7,-4.11,-178.59,-0.3,-0.37,-0.55,0.07,-0.06,1.02,1000
17:19:47.098,-3.66,-4.12,-178.59,-0.55,-0.18,-0.37,0.07,-0.06,1.02,1000
17:19:47.107,-3.64,-4.14,-178.6,-0.61,0.06,-0.43,0.08,-0.06,1.03,1000
17:19:47.118,-3.63,-4.15,-178.6,-0.61,-0.06,-0.3,0.07,-0.07,1.03,1000
17:19:47.131,-3.65,-4.14,-178.61,-0.61,-0.12,-0.49,0.07,-0.07,1.03,1000
17:19:47.140,-3.68,-4.13,-178.61,-0.3,-0.24,-0.37,0.08,-0.07,1.03,1000
17:19:47.151,-3.7,-4.12,-178.62,0.0,-0.49,-0.61,0.07,-0.07,1.03,1000
17:19:47.164,-3.72,-4.11,-178.62,0.18,-0.43,-0.55,0.07,-0.07,1.03,1000
17:19:47.172,-3.72,-4.11,-178.63,-0.12,-0.37,-0.79,0.07,-0.06,1.02,1000
17:19:47.191,-3.7,-4.11,-178.64,-0.3,-0.37,-0.61,0.08,-0.06,1.02,1000
17:19:47.198,-3.67,-4.12,-178.64,-0.37,-0.3,-0.43,0.08,-0.06,1.03,1000
17:19:47.206,-3.64,-4.14,-178.65,-0.55,0.0,-0.37,0.08,-0.06,1.03,1000
17:19:47.217,-3.63,-4.16,-178.65,-0.49,0.0,-0.37,0.07,-0.07,1.03,1000
17:19:47.228,-3.63,-4.15,-178.66,-0.43,-0.18,-0.61,0.07,-0.07,1.02,1000
17:19:47.240,-3.64,-4.14,-178.66,-0.18,-0.06,-0.49,0.07,-0.07,1.03,1000
17:19:47.251,-3.66,-4.13,-178.67,-0.06,-0.24,-0.73,0.07,-0.07,1.03,1000
17:19:47.261,-3.67,-4.12,-178.68,-0.12,-0.3,-0.61,0.07,-0.07,1.02,1000
17:19:47.273,-3.68,-4.11,-178.68,-0.12,-0.37,-0.61,0.07,-0.07,1.02,1000
17:19:47.283,-3.68,-4.11,-178.69,-0.18,-0.43,-0.43,0.07,-0.06,1.03,1000
17:19:47.299,-3.66,-4.12,-178.69,-0.24,-0.3,-0.37,0.07,-0.06,1.03,1000
17:19:47.305,-3.65,-4.12,-178.7,-0.37,0.0,-0.55,0.08,-0.06,1.02,1000
17:19:47.316,-3.64,-4.14,-178.7,-0.37,-0.18,-0.55,0.07,-0.07,1.02,1000
17:19:47.327,-3.64,-4.14,-178.71,-0.49,-0.18,-0.43,0.08,-0.06,1.03,1000
17:19:47.338,-3.65,-4.14,-178.72,-0.37,-0.24,-0.43,0.07,-0.07,1.02,1000
17:19:47.349,-3.66,-4.13,-178.72,-0.18,-0.18,-0.49,0.07,-0.07,1.02,1000
17:19:47.363,-3.67,-4.13,-178.73,-0.18,-0.37,-0.61,0.07,-0.07,1.03,1000
17:19:47.371,-3.68,-4.12,-178.73,-0.18,-0.12,-0.55,0.07,-0.06,1.03,1000
17:19:47.382,-3.67,-4.12,-178.74,-0.24,-0.37,-0.61,0.07,-0.06,1.02,1000
17:19:47.395,-3.61,-4.07,-178.74,-1.52,-0.43,0.12,0.07,-0.06,1.02,1000
17:19:47.409,-3.61,-4.1,-178.74,-1.22,0.85,-0.12,0.08,-0.09,1.05,1000
17:19:47.415,-3.67,-4.17,-178.75,0.18,1.4,-1.04,0.05,-0.05,1.01,1000
17:19:47.426,-3.68,-4.17,-178.75,0.0,0.67,-1.28,0.08,-0.06,1.0,1000
17:19:47.439,-3.7,-4.15,-178.77,-0.79,0.06,-1.1,0.05,-0.06,1.05,1000
17:19:47.448,-3.64,-4.04,-178.77,-0.61,-1.04,-0.3,0.08,-0.09,1.04,1000
17:19:47.459,-3.66,-4.05,-178.78,-0.37,-0.37,-0.37,0.08,-0.06,1.03,1000
17:19:47.472,-3.66,-4.05,-178.78,-0.3,0.18,-0.37,0.08,-0.07,1.02,1000
17:19:47.481,-3.67,-4.1,-178.78,-0.37,0.24,-0.67,0.07,-0.06,1.03,1000
17:19:47.496,-3.65,-4.1,-178.79,-0.18,-0.61,-0.91,0.07,-0.07,1.03,1000
17:19:47.506,-3.66,-4.09,-178.8,-0.3,0.0,-0.49,0.08,-0.07,1.02,1000
17:19:47.514,-3.66,-4.09,-178.8,0.0,-0.73,-0.18,0.07,-0.07,1.02,1000
17:19:47.526,-3.68,-4.1,-178.8,-0.24,-0.49,-0.37,0.08,-0.07,1.03,1000
17:19:47.536,-3.7,-4.1,-178.81,0.0,-0.37,-0.79,0.07,-0.06,1.02,1000
17:19:47.547,-3.67,-4.1,-178.82,-0.18,-0.79,-0.73,0.08,-0.07,1.03,1000
17:19:47.558,-3.69,-4.11,-178.83,-0.3,-0.49,-0.55,0.07,-0.06,1.02,1000
17:19:47.569,-3.67,-4.11,-178.83,-0.24,-0.37,-0.24,0.08,-0.07,1.02,1000
17:19:47.580,-3.67,-4.15,-178.83,-0.37,-0.06,-0.37,0.07,-0.06,1.03,1000
17:19:47.591,-3.64,-4.12,-178.84,-0.49,0.0,-0.55,0.08,-0.06,1.02,1000
17:19:47.612,-3.64,-4.13,-178.85,-0.67,0.0,-0.73,0.07,-0.07,1.02,1000
17:19:47.613,-3.65,-4.12,-178.85,-0.55,-0.18,-0.37,0.07,-0.07,1.03,1000
17:19:47.624,-3.68,-4.12,-178.86,-0.37,-0.12,-0.55,0.08,-0.07,1.02,1000
17:19:47.635,-3.68,-4.11,-178.86,-0.18,-0.3,-0.37,0.07,-0.06,1.02,1000
17:19:47.646,-3.69,-4.11,-178.87,-0.06,-0.3,-0.73,0.07,-0.07,1.03,1000
17:19:47.657,-3.68,-4.1,-178.88,-0.18,-0.43,-0.85,0.07,-0.06,1.02,1000
17:19:47.668,-3.67,-4.12,-178.89,-0.18,-0.37,-0.55,0.08,-0.07,1.03,1000
17:19:47.679,-3.66,-4.13,-178.89,-0.49,-0.12,-0.37,0.07,-0.06,1.02,1000
17:19:47.692,-3.65,-4.13,-178.89,-0.43,-0.12,-0.55,0.08,-0.06,1.02,1000
17:19:47.703,-3.64,-4.13,-178.9,-0.49,-0.18,-0.43,0.07,-0.06,1.03,1000
17:19:47.712,-3.64,-4.13,-178.91,-0.49,-0.18,-0.55,0.08,-0.07,1.02,1000
17:19:47.723,-3.66,-4.13,-178.91,-0.24,-0.18,-0.43,0.07,-0.06,1.03,1000
17:19:47.735,-3.66,-4.12,-178.92,-0.24,-0.37,-0.37,0.07,-0.07,1.03,1000
17:19:47.745,-3.68,-4.1,-178.92,-0.18,-0.37,-0.79,0.07,-0.06,1.02,1000
17:19:47.757,-3.67,-4.1,-178.93,-0.12,-0.43,-0.73,0.08,-0.07,1.03,1000
17:19:47.767,-3.68,-4.12,-178.94,-0.18,-0.37,-0.61,0.07,-0.07,1.03,1000
17:19:47.778,-3.67,-4.13,-178.94,-0.24,-0.12,-0.61,0.07,-0.06,1.02,1000
17:19:47.789,-3.65,-4.13,-178.95,-0.37,-0.37,-0.43,0.07,-0.07,1.03,1000
17:19:47.808,-3.64,-4.13,-178.96,-0.43,-0.3,-0.43,0.07,-0.06,1.03,1000
17:19:47.815,-3.63,-4.13,-178.96,-0.3,-0.18,-0.67,0.07,-0.07,1.03,1000
17:19:47.822,-3.64,-4.13,-178.97,-0.3,-0.18,-0.43,0.07,-0.07,1.02,1000
17:19:47.833,-3.66,-4.13,-178.97,-0.24,-0.24,-0.49,0.07,-0.07,1.02,1000
17:19:47.844,-3.69,-4.13,-178.98,-0.06,-0.49,-0.55,0.07,-0.07,1.03,1000
17:19:47.855,-3.69,-4.13,-178.98,-0.24,-0.43,-0.37,0.07,-0.07,1.02,1000
17:19:47.866,-3.69,-4.13,-178.99,-0.12,-0.3,-0.37,0.08,-0.07,1.02,1000
17:19:47.877,-3.68,-4.15,-178.99,-0.24,-0.18,-0.37,0.08,-0.06,1.03,1000
17:19:47.888,-3.66,-4.15,-179.0,-0.37,-0.18,-0.55,0.07,-0.06,1.02,1000
17:19:47.899,-3.64,-4.15,-179.0,-0.43,-0.3,-0.37,0.08,-0.06,1.03,1000
17:19:47.910,-3.64,-4.15,-179.01,-0.43,-0.18,-0.37,0.08,-0.07,1.03,1000
17:19:47.921,-3.65,-4.15,-179.01,-0.43,-0.18,-0.49,0.07,-0.07,1.03,1000
17:19:47.932,-3.66,-4.14,-179.02,-0.43,-0.18,-0.49,0.07,-0.06,1.03,1000
17:19:47.943,-3.67,-4.12,-179.03,-0.3,-0.37,-0.37,0.07,-0.06,1.02,1000
17:19:47.954,-3.68,-4.11,-179.03,-0.24,-0.43,-0.49,0.07,-0.07,1.03,1000
17:19:47.965,-3.68,-4.11,-179.04,-0.12,-0.37,-0.61,0.07,-0.07,1.03,1000
17:19:47.976,-3.68,-4.11,-179.04,0.06,-0.24,-0.55,0.08,-0.07,1.03,1000
17:19:47.987,-3.67,-4.12,-179.05,-0.18,-0.18,-0.49,0.07,-0.07,1.02,1000
17:19:48.001,-3.66,-4.11,-179.06,-0.37,-0.12,-0.55,0.08,-0.07,1.02,1000
17:19:48.011,-3.65,-4.12,-179.06,-0.43,-0.18,-0.61,0.07,-0.07,1.03,1000
17:19:48.020,-3.65,-4.12,-179.07,-0.37,-0.18,-0.43,0.07,-0.07,1.03,1000
17:19:48.031,-3.65,-4.13,-179.07,-0.3,-0.18,-0.49,0.08,-0.06,1.03,1000
17:19:48.042,-3.65,-4.13,-179.08,-0.24,-0.24,-0.49,0.07,-0.07,1.02,1000
17:19:48.053,-3.67,-4.13,-179.08,-0.24,-0.3,-0.73,0.08,-0.06,1.03,1000
17:19:48.064,-3.67,-4.13,-179.09,-0.06,-0.24,-0.55,0.07,-0.07,1.03,1000
17:19:48.075,-3.66,-4.13,-179.1,-0.37,-0.3,-0.49,0.07,-0.06,1.02,1000
17:19:48.087,-3.65,-4.13,-179.1,-0.18,-0.37,-0.24,0.07,-0.07,1.02,1000
17:19:48.101,-3.65,-4.13,-179.11,-0.43,-0.12,-0.55,0.07,-0.06,1.02,1000
17:19:48.121,-3.64,-4.13,-179.11,-0.37,-0.3,-0.61,0.07,-0.07,1.02,1000
17:19:48.121,-3.65,-4.13,-179.12,-0.49,-0.18,-0.43,0.08,-0.07,1.02,1000
17:19:48.130,-3.65,-4.15,-179.12,-0.37,-0.06,-0.55,0.08,-0.07,1.03,1000
17:19:48.141,-3.65,-4.14,-179.13,-0.37,-0.24,-0.43,0.07,-0.07,1.03,1000
17:19:48.152,-3.65,-4.13,-179.13,-0.37,-0.24,-0.49,0.07,-0.06,1.02,1000
17:19:48.163,-3.65,-4.12,-179.14,-0.18,-0.18,-0.67,0.07,-0.07,1.02,1000
17:19:48.174,-3.66,-4.12,-179.15,-0.24,-0.3,-0.43,0.07,-0.07,1.02,1000
17:19:48.185,-3.66,-4.12,-179.15,-0.18,-0.3,-0.49,0.08,-0.06,1.03,1000
17:19:48.196,-3.65,-4.13,-179.16,-0.3,-0.3,-0.37,0.07,-0.07,1.03,1000
17:19:48.207,-3.65,-4.13,-179.16,-0.43,-0.18,-0.55,0.07,-0.06,1.02,1000
17:19:48.218,-3.64,-4.13,-179.17,-0.43,-0.18,-0.61,0.08,-0.06,1.02,1000
17:19:48.229,-3.64,-4.14,-179.18,-0.24,-0.18,-0.55,0.07,-0.07,1.03,1000
17:19:48.241,-3.65,-4.14,-179.18,-0.49,-0.18,-0.55,0.08,-0.07,1.03,1000
17:19:48.251,-3.66,-4.14,-179.19,-0.3,-0.18,-0.67,0.07,-0.06,1.02,1000
17:19:48.263,-3.67,-4.14,-179.19,-0.24,-0.24,-0.43,0.07,-0.07,1.02,1000
17:19:48.275,-3.67,-4.14,-179.2,-0.3,-0.49,-0.37,0.07,-0.06,1.03,1000
17:19:48.284,-3.66,-4.14,-179.21,-0.3,-0.24,-0.43,0.07,-0.07,1.03,1000
17:19:48.295,-3.67,-4.14,-179.21,-0.43,-0.24,-0.55,0.07,-0.06,1.03,1000
17:19:48.306,-3.66,-4.14,-179.22,-0.24,0.37,-0.67,0.07,-0.06,1.01,1000
17:19:48.318,-3.86,-4.44,-179.23,3.6,6.16,-1.4,0.22,-0.16,0.99,1000
17:19:48.328,-4.14,-4.98,-179.23,5.06,8.29,0.79,0.0,0.02,1.13,1000
17:19:48.339,-3.69,-4.61,-179.22,-1.71,3.84,1.52,0.01,0.01,0.95,1000
17:19:48.350,-3.21,-4.03,-179.21,-5.18,-1.59,1.46,0.03,-0.04,0.99,1000
17:19:48.361,-2.99,-3.57,-179.19,-6.28,-3.6,2.13,0.06,-0.07,1.12,1000
17:19:48.372,-3.07,-3.52,-179.16,-3.9,-1.95,3.48,0.12,-0.11,1.02,1000
17:19:48.383,-3.46,-3.89,-179.11,0.61,1.1,4.82,0.09,-0.1,1.0,1000
17:19:48.394,-3.88,-4.03,-179.05,1.4,1.4,5.12,0.04,-0.08,1.05,1000
17:19:48.408,-4.01,-3.79,-179.0,-0.06,-1.95,4.02,0.04,-0.05,1.02,1000
17:19:48.421,-3.94,-3.59,-178.96,0.43,-3.35,2.62,0.07,-0.07,1.02,1000
17:19:48.429,-3.93,-3.57,-178.94,0.73,-2.62,0.91,0.09,-0.09,1.04,1000
17:19:48.438,-4.04,-3.77,-178.94,1.83,-0.43,-1.1,0.11,-0.08,1.02,1000
17:19:48.449,-4.07,-4.03,-178.96,2.74,0.43,-2.38,0.07,-0.06,1.03,1000
17:19:48.460,-3.94,-4.08,-178.99,1.59,-0.3,-2.56,0.05,-0.05,1.03,1000
17:19:48.471,-3.71,-3.96,-179.01,-0.37,-1.4,-1.1,0.07,-0.05,1.02,1000
17:19:48.482,-3.52,-3.92,-179.02,-1.28,-1.34,0.49,0.08,-0.05,1.02,1000
17:19:48.493,-3.44,-4.02,-179.01,-1.34,0.55,1.04,0.1,-0.07,1.03,1000
17:19:48.504,-3.46,-4.17,-179.0,-1.34,1.83,0.37,0.07,-0.06,1.02,1000
17:19:48.515,-3.46,-4.2,-179.0,-1.4,1.4,-1.04,0.07,-0.07,1.03,1000
17:19:48.528,-3.52,-4.15,-179.02,-1.34,0.67,-1.22,0.06,-0.07,1.03,1000
17:19:48.538,-3.57,-4.03,-179.02,-1.04,-0.3,0.18,0.07,-0.07,1.02,1000
17:19:48.548,-3.67,-3.95,-179.02,-0.85,-0.43,0.85,0.07,-0.07,1.03,1000
17:19:48.559,-3.69,-3.87,-179.0,-1.22,-0.98,1.1,0.06,-0.05,1.02,1000
17:19:48.570,-3.61,-3.82,-178.99,-1.46,-1.34,2.01,0.07,-0.06,1.02,1000
17:19:48.583,-3.57,-3.83,-178.96,-1.65,-0.85,2.8,0.07,-0.08,1.02,1000
17:19:48.592,-3.64,-3.89,-178.93,-1.28,-0.12,2.62,0.09,-0.08,1.02,1000
17:19:48.604,-3.74,-3.99,-178.91,-0.37,-0.24,0.91,0.07,-0.07,1.03,1000
17:19:48.614,-3.8,-3.98,-178.91,-0.12,-0.43,-1.22,0.07,-0.08,1.03,1000
17:19:48.625,-3.89,-3.95,-178.93,0.3,-0.73,-2.01,0.07,-0.07,1.02,1000
17:19:48.636,-3.91,-3.93,-178.95,0.85,-1.22,-1.1,0.07,-0.07,1.03,1000
17:19:48.647,-3.94,-3.92,-178.96,0.79,-0.98,-0.12,0.07,-0.07,1.02,1000
17:19:48.658,-3.93,-3.94,-178.96,0.67,-0.61,-0.55,0.08,-0.06,1.03,1000
17:19:48.669,-3.88,-4.0,-178.97,1.16,-0.49,-1.52,0.08,-0.07,1.03,1000
17:19:48.680,-3.84,-4.08,-178.99,0.91,0.12,-1.77,0.07,-0.06,1.03,1000
17:19:48.691,-3.76,-4.09,-179.01,0.43,-0.12,-1.22,0.07,-0.05,1.03,1000
17:19:48.702,-3.62,-4.05,-179.01,-0.79,-0.73,0.0,0.06,-0.04,1.03,1000
17:19:48.716,-3.49,-3.99,-179.01,-2.2,-0.91,0.85,0.08,-0.06,1.03,1000
17:19:48.730,-3.43,-4.02,-179.0,-2.32,0.12,0.79,0.09,-0.07,1.02,1000
17:19:48.738,-3.48,-4.14,-179.0,-1.16,1.1,-0.49,0.09,-0.08,1.03,1000
17:19:48.747,-3.61,-4.21,-179.01,-0.55,1.22,-1.04,0.07,-0.08,1.03,1000
17:19:48.759,-3.71,-4.16,-179.02,-0.18,0.18,-0.85,0.05,-0.07,1.03,1000
17:19:48.769,-3.74,-4.02,-179.02,-0.55,-1.4,0.12,0.06,-0.06,1.02,1000
17:19:48.779,-3.77,-3.89,-179.02,-0.49,-1.71,0.55,0.08,-0.08,1.02,1000
17:19:48.792,-3.83,-3.92,-179.02,0.18,-0.85,-0.18,0.08,-0.08,1.03,1000
17:19:48.801,-3.86,-4.02,-179.02,0.85,0.0,-1.52,0.08,-0.07,1.03,1000
17:19:48.812,-3.85,-4.08,-179.04,0.43,0.0,-1.59,0.06,-0.06,1.03,1000
17:19:48.827,-3.78,-4.04,-179.05,-0.3,-0.49,-0.67,0.06,-0.06,1.02,1000
17:19:48.837,-3.7,-4.01,-179.06,-0.85,-0.91,0.37,0.08,-0.06,1.02,1000
17:19:48.845,-3.64,-4.03,-179.05,-0.91,-0.12,0.24,0.08,-0.07,1.03,1000
17:19:48.856,-3.65,-4.1,-179.06,-0.61,0.61,-0.73,0.08,-0.07,1.03,1000
17:19:48.867,-3.67,-4.14,-179.07,-0.37,0.55,-1.16,0.07,-0.07,1.03,1000
17:19:48.878,-3.7,-4.09,-179.08,-0.3,0.06,-0.67,0.06,-0.07,1.03,1000
17:19:48.889,-3.73,-4.0,-179.08,-0.43,-0.61,-0.12,0.06,-0.07,1.03,1000
17:19:48.900,-3.75,-3.95,-179.08,-0.24,-0.73,-0.24,0.08,-0.07,1.03,1000
17:19:48.911,-3.78,-3.97,-179.08,0.06,-0.67,-0.67,0.08,-0.07,1.03,1000
17:19:48.923,-3.78,-4.0,-179.09,0.06,-0.3,-0.91,0.08,-0.07,1.02,1000
17:19:48.933,-3.75,-4.02,-179.11,0.0,-0.37,-1.04,0.07,-0.06,1.03,1000
17:19:48.945,-3.72,-4.02,-179.11,-0.49,-0.24,-0.37,0.07,-0.06,1.02,1000
17:19:48.956,-3.69,-4.03,-179.11,-0.85,-0.18,-0.18,0.08,-0.06,1.03,1000
17:19:48.967,-3.67,-4.05,-179.11,-0.79,-0.18,-0.37,0.08,-0.07,1.03,1000
17:19:48.977,-3.68,-4.07,-179.12,-0.43,0.3,-0.79,0.07,-0.07,1.03,1000
17:19:48.988,-3.7,-4.05,-179.13,-0.43,0.0,-0.85,0.07,-0.07,1.03,1000
17:19:48.999,-3.73,-4.01,-179.13,-0.37,-0.24,-0.49,0.07,-0.07,1.02,1000
17:19:49.010,-3.76,-3.97,-179.14,-0.18,-0.67,-0.24,0.07,-0.07,1.03,1000
17:19:49.023,-3.78,-3.97,-179.14,0.0,-0.67,-0.49,0.08,-0.07,1.03,1000
17:19:49.046,-3.79,-4.0,-179.15,0.12,-0.43,-0.85,0.08,-0.06,1.02,1000
17:19:49.046,-3.77,-4.04,-179.16,0.0,-0.18,-0.98,0.07,-0.06,1.03,1000
17:19:49.054,-3.73,-4.06,-179.17,-0.37,-0.18,-0.37,0.07,-0.06,1.03,1000
17:19:49.065,-3.69,-4.06,-179.17,-0.67,-0.18,-0.37,0.08,-0.06,1.02,1000
17:19:49.076,-3.67,-4.07,-179.17,-0.73,-0.24,-0.24,0.07,-0.07,1.02,1000
17:19:49.087,-3.68,-4.08,-179.17,-0.43,0.06,-0.49,0.07,-0.07,1.03,1000
17:19:49.099,-3.72,-4.08,-179.18,-0.3,0.12,-0.73,0.07,-0.07,1.03,1000
17:19:49.109,-3.75,-4.06,-179.19,-0.24,-0.18,-0.85,0.07,-0.07,1.02,1000
17:19:49.120,-3.77,-4.01,-179.19,-0.18,-0.55,-0.43,0.07,-0.07,1.03,1000
17:19:49.145,-3.77,-3.99,-179.2,-0.18,-0.55,-0.43,0.07,-0.07,1.03,1000
17:19:49.146,-3.77,-4.0,-179.2,-0.12,-0.55,-0.61,0.08,-0.07,1.03,1000
17:19:49.153,-3.75,-4.03,-179.21,-0.24,-0.24,-0.61,0.07,-0.07,1.02,1000
17:19:49.164,-3.73,-4.05,-179.22,-0.3,0.06,-0.67,0.07,-0.07,1.02,1000
17:19:49.175,-3.71,-4.06,-179.22,-0.37,-0.18,-0.37,0.07,-0.06,1.03,1000
17:19:49.186,-3.69,-4.06,-179.23,-0.67,0.0,-0.37,0.07,-0.07,1.02,1000
17:19:49.197,-3.69,-4.05,-179.23,-0.67,-0.12,-0.49,0.07,-0.07,1.03,1000
17:19:49.208,-3.71,-4.04,-179.24,-0.49,0.06,-0.55,0.07,-0.07,1.03,1000
17:19:49.220,-3.74,-4.02,-179.25,-0.18,-0.18,-0.61,0.07,-0.07,1.02,1000
17:19:49.230,-3.76,-4.0,-179.25,0.0,-0.49,-0.55,0.07,-0.07,1.03,1000
17:19:49.241,-3.77,-3.99,-179.26,0.06,-0.49,-0.55,0.07,-0.07,1.03,1000
17:19:49.252,-3.77,-4.0,-179.26,-0.06,-0.37,-0.55,0.07,-0.07,1.03,1000
17:19:49.263,-3.75,-4.03,-179.27,-0.37,-0.3,-0.67,0.07,-0.07,1.03,1000
17:19:49.274,-3.72,-4.05,-179.28,-0.43,0.0,-0.61,0.07,-0.06,1.02,1000
17:19:49.285,-3.69,-4.06,-179.29,-0.61,-0.24,-0.43,0.07,-0.07,1.02,1000
17:19:49.296,-3.68,-4.06,-179.29,-0.73,-0.12,-0.43,0.07,-0.07,1.03,1000
17:19:49.307,-3.68,-4.05,-179.29,-0.43,-0.24,-0.43,0.07,-0.07,1.03,1000
17:19:49.318,-3.71,-4.04,-179.3,-0.24,-0.24,-0.49,0.07,-0.07,1.03,1000
17:19:49.330,-3.73,-4.03,-179.31,0.0,-0.24,-0.55,0.07,-0.07,1.03,1000
17:19:49.357,-3.75,-4.02,-179.31,-0.06,-0.49,-0.43,0.07,-0.07,1.03,1000
17:19:49.358,-3.76,-4.0,-179.32,-0.06,-0.49,-0.43,0.07,-0.07,1.03,1000
17:19:49.363,-3.75,-4.0,-179.32,-0.18,-0.43,-0.37,0.07,-0.07,1.03,1000
17:19:49.373,-3.74,-4.01,-179.33,-0.24,-0.37,-0.55,0.08,-0.07,1.02,1000
17:19:49.384,-3.73,-4.03,-179.34,-0.3,-0.12,-0.61,0.08,-0.07,1.03,1000
17:19:49.400,-3.71,-4.04,-179.34,-0.37,-0.06,-0.55,0.07,-0.07,1.02,1000
17:19:49.418,-3.71,-4.04,-179.35,-0.67,-0.12,-0.37,0.07,-0.07,1.02,1000
17:19:49.419,-3.71,-4.03,-179.35,-0.55,-0.18,-0.37,0.07,-0.07,1.03,1000
17:19:49.432,-3.73,-4.02,-179.36,-0.49,-0.12,-0.67,0.07,-0.07,1.02,1000
17:19:49.445,-3.74,-4.02,-179.36,-0.18,-0.3,-0.37,0.07,-0.07,1.02,1000
17:19:49.458,-3.76,-4.01,-179.37,-0.06,-0.37,-0.67,0.07,-0.07,1.03,1000
17:19:49.461,-3.76,-4.01,-179.37,0.12,-0.43,-0.55,0.07,-0.07,1.03,1000
17:19:49.472,-3.76,-4.01,-179.38,-0.06,-0.37,-0.43,0.07,-0.06,1.02,1000
17:19:49.485,-3.74,-4.02,-179.39,-0.49,-0.37,-0.55,0.07,-0.07,1.02,1000
17:19:49.494,-3.73,-4.03,-179.39,-0.3,0.06,-0.37,0.07,-0.07,1.02,1000
17:19:49.505,-3.73,-4.05,-179.4,-0.49,-0.18,-0.55,0.07,-0.06,1.03,1000
17:19:49.516,-3.72,-4.05,-179.4,-0.43,-0.18,-0.61,0.07,-0.07,1.02,1000
17:19:49.527,-3.73,-4.04,-179.41,-0.49,-0.06,-0.37,0.07,-0.07,1.02,1000
17:19:49.538,-3.74,-4.03,-179.41,-0.24,-0.18,-0.37,0.07,-0.06,1.03,1000
17:19:49.554,-3.75,-4.02,-179.42,-0.24,-0.37,-0.49,0.07,-0.07,1.03,1000
17:19:49.560,-3.76,-4.01,-179.43,-0.24,-0.24,-0.67,0.07,-0.07,1.03,1000
17:19:49.571,-3.76,-4.02,-179.43,-0.18,-0.18,-0.55,0.07,-0.07,1.03,1000
17:19:49.582,-3.75,-4.03,-179.44,-0.18,-0.3,-0.67,0.07,-0.07,1.03,1000
17:19:49.593,-3.74,-4.04,-179.45,-0.37,-0.18,-0.61,0.07,-0.06,1.03,1000
17:19:49.604,-3.72,-4.04,-179.45,-0.43,-0.18,-0.55,0.07,-0.07,1.03,1000
17:19:49.617,-3.72,-4.04,-179.46,-0.49,-0.12,-0.37,0.07,-0.07,1.02,1000
17:19:49.626,-3.72,-4.03,-179.46,-0.37,-0.18,-0.37,0.07,-0.07,1.03,1000
17:19:49.637,-3.72,-4.02,-179.47,-0.37,-0.18,-0.55,0.07,-0.07,1.02,1000
17:19:49.649,-3.73,-4.01,-179.47,-0.18,-0.18,-0.43,0.07,-0.07,1.03,1000
17:19:49.659,-3.74,-4.01,-179.48,-0.24,-0.37,-0.55,0.07,-0.07,1.03,1000
17:19:49.670,-3.75,-4.0,-179.48,-0.18,-0.24,-0.61,0.07,-0.07,1.02,1000
17:19:49.681,-3.74,-4.0,-179.49,-0.24,-0.3,-0.55,0.07,-0.07,1.02,1000
17:19:49.692,-3.74,-4.01,-179.5,-0.3,-0.37,-0.49,0.07,-0.07,1.03,1000
17:19:49.703,-3.74,-4.02,-179.5,-0.37,-0.18,-0.61,0.07,-0.07,1.03,1000
17:19:49.714,-3.73,-4.04,-179.51,-0.49,-0.18,-0.55,0.07,-0.07,1.03,1000
17:19:49.725,-3.73,-4.05,-179.51,-0.43,-0.12,-0.43,0.07,-0.07,1.03,1000
17:19:49.740,-3.73,-4.04,-179.52,-0.37,-0.18,-0.67,0.07,-0.07,1.03,1000
17:19:49.749,-3.72,-4.04,-179.52,-0.43,-0.18,-0.49,0.07,-0.07,1.02,1000
17:19:49.763,-3.73,-4.03,-179.53,-0.37,-0.43,-0.18,0.07,-0.07,1.03,1000
17:19:49.769,-3.73,-4.02,-179.54,-0.24,-0.37,-0.61,0.07,-0.07,1.03,1000
17:19:49.780,-3.74,-4.02,-179.54,-0.3,-0.37,-0.61,0.07,-0.06,1.03,1000
17:19:49.791,-3.74,-4.02,-179.55,-0.24,-0.24,-0.49,0.07,-0.07,1.02,1000
17:19:49.802,-3.73,-4.03,-179.55,-0.24,-0.12,-0.55,0.07,-0.07,1.02,1000
17:19:49.813,-3.72,-4.04,-179.56,-0.3,-0.24,-0.49,0.07,-0.07,1.03,1000
17:19:49.824,-3.72,-4.04,-179.56,-0.24,-0.12,-0.37,0.08,-0.07,1.02,1000
17:19:49.835,-3.72,-4.05,-179.57,-0.49,-0.18,-0.37,0.07,-0.07,1.02,1000
17:19:49.854,-3.72,-4.05,-179.58,-0.43,-0.24,-0.61,0.07,-0.07,1.02,1000
17:19:49.864,-3.73,-4.05,-179.58,-0.3,-0.24,-0.79,0.07,-0.07,1.03,1000
17:19:49.868,-3.74,-4.05,-179.59,-0.12,-0.24,-0.37,0.07,-0.07,1.03,1000
17:19:49.879,-3.74,-4.03,-179.59,-0.24,-0.3,-0.49,0.07,-0.07,1.02,1000
17:19:49.890,-3.73,-4.03,-179.6,-0.37,-0.3,-0.55,0.07,-0.07,1.03,1000
17:19:49.901,-3.72,-4.03,-179.61,-0.18,-0.18,-0.43,0.08,-0.07,1.03,1000
17:19:49.913,-3.72,-4.04,-179.61,-0.3,-0.24,-0.37,0.07,-0.07,1.02,1000
17:19:49.923,-3.72,-4.04,-179.62,-0.3,-0.18,-0.49,0.07,-0.07,1.02,1000
17:19:49.934,-3.73,-4.06,-179.62,-0.49,-0.24,-0.67,0.07,-0.07,1.02,1000
17:19:49.945,-3.73,-4.05,-179.63,-0.24,-0.18,-0.49,0.07,-0.07,1.03,1000
17:19:49.957,-3.73,-4.04,-179.63,-0.37,-0.18,-0.37,0.07,-0.07,1.02,1000
17:19:49.967,-3.74,-4.02,-179.64,-0.37,-0.24,-0.61,0.07,-0.07,1.03,1000
17:19:49.978,-3.74,-4.01,-179.65,-0.37,-0.18,-0.49,0.07,-0.07,1.03,1000
17:19:49.989,-3.75,-4.01,-179.65,-0.24,-0.12,-0.37,0.07,-0.07,1.02,1000
17:19:50.002,-3.75,-4.01,-179.66,-0.24,-0.24,-0.67,0.07,-0.07,1.03,1000
17:19:50.011,-3.75,-4.01,-179.66,-0.3,-0.3,-0.55,0.07,-0.07,1.02,1000
17:19:50.023,-3.75,-4.01,-179.67,-0.37,-0.37,-0.37,0.07,-0.07,1.02,1000
17:19:50.033,-3.74,-4.01,-179.68,-0.24,-0.24,-0.67,0.07,-0.07,1.02,1000
17:19:50.047,-3.74,-4.02,-179.68,-0.37,-0.37,-0.43,0.07,-0.07,1.02,1000
17:19:50.059,-3.74,-4.02,-179.69,-0.43,-0.18,-0.49,0.07,-0.07,1.03,1000
17:19:50.068,-3.74,-4.02,-179.69,-0.18,-0.24,-0.55,0.07,-0.07,1.03,1000
17:19:50.080,-3.74,-4.02,-179.7,-0.37,-0.24,-0.55,0.07,-0.07,1.03,1000
17:19:50.090,-3.74,-4.02,-179.7,-0.18,-0.3,-0.43,0.07,-0.07,1.03,1000
17:19:50.101,-3.75,-4.02,-179.71,-0.18,-0.18,-0.49,0.07,-0.06,1.03,1000
17:19:50.112,-3.74,-4.01,-179.72,-0.3,-0.24,-0.37,0.07,-0.06,1.03,1000
17:19:50.128,-3.74,-4.01,-179.72,-0.37,-0.18,-0.55,0.07,-0.07,1.03,1000
17:19:50.137,-3.73,-4.02,-179.73,-0.37,-0.12,-0.55,0.07,-0.07,1.03,1000
17:19:50.152,-3.73,-4.02,-179.73,-0.43,-0.18,-0.61,0.07,-0.07,1.03,1000
17:19:50.163,-3.72,-4.03,-179.74,-0.37,-0.18,-0.55,0.07,-0.06,1.03,1000
17:19:50.171,-3.71,-4.03,-179.74,-0.3,-0.18,-0.37,0.07,-0.07,1.02,1000
17:19:50.176,-3.71,-4.03,-179.75,-0.3,-0.18,-0.49,0.07,-0.07,1.03,1000
17:19:50.187,-3.71,-4.03,-179.76,-0.43,-0.18,-0.67,0.07,-0.07,1.02,1000
17:19:50.198,-3.72,-4.03,-179.76,-0.24,-0.18,-0.55,0.07,-0.07,1.03,1000
17:19:50.209,-3.73,-4.03,-179.77,-0.18,-0.24,-0.55,0.07,-0.07,1.03,1000
17:19:50.220,-3.73,-4.03,-179.77,-0.3,-0.24,-0.49,0.07,-0.07,1.03,1000
17:19:50.232,-3.73,-4.02,-179.78,-0.37,-0.12,-0.61,0.07,-0.07,1.02,1000
17:19:50.244,-3.72,-4.03,-179.79,-0.3,-0.18,-0.49,0.07,-0.07,1.03,1000
17:19:50.253,-3.71,-4.03,-179.79,-0.43,-0.37,-0.73,0.07,-0.07,1.02,1000
17:19:50.273,-3.71,-4.04,-179.8,-0.37,-0.24,-0.61,0.07,-0.07,1.03,1000
17:19:50.275,-3.71,-4.03,-179.8,-0.37,-0.24,-0.49,0.07,-0.07,1.03,1000
17:19:50.288,-3.71,-4.03,-179.81,-0.37,-0.3,-0.49,0.07,-0.07,1.03,1000
17:19:50.299,-3.72,-4.03,-179.81,-0.37,-0.18,-0.49,0.07,-0.07,1.03,1000
17:19:50.308,-3.73,-4.03,-179.82,-0.3,-0.37,-0.43,0.07,-0.07,1.02,1000
17:19:50.324,-3.73,-4.02,-179.82,-0.37,-0.37,-0.49,0.07,-0.07,1.02,1000
17:19:50.330,-3.72,-4.02,-179.83,-0.37,-0.37,-0.67,0.07,-0.06,1.03,1000
17:19:50.341,-3.72,-4.02,-179.84,-0.3,-0.24,-0.67,0.07,-0.07,1.03,1000
17:19:50.355,-3.71,-4.02,-179.84,-0.18,-0.3,-0.55,0.07,-0.07,1.03,1000
17:19:50.363,-3.71,-4.03,-179.85,-0.3,-0.12,-0.37,0.08,-0.07,1.03,1000
17:19:50.376,-3.71,-4.03,-179.86,-0.37,-0.24,-0.43,0.07,-0.07,1.02,1000
17:19:50.385,-3.71,-4.03,-179.86,-0.43,-0.18,-0.43,0.07,-0.07,1.03,1000
17:19:50.396,-3.71,-4.02,-179.87,-0.37,-0.18,-0.49,0.07,-0.07,1.02,1000
17:19:50.409,-3.71,-4.02,-179.87,-0.37,-0.18,-0.55,0.07,-0.06,1.02,1000
17:19:50.418,-3.71,-4.01,-179.88,-0.37,-0.3,-0.37,0.07,-0.07,1.03,1000
17:19:50.430,-3.71,-4.01,-179.89,-0.37,-0.3,-0.55,0.07,-0.07,1.02,1000
17:19:50.440,-3.71,-4.01,-179.89,-0.24,-0.18,-0.55,0.07,-0.07,1.02,1000
17:19:50.451,-3.71,-4.01,-179.9,-0.37,-0.3,-0.55,0.07,-0.07,1.02,1000
17:19:50.470,-3.71,-4.02,-179.9,-0.3,-0.24,-0.49,0.07,-0.07,1.03,1000
17:19:50.476,-3.71,-4.04,-179.91,-0.24,-0.18,-0.61,0.07,-0.07,1.02,1000
17:19:50.484,-3.71,-4.04,-179.91,-0.43,-0.18,-0.43,0.07,-0.07,1.02,1000
17:19:50.495,-3.71,-4.03,-179.92,-0.37,-0.24,-0.55,0.07,-0.07,1.02,1000
17:19:50.506,-3.71,-4.03,-179.92,-0.37,-0.18,-0.55,0.07,-0.07,1.02,1000
17:19:50.517,-3.71,-4.02,-179.93,-0.24,-0.37,-0.49,0.07,-0.06,1.02,1000
17:19:50.528,-3.7,-4.03,-179.94,-0.3,-0.18,-0.55,0.07,-0.07,1.03,1000
17:19:50.539,-3.71,-4.03,-179.94,-0.12,-0.18,-0.37,0.07,-0.07,1.03,1000
17:19:50.550,-3.71,-4.04,-179.95,-0.24,-0.18,-0.67,0.07,-0.06,1.03,1000
17:19:50.561,-3.7,-4.04,-179.95,-0.18,-0.24,-0.55,0.07,-0.07,1.02,1000
17:19:50.579,-3.7,-4.03,-179.96,-0.18,-0.18,-0.43,0.07,-0.07,1.02,1000
17:19:50.583,-3.7,-4.03,-179.96,-0.37,-0.3,-0.61,0.07,-0.06,1.03,1000
17:19:50.595,-3.69,-4.03,-179.97,-0.43,-0.3,-0.43,0.07,-0.07,1.03,1000
17:19:50.605,-3.69,-4.03,-179.98,-0.49,-0.37,-0.55,0.07,-0.07,1.02,1000
17:19:50.616,-3.69,-4.03,-179.98,-0.3,-0.49,-0.55,0.07,-0.07,1.03,1000
17:19:50.627,-3.7,-4.03,-179.99,-0.24,-0.24,-0.43,0.07,-0.07,1.02,1000
17:19:50.638,-3.7,-4.02,-179.99,-0.3,-0.12,-0.61,0.07,-0.07,1.02,1000
17:19:50.649,-3.71,-4.01,-180.0,-0.3,-0.24,-0.67,0.07,-0.07,1.02,1000
17:19:50.661,-3.71,-4.02,-180.0,-0.3,-0.24,-0.73,0.07,-0.06,1.02,1000
17:19:50.680,-3.71,-4.02,-180.01,-0.24,-0.3,-0.73,0.07,-0.07,1.02,1000
17:19:50.682,-3.71,-4.02,-180.02,-0.37,-0.18,-0.67,0.07,-0.07,1.02,1000
17:19:50.693,-3.7,-4.03,-180.02,-0.37,-0.18,-0.55,0.07,-0.07,1.02,1000
17:19:50.704,-3.7,-4.03,-180.03,-0.37,-0.12,-0.61,0.07,-0.07,1.02,1000
17:19:50.715,-3.71,-4.03,-180.04,-0.3,0.0,-0.3,0.07,-0.07,1.03,1000
17:19:50.726,-3.71,-4.03,-180.04,-0.3,-0.18,-0.61,0.07,-0.07,1.03,1000
17:19:50.737,-3.72,-4.03,-180.05,-0.37,-0.37,-0.61,0.07,-0.06,1.03,1000
17:19:50.749,-3.72,-4.04,-180.05,-0.18,-0.24,-0.61,0.07,-0.07,1.03,1000
17:19:50.759,-3.72,-4.03,-180.06,-0.18,-0.3,-0.73,0.07,-0.07,1.03,1000
17:19:50.775,-3.73,-4.03,-180.06,-0.37,-0.18,-0.37,0.07,-0.07,1.03,1000
17:19:50.784,-3.72,-4.03,-180.07,-0.49,-0.3,-0.61,0.07,-0.07,1.03,1000
17:19:50.792,-3.71,-4.03,-180.08,-0.43,-0.24,-0.49,0.07,-0.07,1.02,1000
17:19:50.804,-3.71,-4.03,-180.08,-0.3,-0.24,-0.37,0.07,-0.07,1.03,1000
17:19:50.814,-3.72,-4.03,-180.09,-0.37,-0.18,-0.37,0.07,-0.07,1.02,1000
17:19:50.840,-3.72,-4.02,-180.09,-0.37,-0.43,-0.43,0.07,-0.07,1.02,1000
17:19:50.840,-3.72,-4.02,-180.1,-0.18,-0.24,-0.55,0.07,-0.07,1.03,1000
17:19:50.847,-3.73,-4.02,-180.1,-0.24,-0.18,-0.67,0.07,-0.07,1.03,1000
17:19:50.858,-3.73,-4.02,-180.11,-0.12,-0.24,-0.43,0.07,-0.07,1.02,1000
17:19:50.869,-3.73,-4.03,-180.11,-0.24,-0.3,-0.55,0.07,-0.07,1.02,1000
17:19:50.883,-3.73,-4.04,-180.12,-0.24,-0.3,-0.49,0.07,-0.07,1.02,1000
17:19:50.891,-3.73,-4.04,-180.12,-0.18,-0.24,-0.37,0.07,-0.07,1.03,1000
17:19:50.902,-3.73,-4.04,-180.13,-0.3,-0.24,-0.55,0.07,-0.06,1.03,1000
17:19:50.913,-3.72,-4.04,-180.14,-0.3,-0.3,-0.55,0.07,-0.07,1.02,1000
17:19:50.925,-3.71,-4.04,-180.14,-0.43,-0.37,-0.61,0.07,-0.07,1.02,1000
17:19:50.937,-3.71,-4.04,-180.15,-0.24,-0.18,-0.49,0.07,-0.07,1.02,1000
17:19:50.946,-3.71,-4.05,-180.15,-0.37,-0.37,-0.61,0.07,-0.07,1.03,1000
17:19:50.957,-3.71,-4.05,-180.16,-0.24,-0.12,-0.49,0.07,-0.06,1.03,1000
17:19:50.968,-3.71,-4.05,-180.16,-0.37,-0.18,-0.73,0.07,-0.07,1.02,1000
17:19:50.981,-3.7,-4.05,-180.17,-0.3,-0.3,-0.49,0.07,-0.07,1.02,1000
17:19:50.994,-3.7,-4.04,-180.18,-0.37,-0.24,-0.37,0.07,-0.07,1.03,1000
17:19:51.001,-3.71,-4.04,-180.18,-0.37,-0.06,-0.37,0.07,-0.07,1.02,1000
17:19:51.013,-3.71,-4.04,-180.19,-0.12,-0.24,-0.49,0.07,-0.07,1.02,1000
17:19:51.023,-3.7,-4.04,-180.19,-0.24,-0.3,-0.55,0.07,-0.06,1.03,1000
17:19:51.034,-3.7,-4.04,-180.2,-0.37,-0.24,-0.61,0.07,-0.07,1.02,1000
17:19:51.045,-3.7,-4.04,-180.21,-0.24,-0.18,-0.55,0.07,-0.07,1.02,1000
17:19:51.056,-3.71,-4.05,-180.21,-0.24,-0.06,-0.37,0.07,-0.07,1.03,1000
17:19:51.068,-3.71,-4.05,-180.22,-0.24,-0.18,-0.49,0.07,-0.06,1.03,1000
17:19:51.080,-3.7,-4.04,-180.22,-0.37,-0.24,-0.67,0.07,-0.06,1.02,1000
17:19:51.090,-3.7,-4.03,-180.23,-0.37,-0.24,-0.55,0.07,-0.07,1.02,1000
17:19:51.100,-3.72,-4.03,-180.24,-0.3,-0.24,-0.61,0.07,-0.07,1.03,1000
17:19:51.111,-3.73,-4.04,-180.24,-0.18,-0.18,-0.43,0.07,-0.06,1.03,1000
17:19:51.122,-3.72,-4.04,-180.25,-0.37,-0.37,-0.85,0.07,-0.07,1.02,1000
17:19:51.133,-3.71,-4.04,-180.26,-0.37,-0.49,-0.37,0.07,-0.07,1.02,1000
17:19:51.144,-3.71,-4.04,-180.26,-0.24,-0.3,-0.24,0.07,-0.07,1.03,1000
17:19:51.155,-3.72,-4.05,-180.27,-0.3,-0.18,-0.49,0.07,-0.07,1.03,1000
17:19:51.166,-3.72,-4.04,-180.27,-0.37,-0.24,-0.37,0.07,-0.07,1.03,1000
17:19:51.180,-3.72,-4.04,-180.28,-0.3,-0.37,-0.79,0.07,-0.06,1.02,1000
17:19:51.190,-3.71,-4.04,-180.28,-0.49,-0.18,-0.61,0.07,-0.07,1.03,1000
17:19:51.199,-3.72,-4.04,-180.29,-0.24,-0.18,-0.37,0.07,-0.07,1.02,1000
17:19:51.210,-3.72,-4.04,-180.29,-0.37,-0.24,-0.49,0.07,-0.07,1.02,1000
17:19:51.222,-3.72,-4.03,-180.3,-0.18,-0.3,-0.61,0.07,-0.06,1.03,1000
17:19:51.233,-3.71,-4.02,-180.31,-0.37,-0.55,-0.49,0.07,-0.07,1.02,1000
17:19:51.244,-3.72,-4.03,-180.31,-0.3,-0.18,-0.67,0.08,-0.07,1.02,1000
17:19:51.254,-3.72,-4.04,-180.32,-0.3,-0.3,-0.43,0.07,-0.07,1.03,1000
17:19:51.266,-3.72,-4.04,-180.32,-0.37,-0.3,-0.43,0.07,-0.07,1.03,1000
17:19:51.276,-3.72,-4.04,-180.33,-0.3,-0.24,-0.67,0.07,-0.07,1.03,1000
17:19:51.289,-3.71,-4.03,-180.34,-0.3,-0.3,-0.73,0.07,-0.07,1.02,1000
17:19:51.298,-3.71,-4.04,-180.34,-0.3,-0.24,-0.43,0.07,-0.07,1.02,1000
17:19:51.309,-3.72,-4.04,-180.35,-0.37,-0.18,-0.49,0.07,-0.06,1.03,1000
17:19:51.320,-3.71,-4.03,-180.35,-0.24,-0.37,-0.67,0.07,-0.07,1.03,1000
17:19:51.331,-3.71,-4.03,-180.36,-0.3,-0.3,-0.49,0.07,-0.07,1.03,1000
17:19:51.342,-3.71,-4.03,-180.36,-0.24,-0.24,-0.61,0.07,-0.07,1.03,1000
17:19:51.355,-3.72,-4.04,-180.37,-0.24,-0.18,-0.49,0.07,-0.07,1.02,1000
17:19:51.364,-3.73,-4.05,-180.37,-0.37,-0.18,-0.43,0.07,-0.07,1.03,1000
17:19:51.377,-3.73,-4.05,-180.38,-0.43,-0.3,-0.61,0.07,-0.07,1.02,1000
17:19:51.391,-3.73,-4.05,-180.39,-0.3,-0.12,-0.61,0.07,-0.07,1.03,1000
17:19:51.399,-3.73,-4.05,-180.39,-0.3,-0.18,-0.55,0.07,-0.07,1.02,1000
17:19:51.408,-3.73,-4.04,-180.4,-0.37,-0.24,-0.67,0.08,-0.07,1.02,1000
17:19:51.421,-3.73,-4.04,-180.4,-0.24,-0.3,-0.37,0.07,-0.07,1.03,1000
17:19:51.432,-3.73,-4.03,-180.41,-0.37,-0.37,-0.37,0.07,-0.07,1.03,1000
17:19:51.441,-3.72,-4.03,-180.41,-0.3,-0.18,-0.43,0.07,-0.07,1.02,1000
