Timestamp,Roll,Pitch,Yaw,Gyro_X,Gyro_Y,Gyro_Z,Accel_X,Accel_Y,Accel_Z,Throttle
17:16:13.022,-7.83,-4.07,-103.12,2.38,-1.34,-6.95,0.09,-0.16,1.02,1000
17:16:13.032,-8.03,-4.21,-103.2,3.17,-1.22,-7.2,0.1,-0.16,1.02,1000
17:16:13.043,-8.2,-4.45,-103.28,3.72,-0.85,-6.46,0.1,-0.15,1.02,1000
17:16:13.056,-8.23,-4.67,-103.34,3.84,-0.3,-5.06,0.11,-0.15,1.02,1000
17:16:13.065,-8.19,-4.89,-103.39,3.84,0.3,-3.17,0.11,-0.14,1.02,1000
17:16:13.077,-8.09,-5.07,-103.41,3.96,0.43,-0.49,0.1,-0.13,1.01,1000
17:16:13.087,-7.93,-5.18,-103.4,3.6,0.49,2.26,0.09,-0.13,1.01,1000
17:16:13.098,-7.78,-5.17,-103.37,3.23,0.12,4.7,0.08,-0.13,1.01,1000
17:16:13.109,-7.61,-5.04,-103.3,2.74,-1.16,6.71,0.07,-0.12,1.01,1000
17:16:13.121,-7.43,-4.8,-103.22,2.07,-2.26,7.44,0.06,-0.12,1.02,1000
17:16:13.134,-7.31,-4.58,-103.15,1.4,-3.05,7.2,0.06,-0.13,1.03,1000
17:16:13.142,-7.23,-4.39,-103.07,0.24,-3.17,5.43,0.07,-0.13,1.04,1000
17:16:13.153,-7.22,-4.3,-103.03,-0.73,-2.38,3.05,0.08,-0.14,1.05,1000
17:16:13.164,-7.28,-4.28,-103.01,-1.65,-1.04,-0.12,0.09,-0.15,1.05,1000
17:16:13.178,-7.36,-4.34,-103.02,-1.46,0.12,-2.56,0.1,-0.15,1.05,1000
17:16:13.186,-7.44,-4.46,-103.06,-1.46,1.71,-4.45,0.1,-0.14,1.04,1000
17:16:13.197,-7.49,-4.62,-103.11,-0.24,2.74,-4.63,0.1,-0.14,1.03,1000
17:16:13.209,-7.46,-4.74,-103.16,1.16,2.8,-4.15,0.09,-0.13,1.03,1000
17:16:13.220,-7.37,-4.79,-103.2,2.68,3.29,-2.56,0.09,-0.12,1.01,1000
17:16:13.230,-7.28,-4.78,-103.22,4.09,3.54,-1.16,0.08,-0.12,1.01,1000
17:16:13.243,-7.2,-4.73,-103.23,4.82,3.23,0.49,0.07,-0.13,1.0,1000
17:16:13.253,-7.15,-4.64,-103.22,5.06,2.44,1.28,0.08,-0.13,1.0,1000
17:16:13.266,-7.15,-4.56,-103.2,4.51,1.89,1.16,0.08,-0.13,1.0,1000
17:16:13.286,-7.17,-4.5,-103.19,3.54,1.16,0.37,0.08,-0.14,1.0,1000
17:16:13.287,-7.24,-4.49,-103.2,2.01,0.49,-1.16,0.08,-0.13,1.0,1000
17:16:13.297,-7.32,-4.48,-103.21,0.91,0.18,-2.13,0.07,-0.14,1.0,1000
17:16:13.307,-7.44,-4.43,-103.24,-0.3,-0.24,-3.05,0.07,-0.15,1.0,1000
17:16:13.318,-7.59,-4.33,-103.27,-0.91,-0.55,-3.23,0.07,-0.14,1.0,1000
17:16:13.329,-7.7,-4.24,-103.31,-1.34,-1.4,-3.11,0.07,-0.14,1.01,1000
17:16:13.340,-7.76,-4.21,-103.34,-1.4,-2.07,-2.38,0.08,-0.13,1.01,1000
17:16:13.352,-7.73,-4.28,-103.36,-1.65,-3.11,-1.4,0.09,-0.13,1.02,1000
17:16:13.362,-7.68,-4.4,-103.37,-1.52,-4.02,-0.18,0.1,-0.13,1.03,1000
17:16:13.384,-7.61,-4.6,-103.37,-1.52,-4.51,0.55,0.1,-0.13,1.04,1000
17:16:13.385,-7.55,-4.84,-103.36,-0.85,-4.02,1.16,0.11,-0.14,1.04,1000
17:16:13.395,-7.54,-5.05,-103.35,-0.18,-2.62,1.46,0.11,-0.14,1.05,1000
17:16:13.406,-7.53,-5.21,-103.33,0.79,0.18,1.89,0.1,-0.14,1.04,1000
17:16:13.417,-7.52,-5.29,-103.31,1.95,2.32,2.62,0.1,-0.13,1.04,1000
17:16:13.430,-7.46,-5.29,-103.27,3.11,3.6,3.66,0.09,-0.13,1.03,1000
17:16:13.441,-7.37,-5.21,-103.23,4.02,3.72,4.33,0.08,-0.13,1.02,1000
17:16:13.450,-7.28,-5.03,-103.18,4.7,2.87,5.06,0.06,-0.13,1.02,1000
17:16:13.463,-7.2,-4.75,-103.12,5.18,1.83,5.24,0.05,-0.12,1.01,1000
17:16:13.473,-7.12,-4.39,-103.06,5.24,1.28,4.82,0.05,-0.12,1.01,1000
17:16:13.483,-7.03,-4.03,-103.01,4.82,1.16,4.21,0.04,-0.12,1.02,1000
17:16:13.494,-6.91,-3.73,-102.97,3.84,1.22,2.8,0.05,-0.12,1.02,1000
17:16:13.505,-6.77,-3.48,-102.95,2.74,1.34,0.91,0.06,-0.11,1.03,1000
17:16:13.516,-6.67,-3.38,-102.95,1.46,1.22,-0.85,0.07,-0.12,1.03,1000
17:16:13.527,-6.61,-3.41,-102.97,0.79,1.59,-2.93,0.08,-0.12,1.03,1000
17:16:13.538,-6.6,-3.52,-103.01,0.43,2.13,-4.39,0.08,-0.12,1.02,1000
17:16:13.550,-6.66,-3.68,-103.06,0.06,2.87,-5.18,0.09,-0.13,1.01,1000
17:16:13.560,-6.78,-3.89,-103.12,0.12,3.05,-5.49,0.09,-0.13,1.0,1000
17:16:13.572,-6.96,-4.07,-103.18,0.43,2.32,-5.0,0.08,-0.14,1.0,1000
17:16:13.592,-7.11,-4.18,-103.23,0.37,0.85,-4.02,0.09,-0.15,1.0,1000
17:16:13.593,-7.32,-4.3,-103.27,0.55,-0.98,-2.8,0.09,-0.15,1.01,1000
17:16:13.604,-7.53,-4.45,-103.29,0.43,-2.13,-1.4,0.09,-0.15,1.02,1000
17:16:13.615,-7.67,-4.6,-103.3,0.18,-1.89,0.37,0.09,-0.14,1.02,1000
17:16:13.628,-7.75,-4.72,-103.29,-0.06,-0.73,1.71,0.09,-0.14,1.03,1000
17:16:13.637,-7.78,-4.81,-103.26,-0.24,0.79,3.23,0.09,-0.14,1.04,1000
17:16:13.648,-7.74,-4.84,-103.22,-0.91,2.56,4.45,0.09,-0.13,1.03,1000
17:16:13.659,-7.65,-4.81,-103.17,-1.4,4.09,5.49,0.08,-0.13,1.03,1000
17:16:13.670,-7.52,-4.73,-103.1,-2.26,4.51,6.52,0.08,-0.12,1.03,1000
17:16:13.683,-7.41,-4.62,-103.03,-3.05,4.33,7.07,0.06,-0.12,1.02,1000
17:16:13.698,-7.3,-4.42,-102.95,-3.54,3.54,7.5,0.06,-0.12,1.02,1000
17:16:13.703,-7.2,-4.25,-102.87,-4.33,2.8,7.07,0.06,-0.12,1.03,1000
17:16:13.714,-7.12,-4.1,-102.79,-4.76,2.74,6.71,0.06,-0.11,1.03,1000
17:16:13.726,-7.06,-3.93,-102.72,-4.82,1.77,5.85,0.06,-0.13,1.04,1000
17:16:13.736,-7.05,-3.74,-102.66,-4.27,1.22,5.06,0.05,-0.13,1.03,1000
17:16:13.748,-7.09,-3.59,-102.61,-2.93,1.46,3.78,0.06,-0.13,1.03,1000
17:16:13.758,-7.14,-3.53,-102.57,-1.71,2.07,2.74,0.07,-0.13,1.03,1000
17:16:13.769,-7.2,-3.55,-102.55,-0.12,1.89,2.07,0.07,-0.13,1.02,1000
17:16:13.780,-7.22,-3.6,-102.53,1.22,1.34,1.52,0.07,-0.13,1.02,1000
17:16:13.795,-7.21,-3.64,-102.51,2.38,0.49,1.83,0.07,-0.13,1.03,1000
17:16:13.802,-7.15,-3.69,-102.49,3.29,-0.73,2.32,0.08,-0.12,1.03,1000
17:16:13.813,-7.06,-3.79,-102.46,3.78,-1.4,2.99,0.08,-0.12,1.04,1000
17:16:13.824,-6.94,-3.92,-102.42,4.09,-1.59,3.84,0.09,-0.12,1.04,1000
17:16:13.841,-6.8,-4.09,-102.38,4.57,-1.52,4.57,0.09,-0.11,1.05,1000
17:16:13.846,-6.66,-4.23,-102.32,4.82,-0.67,5.37,0.09,-0.11,1.04,1000
17:16:13.857,-6.43,-4.38,-102.26,5.3,0.24,6.16,0.09,-0.1,1.04,1000
17:16:13.871,-6.19,-4.47,-102.19,5.67,1.71,6.52,0.09,-0.09,1.04,1000
17:16:13.880,-5.95,-4.51,-102.12,5.55,2.74,6.71,0.08,-0.09,1.03,1000
17:16:13.893,-5.72,-4.47,-102.05,5.37,3.35,5.85,0.07,-0.1,1.02,1000
17:16:13.902,-5.59,-4.38,-101.99,4.76,3.23,4.7,0.06,-0.1,1.02,1000
17:16:13.912,-5.52,-4.22,-101.94,3.72,3.11,3.72,0.06,-0.1,1.02,1000
17:16:13.923,-5.49,-4.01,-101.91,2.74,3.54,2.56,0.05,-0.1,1.02,1000
17:16:13.934,-5.48,-3.78,-101.88,1.95,4.02,2.13,0.06,-0.1,1.01,1000
17:16:13.945,-5.45,-3.61,-101.86,0.98,4.94,2.2,0.06,-0.09,1.0,1000
17:16:13.960,-5.38,-3.46,-101.84,-0.06,6.16,2.26,0.05,-0.1,1.01,1000
17:16:13.968,-5.35,-3.32,-101.81,-0.98,8.05,2.56,0.05,-0.09,1.0,1000
17:16:13.983,-5.34,-3.17,-101.78,-1.77,10.24,2.44,0.05,-0.1,1.01,1000
17:16:13.991,-5.42,-2.98,-101.75,-2.93,10.49,1.77,0.04,-0.12,1.01,1000
17:16:14.002,-5.61,-2.76,-101.74,-4.02,10.06,0.49,0.03,-0.13,1.01,1000
17:16:14.011,-5.96,-2.47,-101.74,-4.57,9.02,-0.61,0.02,-0.15,1.02,1000
17:16:14.025,-6.4,-2.19,-101.75,-4.33,7.62,-0.79,0.03,-0.15,1.01,1000
17:16:14.033,-6.76,-2.0,-101.76,-3.54,6.04,-0.55,0.04,-0.15,1.01,1000
17:16:14.044,-7.14,-1.95,-101.76,-1.89,4.88,-0.06,0.05,-0.14,1.01,1000
17:16:14.056,-7.42,-2.01,-101.76,-0.49,3.48,1.16,0.06,-0.15,1.02,1000
17:16:14.066,-7.57,-2.13,-101.74,1.1,3.54,2.74,0.05,-0.14,1.02,1000
17:16:14.077,-7.62,-2.24,-101.7,2.93,4.63,4.63,0.05,-0.14,1.03,1000
17:16:14.088,-7.66,-2.27,-101.64,4.39,6.46,5.98,0.04,-0.15,1.04,1000
17:16:14.107,-7.75,-2.23,-101.57,5.61,8.17,6.71,0.04,-0.16,1.04,1000
17:16:14.110,-7.9,-2.12,-101.5,6.4,9.94,7.13,0.03,-0.16,1.03,1000
17:16:14.122,-8.01,-1.94,-101.41,6.83,10.98,7.68,0.02,-0.15,1.03,1000
17:16:14.132,-8.1,-1.64,-101.33,6.4,11.34,8.17,0.02,-0.16,1.04,1000
17:16:14.146,-8.15,-1.38,-101.23,6.22,10.85,8.72,0.01,-0.15,1.04,1000
17:16:14.154,-8.13,-1.17,-101.13,6.28,9.57,9.57,0.02,-0.14,1.05,1000
17:16:14.165,-8.03,-1.05,-101.02,6.71,8.6,10.18,0.03,-0.13,1.05,1000
17:16:14.176,-7.88,-1.0,-100.91,7.62,9.94,10.61,0.03,-0.13,1.05,1000
17:16:14.187,-7.68,-0.98,-100.79,11.1,9.02,10.79,0.03,-0.13,1.08,1000
17:16:14.207,-7.46,-1.04,-100.68,16.1,7.74,9.76,0.04,-0.14,1.08,1000
17:16:14.209,-7.31,-1.08,-100.59,21.89,7.32,8.11,0.02,-0.16,1.1,1000
17:16:14.220,-7.21,-1.0,-100.5,32.5,7.38,5.55,-0.0,-0.18,1.09,1000
17:16:14.231,-7.15,-0.84,-100.45,43.54,7.5,3.23,0.01,-0.16,1.08,1000
17:16:14.242,-6.92,-0.7,-100.43,54.82,8.72,-0.12,0.03,-0.12,1.09,1000
17:16:14.253,-6.33,-0.74,-100.45,65.24,9.21,-4.15,0.04,-0.08,1.08,1000
17:16:14.267,-5.45,-0.86,-100.53,77.13,8.35,-9.82,0.02,-0.08,1.09,1000
17:16:14.277,-4.48,-0.86,-100.67,89.63,6.83,-16.4,-0.01,-0.08,1.09,1000
17:16:14.290,-3.64,-0.64,-100.86,102.8,5.24,-22.87,-0.03,-0.09,1.09,1000
17:16:14.300,-2.72,-0.28,-101.18,117.5,4.21,-30.61,-0.02,-0.08,1.07,1000
17:16:14.309,-1.83,0.0,-101.54,127.68,6.4,-35.79,-0.0,-0.03,1.07,1000
17:16:14.319,-0.69,0.15,-101.95,133.78,10.91,-38.84,0.02,0.03,1.06,1000
17:16:14.330,0.84,0.14,-102.38,135.3,17.68,-38.96,0.02,0.09,1.06,1000
17:16:14.345,2.53,0.13,-102.77,132.74,25.12,-37.8,0.01,0.12,1.05,1000
17:16:14.353,4.4,0.3,-103.2,125.91,32.56,-34.27,0.01,0.16,1.05,1000
17:16:14.363,6.2,0.5,-103.56,118.48,36.4,-30.12,-0.01,0.18,1.05,1000
17:16:14.375,7.88,0.78,-103.86,109.45,38.84,-25.18,-0.01,0.19,1.05,1000
17:16:14.385,9.37,1.07,-104.12,101.1,39.88,-20.85,-0.01,0.21,1.04,1000
17:16:14.397,10.61,1.34,-104.33,93.6,40.67,-17.32,0.01,0.23,1.05,1000
17:16:14.409,11.64,1.44,-104.49,89.94,40.98,-15.49,0.01,0.24,1.07,1000
17:16:14.418,12.69,1.45,-104.68,90.91,42.68,-15.06,-0.0,0.23,1.07,1000
17:16:14.429,13.37,1.53,-104.83,94.88,45.73,-16.22,-0.02,0.21,1.07,1000
17:16:14.440,13.93,1.83,-105.03,101.22,51.59,-18.05,-0.04,0.21,1.06,1000
17:16:14.452,14.35,2.31,-105.24,107.07,58.72,-19.57,-0.06,0.23,1.04,1000
17:16:14.462,14.89,2.96,-105.46,110.3,64.76,-19.51,-0.08,0.25,1.02,1000
17:16:14.474,15.63,3.71,-105.66,110.67,68.66,-17.68,-0.09,0.3,1.0,1000
17:16:14.484,16.66,4.54,-105.84,108.78,69.76,-13.66,-0.11,0.34,0.98,1000
17:16:14.495,17.9,5.4,-105.96,106.4,70.18,-8.11,-0.12,0.37,0.97,1000
17:16:14.506,19.2,6.2,-106.02,105.49,69.94,-1.28,-0.13,0.38,0.96,1000
17:16:14.517,20.49,6.99,-106.0,107.44,69.82,5.12,-0.14,0.38,0.94,1000
17:16:14.529,21.68,7.78,-105.91,110.06,70.06,11.22,-0.14,0.38,0.9,1000
17:16:14.540,22.87,8.48,-105.76,112.01,69.09,16.65,-0.14,0.41,0.87,1000
17:16:14.551,24.13,9.08,-105.56,112.93,66.65,20.49,-0.15,0.44,0.87,1000
17:16:14.563,25.58,9.59,-105.32,113.35,63.9,23.72,-0.17,0.49,0.86,1000
17:16:14.574,27.21,10.13,-105.05,112.62,63.23,25.37,-0.18,0.53,0.84,1000
17:16:14.584,28.8,10.65,-104.79,110.12,63.72,25.85,-0.19,0.55,0.83,1000
17:16:14.597,30.54,11.32,-104.48,106.16,64.63,24.63,-0.21,0.57,0.81,1000
17:16:14.607,32.14,11.99,-104.22,103.48,64.76,22.74,-0.23,0.58,0.8,1000
17:16:14.617,33.49,12.64,-104.01,101.65,64.82,20.0,-0.24,0.58,0.78,1000
17:16:14.627,34.92,13.41,-103.79,99.09,66.16,16.1,-0.26,0.59,0.74,1000
17:16:14.638,36.07,14.06,-103.64,95.37,66.04,13.29,-0.21,0.62,0.75,1000
17:16:14.649,37.53,14.55,-103.5,90.0,66.34,9.76,-0.23,0.69,0.72,1000
17:16:14.660,39.17,14.82,-103.4,84.45,63.29,7.13,-0.25,0.71,0.68,1000
17:16:14.671,40.89,15.18,-103.34,76.95,56.16,4.21,-0.27,0.72,0.63,1000
17:16:14.682,42.45,15.66,-103.31,70.12,46.77,1.77,-0.29,0.71,0.63,1000
17:16:14.693,43.9,16.22,-103.3,62.62,37.38,-0.55,-0.3,0.71,0.6,1000
17:16:14.704,45.01,16.74,-103.31,55.24,31.16,-2.44,-0.3,0.72,0.6,1000
17:16:14.716,45.91,17.18,-103.35,47.44,28.11,-3.96,-0.3,0.71,0.6,1000
17:16:14.726,46.55,17.52,-103.4,38.35,26.28,-5.67,-0.3,0.7,0.59,1000
17:16:14.738,46.96,17.85,-103.47,28.23,24.51,-7.32,-0.3,0.7,0.59,1000
17:16:14.748,47.22,18.11,-103.56,15.85,21.77,-8.9,-0.31,0.72,0.59,1000
17:16:14.759,47.37,18.27,-103.66,2.87,20.18,-10.0,-0.3,0.74,0.59,1000
17:16:14.771,47.5,18.31,-103.77,-11.71,19.51,-10.37,-0.29,0.75,0.59,1000
17:16:14.783,47.56,18.24,-103.89,-26.16,19.39,-11.4,-0.29,0.75,0.59,1000
17:16:14.792,47.46,18.2,-104.02,-38.48,18.9,-12.26,-0.3,0.72,0.59,1000
17:16:14.803,47.19,18.23,-104.16,-50.37,17.07,-12.99,-0.31,0.7,0.58,1000
17:16:14.815,46.69,18.46,-104.3,-60.73,12.5,-13.35,-0.33,0.68,0.56,1000
17:16:14.826,46.03,18.8,-104.45,-70.98,5.67,-13.05,-0.35,0.67,0.56,1000
17:16:14.837,45.31,19.32,-104.59,-81.83,-3.11,-12.07,-0.35,0.67,0.56,1000
17:16:14.848,44.59,19.8,-104.72,-93.05,-11.89,-10.98,-0.36,0.66,0.56,1000
17:16:14.859,43.76,20.24,-104.83,-105.12,-21.16,-9.51,-0.36,0.63,0.57,1000
17:16:14.869,42.73,20.53,-104.93,-117.44,-29.57,-8.48,-0.36,0.62,0.59,1000
17:16:14.881,41.53,20.69,-105.02,-130.37,-35.91,-7.01,-0.35,0.59,0.61,1000
17:16:14.891,40.16,20.69,-105.09,-143.05,-40.3,-5.67,-0.35,0.58,0.63,1000
17:16:14.904,38.61,20.64,-105.14,-154.21,-42.74,-3.84,-0.34,0.55,0.65,1000
17:16:14.916,36.92,20.5,-105.17,-165.85,-43.9,-2.07,-0.34,0.52,0.68,1000
17:16:14.927,35.07,20.29,-105.19,-176.28,-45.06,-0.24,-0.33,0.5,0.71,1000
17:16:14.936,33.06,20.01,-105.18,-186.34,-46.46,1.77,-0.32,0.47,0.74,1000
17:16:14.948,30.89,19.65,-105.15,-194.33,-47.13,3.72,-0.31,0.44,0.77,1000
17:16:14.957,28.53,19.24,-105.1,-200.3,-47.93,5.37,-0.31,0.4,0.8,1000
17:16:14.969,26.05,18.82,-105.03,-203.6,-47.8,7.01,-0.31,0.35,0.82,1000
17:16:14.979,23.41,18.41,-104.95,-203.84,-47.13,7.87,-0.28,0.31,0.85,1000
17:16:14.990,20.85,17.89,-104.86,-201.71,-45.49,7.93,-0.26,0.26,0.87,1000
17:16:15.001,18.21,17.23,-104.78,-198.23,-43.72,7.38,-0.25,0.22,0.89,1000
17:16:15.022,15.67,16.53,-104.7,-194.27,-42.01,6.28,-0.24,0.19,0.9,1000
17:16:15.026,13.24,15.82,-104.64,-190.85,-41.89,5.55,-0.22,0.15,0.92,1000
17:16:15.035,10.93,15.09,-104.58,-186.95,-43.35,4.63,-0.23,0.14,0.94,1000
17:16:15.048,8.67,14.41,-104.53,-183.11,-45.79,3.84,-0.24,0.08,0.97,1000
17:16:15.057,6.37,13.8,-104.5,-178.11,-48.17,2.68,-0.23,0.04,0.98,1000
17:16:15.068,3.98,13.14,-104.47,-171.77,-48.35,1.59,-0.2,-0.0,0.99,1000
17:16:15.080,1.59,12.35,-104.46,-165.73,-46.46,0.43,-0.18,-0.05,1.0,1000
17:16:15.090,-0.39,11.68,-104.46,-161.04,-43.48,-0.06,-0.18,-0.07,1.0,1000
17:16:15.100,-2.61,10.93,-104.46,-156.34,-40.37,0.43,-0.16,-0.09,1.0,1000
17:16:15.111,-4.54,10.24,-104.45,-153.6,-38.72,1.46,-0.15,-0.11,0.99,1000
17:16:15.129,-6.3,9.58,-104.43,-152.56,-36.28,2.8,-0.15,-0.13,1.01,1000
17:16:15.134,-7.96,8.98,-104.39,-153.66,-33.48,4.57,-0.15,-0.16,1.04,1000
17:16:15.144,-9.56,8.51,-104.33,-155.12,-30.12,6.04,-0.15,-0.21,1.06,1000
17:16:15.156,-11.19,8.07,-104.25,-156.1,-26.04,7.87,-0.12,-0.24,1.06,1000
17:16:15.166,-12.85,7.6,-104.16,-155.55,-21.71,9.39,-0.11,-0.27,1.06,1000
17:16:15.177,-14.47,7.13,-104.05,-153.05,-16.28,11.22,-0.11,-0.3,1.05,1000
17:16:15.190,-16.13,6.7,-103.91,-150.12,-11.4,12.74,-0.11,-0.34,1.03,1000
17:16:15.199,-17.82,6.43,-103.77,-146.52,-7.99,14.15,-0.12,-0.37,1.01,1000
17:16:15.211,-19.51,6.27,-103.6,-142.93,-7.8,15.79,-0.13,-0.4,1.01,1000
17:16:15.227,-21.06,6.23,-103.42,-139.15,-8.17,17.44,-0.14,-0.41,1.01,1000
17:16:15.233,-22.45,6.28,-103.22,-135.61,-7.2,19.45,-0.14,-0.42,1.01,1000
17:16:15.243,-23.68,6.37,-103.0,-133.41,-4.39,21.52,-0.14,-0.44,1.01,1000
17:16:15.254,-24.82,6.54,-102.75,-132.07,-0.61,23.17,-0.15,-0.46,0.99,1000
17:16:15.265,-25.96,6.75,-102.49,-130.3,2.8,24.33,-0.15,-0.48,0.97,1000
17:16:15.277,-27.08,6.97,-102.22,-129.15,4.88,25.24,-0.14,-0.48,0.94,1000
17:16:15.291,-28.13,7.12,-101.94,-128.96,5.73,26.1,-0.13,-0.47,0.91,1000
17:16:15.301,-28.99,7.21,-101.65,-129.02,5.37,26.46,-0.13,-0.47,0.91,1000
17:16:15.316,-29.8,7.33,-101.36,-127.74,3.66,26.1,-0.16,-0.49,0.9,1000
17:16:15.329,-30.64,7.58,-101.07,-123.11,1.22,24.76,-0.18,-0.53,0.89,1000
17:16:15.335,-31.56,7.93,-100.81,-114.88,-1.04,21.77,-0.19,-0.57,0.88,1000
17:16:15.343,-32.5,8.35,-100.61,-103.48,-2.07,18.29,-0.19,-0.6,0.87,1000
17:16:15.353,-33.57,8.68,-100.43,-86.89,-2.56,13.96,-0.18,-0.63,0.86,1000
17:16:15.364,-34.61,8.86,-100.29,-64.88,-3.48,9.45,-0.16,-0.65,0.86,1000
17:16:15.375,-35.36,8.86,-100.21,-40.18,-5.0,5.0,-0.16,-0.67,0.86,1000
17:16:15.387,-35.9,8.73,-100.17,-14.63,-5.98,0.98,-0.14,-0.68,0.85,1000
17:16:15.397,-36.21,8.53,-100.18,10.3,-5.55,-2.44,-0.13,-0.68,0.84,1000
17:16:15.408,-36.34,8.2,-100.23,37.68,-4.88,-6.22,-0.13,-0.66,0.84,1000
17:16:15.419,-36.24,7.9,-100.3,56.46,-4.09,-8.48,-0.12,-0.64,0.84,1000
17:16:15.436,-35.73,7.64,-100.41,71.34,-4.82,-10.0,-0.14,-0.61,0.86,1000
17:16:15.442,-34.94,7.51,-100.53,77.56,-7.5,-10.85,-0.15,-0.58,0.89,1000
17:16:15.453,-33.85,7.48,-100.65,77.74,-8.9,-11.16,-0.16,-0.53,0.91,1000
17:16:15.464,-32.49,7.57,-100.77,74.09,-6.95,-10.67,-0.16,-0.51,0.92,1000
17:16:15.475,-31.13,7.69,-100.89,68.66,-2.38,-10.43,-0.15,-0.5,0.93,1000
17:16:15.486,-29.88,7.76,-101.0,63.48,2.93,-10.18,-0.13,-0.5,0.94,1000
17:16:15.497,-28.81,7.77,-101.11,59.88,8.35,-10.18,-0.13,-0.49,0.93,1000
17:16:15.508,-27.91,7.79,-101.22,58.9,12.93,-10.0,-0.14,-0.49,0.93,1000
17:16:15.519,-27.24,7.86,-101.32,60.67,14.27,-9.63,-0.14,-0.48,0.93,1000
17:16:15.529,-26.54,7.98,-101.43,66.28,13.9,-9.39,-0.14,-0.48,0.92,1000
17:16:15.543,-25.94,8.07,-101.54,72.8,12.38,-9.57,-0.14,-0.48,0.91,1000
17:16:15.552,-25.44,8.12,-101.64,80.85,11.04,-9.82,-0.15,-0.47,0.93,1000
17:16:15.563,-24.86,8.23,-101.75,89.02,10.67,-10.12,-0.16,-0.46,0.94,1000
17:16:15.574,-24.17,8.34,-101.86,96.28,11.22,-10.24,-0.14,-0.44,0.95,1000
17:16:15.585,-23.41,8.39,-101.98,102.2,13.6,-10.85,-0.14,-0.42,0.94,1000
17:16:15.598,-22.58,8.42,-102.1,106.46,17.13,-11.59,-0.14,-0.41,0.94,1000
17:16:15.608,-21.76,8.5,-102.22,108.84,20.49,-12.13,-0.15,-0.39,0.93,1000
17:16:15.621,-20.8,8.66,-102.37,108.41,23.17,-12.62,-0.16,-0.36,0.92,1000
17:16:15.641,-19.87,8.93,-102.5,105.79,23.35,-11.83,-0.19,-0.33,0.92,1000
17:16:15.644,-18.9,9.34,-102.62,101.52,21.95,-10.06,-0.2,-0.3,0.92,1000
17:16:15.651,-17.87,9.84,-102.72,97.62,20.18,-7.13,-0.2,-0.26,0.92,1000
17:16:15.662,-16.76,10.36,-102.78,92.07,18.17,-3.84,-0.19,-0.25,0.91,1000
17:16:15.672,-15.7,10.76,-102.81,86.04,15.91,-0.73,-0.19,-0.24,0.9,1000
17:16:15.684,-14.76,11.05,-102.8,79.27,11.83,2.38,-0.19,-0.23,0.9,1000
17:16:15.701,-13.87,11.3,-102.76,72.93,5.73,5.12,-0.22,-0.21,0.91,1000
17:16:15.705,-13.11,11.57,-102.71,68.17,-0.73,6.59,-0.25,-0.21,0.92,1000
17:16:15.724,-12.38,12.1,-102.62,64.63,-8.05,7.32,-0.27,-0.23,0.92,1000
17:16:15.728,-11.95,12.59,-102.55,63.72,-13.17,6.65,-0.27,-0.24,0.92,1000
17:16:15.743,-11.79,13.23,-102.48,64.39,-19.39,5.55,-0.26,-0.25,0.91,1000
17:16:15.749,-11.61,13.54,-102.42,66.16,-25.24,4.82,-0.25,-0.21,0.89,1000
17:16:15.760,-11.33,13.75,-102.37,67.68,-31.1,5.3,-0.25,-0.17,0.89,1000
17:16:15.771,-10.63,13.86,-102.3,68.6,-39.57,7.01,-0.25,-0.12,0.88,1000
17:16:15.783,-9.53,13.98,-102.21,68.48,-49.15,8.96,-0.26,-0.09,0.88,1000
17:16:15.794,-8.27,14.04,-102.1,68.54,-63.54,10.67,-0.26,-0.08,0.86,1000
17:16:15.804,-7.08,14.04,-101.98,70.06,-79.7,11.28,-0.25,-0.08,0.85,1000
17:16:15.815,-6.03,13.78,-101.86,72.07,-93.41,10.85,-0.22,-0.07,0.85,1000
17:16:15.827,-5.12,13.11,-101.75,71.95,-104.39,8.41,-0.17,-0.05,0.87,1000
17:16:15.839,-4.09,11.93,-101.68,68.54,-110.49,5.18,-0.11,0.0,0.89,1000
17:16:15.852,-2.79,10.34,-101.63,62.26,-113.78,1.83,-0.09,0.06,0.93,1000
17:16:15.859,-1.38,8.69,-101.63,53.41,-112.38,-1.77,-0.08,0.1,0.99,1000
17:16:15.870,0.35,6.94,-101.67,43.41,-110.79,-5.12,-0.04,0.11,1.02,1000
17:16:15.881,1.9,5.21,-101.74,35.24,-107.62,-8.6,-0.05,0.11,1.05,1000
17:16:15.909,3.07,3.71,-101.85,28.23,-102.99,-12.32,-0.02,0.08,1.07,1000
17:16:15.909,3.65,2.23,-102.01,22.87,-96.77,-16.71,0.02,0.04,1.1,1000
17:16:15.917,3.74,0.97,-102.2,18.29,-89.94,-19.88,0.04,0.04,1.11,1000
17:16:15.934,3.67,-0.4,-102.44,13.84,-81.89,-20.55,0.06,0.05,1.1,1000
17:16:15.941,3.59,-1.57,-102.65,12.44,-74.88,-17.2,0.07,0.06,1.07,1000
17:16:15.954,3.68,-2.51,-102.81,14.02,-68.9,-10.61,0.07,0.08,1.02,1000
17:16:15.960,4.14,-3.52,-102.9,17.07,-62.87,-2.68,0.16,0.17,0.98,1000
17:16:15.969,5.06,-4.82,-102.9,18.17,-60.0,0.91,0.23,0.2,0.98,1000
17:16:15.980,6.38,-6.85,-102.9,15.43,-59.82,-0.73,0.31,0.22,1.01,1000
17:16:15.991,7.51,-9.13,-102.94,8.05,-61.95,-8.78,0.3,0.16,1.08,1000
17:16:16.002,7.95,-10.87,-103.09,-0.55,-61.59,-20.73,0.27,0.11,1.12,1000
17:16:16.013,7.61,-12.11,-103.39,-10.55,-54.15,-34.63,0.24,0.04,1.17,1000
17:16:16.025,6.6,-12.6,-103.83,-20.0,-42.99,-46.59,0.2,-0.01,1.17,1000
17:16:16.035,5.43,-12.52,-104.33,-26.04,-31.04,-53.66,0.17,-0.0,1.18,1000
17:16:16.046,4.25,-12.15,-105.0,-29.15,-20.49,-58.23,0.16,0.01,1.13,1000
17:16:16.057,3.3,-11.67,-105.65,-28.41,-15.49,-58.66,0.19,0.02,1.09,1000
17:16:16.068,2.5,-11.49,-106.29,-27.2,-14.82,-57.68,0.28,0.03,1.05,1000
17:16:16.079,2.07,-11.98,-106.86,-26.71,-17.8,-56.4,0.31,0.04,1.06,1000
17:16:16.091,1.78,-12.77,-107.52,-24.88,-19.7,-53.78,0.3,0.04,1.05,1000
17:16:16.106,1.6,-13.54,-108.1,-22.99,-19.33,-51.83,0.29,0.03,1.08,1000
17:16:16.112,1.42,-14.05,-108.67,-20.91,-16.28,-50.91,0.26,0.02,1.08,1000
17:16:16.123,1.18,-14.13,-109.23,-16.83,-11.89,-50.91,0.21,0.01,1.09,1000
17:16:16.135,0.97,-13.8,-109.74,-10.85,-7.99,-51.34,0.17,-0.01,1.09,1000
17:16:16.149,0.62,-13.01,-110.36,-2.01,-4.15,-52.38,0.16,-0.02,1.07,1000
17:16:16.157,0.43,-12.34,-110.94,8.66,-0.06,-52.68,0.15,-0.02,1.03,1000
17:16:16.168,0.3,-11.59,-111.52,21.04,2.26,-53.11,0.19,-0.02,1.0,1000
17:16:16.179,0.32,-11.25,-112.1,34.51,0.73,-52.56,0.2,0.0,0.98,1000
17:16:16.190,0.59,-11.1,-112.67,47.01,-4.02,-50.85,0.18,-0.0,0.97,1000
17:16:16.201,0.93,-11.05,-113.22,61.04,-13.54,-48.48,0.18,-0.04,0.98,1000
17:16:16.213,1.02,-11.03,-113.69,74.7,-22.74,-45.0,0.13,-0.09,0.98,1000
17:16:16.223,0.94,-10.88,-114.2,90.98,-28.48,-38.96,0.15,-0.09,0.98,1000
17:16:16.235,0.54,-10.74,-114.62,103.78,-30.67,-31.22,0.19,-0.07,0.98,1000
17:16:16.258,0.71,-10.81,-114.9,113.11,-31.04,-21.95,0.14,-0.05,0.99,1000
17:16:16.259,0.98,-10.6,-115.07,123.05,-36.1,-8.54,0.1,-0.02,0.96,1000
17:16:16.266,1.67,-10.28,-115.09,135.0,-41.1,7.8,0.05,0.01,0.94,1000
17:16:16.277,2.43,-9.54,-114.91,148.48,-45.12,26.89,0.18,0.04,0.9,1000
17:16:16.288,3.64,-10.17,-114.54,158.23,-46.95,42.13,0.33,0.09,0.86,1000
17:16:16.299,5.24,-12.29,-114.02,163.17,-48.9,53.17,0.36,0.12,0.86,1000
17:16:16.310,7.08,-14.46,-113.38,166.71,-52.56,63.96,0.29,0.15,0.88,1000
17:16:16.321,8.86,-15.87,-112.63,170.98,-56.52,72.8,0.3,0.14,0.9,1000
17:16:16.332,10.5,-17.03,-111.79,174.02,-56.95,80.91,0.38,0.23,0.87,1000
17:16:16.349,12.52,-18.56,-110.87,173.41,-52.93,86.4,0.4,0.32,0.84,1000
17:16:16.358,14.76,-19.95,-109.98,171.71,-47.26,89.94,0.46,0.38,0.82,1000
17:16:16.365,17.56,-21.39,-108.9,163.72,-45.85,90.0,0.37,0.43,0.8,1000
17:16:16.376,20.24,-22.29,-107.92,151.77,-49.02,87.93,0.35,0.42,0.75,1000
17:16:16.388,22.72,-22.91,-106.97,138.96,-58.23,84.45,0.34,0.37,0.78,1000
17:16:16.399,24.27,-23.51,-106.06,130.12,-69.88,81.28,0.42,0.35,0.73,1000
17:16:16.411,25.33,-24.94,-105.19,123.11,-78.17,76.1,0.6,0.41,0.69,1000
17:16:16.420,26.27,-27.37,-104.38,112.93,-79.88,69.02,0.65,0.51,0.67,1000
17:16:16.433,27.38,-29.8,-103.66,100.3,-79.02,60.79,0.6,0.54,0.77,1000
17:16:16.443,28.46,-31.22,-103.04,87.13,-76.34,51.71,0.48,0.55,0.8,1000
17:16:16.461,29.28,-31.72,-102.56,74.94,-75.24,42.56,0.49,0.5,0.8,1000
17:16:16.464,29.59,-31.98,-102.1,61.16,-76.46,31.89,0.52,0.41,0.74,1000
17:16:16.475,29.25,-32.47,-101.82,52.13,-79.33,24.88,0.53,0.35,0.68,1000
17:16:16.486,28.51,-33.64,-101.55,46.77,-83.72,18.78,0.61,0.35,0.64,1000
17:16:16.497,27.63,-35.26,-101.36,48.35,-79.57,16.16,0.64,0.41,0.63,1000
17:16:16.508,27.19,-36.83,-101.19,49.57,-69.02,14.39,0.68,0.48,0.72,1000
17:16:16.520,26.95,-37.95,-101.05,49.02,-53.05,10.55,0.64,0.49,0.76,1000
17:16:16.530,26.78,-38.45,-100.96,49.57,-38.9,5.61,0.71,0.44,0.78,1000
17:16:16.543,26.66,-38.64,-100.93,45.43,-32.26,-0.67,0.67,0.45,0.72,1000
17:16:16.559,26.64,-38.76,-100.97,40.98,-34.21,-7.07,0.63,0.48,0.69,1000
17:16:16.564,26.72,-38.93,-101.06,39.21,-41.77,-11.34,0.61,0.46,0.63,1000
17:16:16.574,26.89,-39.46,-101.21,38.72,-52.8,-14.02,0.63,0.43,0.6,1000
17:16:16.585,26.98,-40.14,-101.36,40.85,-58.23,-14.82,0.68,0.43,0.59,1000
17:16:16.597,27.17,-41.08,-101.53,45.18,-57.68,-14.7,0.7,0.48,0.63,1000
17:16:16.607,27.44,-41.67,-101.68,50.37,-49.45,-14.88,0.72,0.52,0.66,1000
17:16:16.622,27.79,-42.08,-101.85,53.96,-37.74,-16.16,0.74,0.52,0.67,1000
17:16:16.630,28.17,-42.24,-102.05,53.96,-26.1,-18.23,0.71,0.55,0.68,1000
17:16:16.645,28.7,-41.91,-102.26,49.7,-19.63,-19.39,0.68,0.57,0.65,1000
17:16:16.667,29.42,-41.43,-102.47,41.34,-14.94,-19.51,0.67,0.59,0.62,1000
17:16:16.668,30.23,-40.9,-102.69,29.94,-12.26,-18.84,0.67,0.61,0.62,1000
17:16:16.673,30.86,-40.5,-102.87,18.35,-7.99,-17.87,0.68,0.64,0.62,1000
17:16:16.684,31.53,-40.0,-103.06,5.06,-1.22,-17.2,0.68,0.65,0.61,1000
17:16:16.695,32.02,-39.5,-103.25,-10.12,6.95,-16.77,0.66,0.64,0.63,1000
17:16:16.706,32.3,-38.86,-103.44,-25.43,16.59,-15.43,0.64,0.65,0.65,1000
17:16:16.718,32.47,-38.04,-103.6,-38.66,26.65,-12.62,0.64,0.66,0.66,1000
17:16:16.730,32.68,-37.03,-103.72,-50.79,36.89,-9.33,0.65,0.65,0.65,1000
17:16:16.739,32.6,-36.27,-103.81,-63.48,46.34,-6.22,0.65,0.63,0.64,1000
17:16:16.750,32.24,-35.69,-103.87,-76.34,52.44,-3.23,0.65,0.61,0.62,1000
17:16:16.766,31.78,-35.29,-103.88,-89.88,54.7,0.85,0.64,0.59,0.62,1000
17:16:16.773,31.24,-34.97,-103.85,-102.5,55.37,6.04,0.62,0.59,0.62,1000
17:16:16.783,30.77,-34.64,-103.76,-111.22,56.95,11.46,0.61,0.58,0.65,1000
17:16:16.794,30.17,-34.21,-103.6,-116.46,61.22,17.01,0.6,0.55,0.69,1000
17:16:16.807,29.4,-33.65,-103.4,-115.91,69.39,20.3,0.6,0.53,0.75,1000
17:16:16.816,28.37,-33.01,-103.16,-114.63,79.7,21.59,0.64,0.49,0.7,1000
17:16:16.828,27.32,-32.76,-102.95,-115.79,85.79,21.1,0.63,0.48,0.69,1000
17:16:16.838,26.12,-32.46,-102.7,-119.88,84.94,20.0,0.55,0.47,0.71,1000
17:16:16.851,25.29,-32.07,-102.51,-123.35,79.39,19.63,0.51,0.45,0.77,1000
17:16:16.860,24.23,-31.17,-102.27,-123.84,72.87,19.82,0.5,0.43,0.78,1000
17:16:16.873,23.24,-30.3,-102.05,-118.78,72.07,19.63,0.53,0.4,0.85,1000
17:16:16.882,22.05,-29.5,-101.84,-108.48,78.54,17.8,0.54,0.36,0.87,1000
17:16:16.893,20.77,-28.84,-101.66,-96.95,87.13,14.45,0.56,0.32,0.83,1000
17:16:16.904,19.47,-28.63,-101.53,-88.23,90.18,10.12,0.54,0.31,0.79,1000
17:16:16.915,18.39,-28.5,-101.43,-83.84,84.33,7.07,0.47,0.32,0.81,1000
17:16:16.929,17.72,-27.89,-101.36,-81.1,75.79,5.49,0.42,0.34,0.85,1000
17:16:16.937,17.3,-26.9,-101.3,-79.27,69.45,4.94,0.4,0.35,0.88,1000
17:16:16.951,16.91,-25.8,-101.26,-75.37,69.09,3.05,0.39,0.31,0.93,1000
17:16:16.967,16.39,-24.56,-101.24,-68.9,73.23,-0.06,0.39,0.26,0.96,1000
17:16:16.974,15.52,-23.33,-101.26,-62.2,78.84,-4.51,0.4,0.22,0.97,1000
17:16:16.981,14.59,-22.43,-101.32,-56.46,83.9,-8.72,0.4,0.2,0.96,1000
17:16:16.992,13.42,-21.5,-101.45,-52.56,88.48,-12.56,0.39,0.2,0.95,1000
17:16:17.003,12.54,-20.71,-101.6,-54.27,90.98,-13.78,0.37,0.22,0.96,1000
17:16:17.014,11.9,-19.95,-101.75,-60.24,91.46,-12.74,0.35,0.24,0.97,1000
17:16:17.025,11.46,-19.1,-101.87,-68.72,89.76,-9.82,0.33,0.24,0.98,1000
17:16:17.036,11.04,-18.13,-101.96,-77.99,86.77,-5.67,0.29,0.22,1.0,1000
17:16:17.047,10.46,-17.12,-102.0,-85.55,84.21,-1.59,0.27,0.2,1.01,1000
17:16:17.059,9.8,-16.05,-102.0,-91.1,82.56,1.71,0.28,0.16,1.01,1000
17:16:17.071,8.82,-15.13,-101.97,-95.37,81.89,3.78,0.27,0.12,1.01,1000
17:16:17.080,7.66,-14.34,-101.92,-99.09,84.33,5.18,0.25,0.1,1.0,1000
17:16:17.091,6.39,-13.53,-101.86,-106.34,88.29,6.65,0.24,0.08,1.01,1000
17:16:17.102,5.07,-12.73,-101.78,-115.43,92.2,8.23,0.23,0.08,1.05,1000
17:16:17.113,3.83,-11.8,-101.68,-125.3,93.96,11.28,0.19,0.08,1.07,1000
17:16:17.124,2.69,-10.73,-101.53,-131.89,94.09,15.06,0.16,0.06,1.07,1000
17:16:17.136,1.59,-9.61,-101.34,-135.12,93.9,19.51,0.15,0.03,1.05,1000
17:16:17.146,0.55,-8.62,-101.14,-134.88,92.56,22.74,0.13,-0.01,1.03,1000
17:16:17.160,-0.92,-7.49,-100.85,-130.73,89.57,25.49,0.11,-0.07,1.02,1000
17:16:17.170,-2.4,-6.5,-100.56,-124.57,86.46,27.87,0.09,-0.09,1.0,1000
17:16:17.179,-3.92,-5.54,-100.24,-117.5,85.85,30.61,0.08,-0.1,1.01,1000
17:16:17.190,-5.26,-4.62,-99.89,-110.24,86.1,32.5,0.08,-0.12,1.02,1000
17:16:17.201,-6.49,-3.77,-99.53,-103.35,87.56,32.62,0.06,-0.14,1.04,1000
17:16:17.213,-7.62,-2.85,-99.18,-95.3,88.9,30.98,0.02,-0.16,1.04,1000
17:16:17.224,-8.67,-1.8,-98.85,-85.3,90.18,28.23,-0.0,-0.19,1.03,1000
17:16:17.235,-9.67,-0.68,-98.55,-74.39,91.28,24.7,-0.02,-0.2,1.02,1000
17:16:17.245,-10.46,0.32,-98.32,-63.48,91.4,21.4,-0.04,-0.21,1.01,1000
17:16:17.263,-11.18,1.42,-98.1,-52.5,90.98,18.41,-0.05,-0.2,0.99,1000
17:16:17.281,-11.69,2.55,-97.89,-43.41,90.06,16.4,-0.06,-0.19,0.98,1000
17:16:17.282,-11.93,3.49,-97.72,-37.62,90.06,15.61,-0.04,-0.17,0.99,1000
17:16:17.289,-11.93,4.15,-97.57,-35.91,90.24,14.45,-0.05,-0.15,0.98,1000
17:16:17.300,-11.64,4.84,-97.4,-35.91,95.43,12.99,-0.08,-0.14,0.99,1000
17:16:17.312,-11.26,5.58,-97.27,-38.66,98.66,11.04,-0.11,-0.14,0.99,1000
17:16:17.323,-11.06,6.57,-97.16,-43.29,98.84,8.72,-0.17,-0.17,0.97,1000
17:16:17.334,-11.01,7.94,-97.07,-47.01,96.77,6.52,-0.21,-0.18,0.93,1000
17:16:17.346,-11.35,9.44,-97.01,-51.46,92.2,4.21,-0.21,-0.2,0.92,1000
17:16:17.356,-11.86,10.75,-96.97,-56.28,88.11,2.99,-0.21,-0.21,0.9,1000
17:16:17.367,-12.33,11.87,-96.95,-60.85,85.91,1.77,-0.2,-0.21,0.9,1000
17:16:17.383,-12.97,12.73,-96.93,-64.57,87.87,0.37,-0.17,-0.21,0.94,1000
17:16:17.388,-13.48,13.18,-96.93,-68.23,95.67,-1.04,-0.17,-0.21,0.96,1000
17:16:17.400,-13.9,13.57,-96.95,-72.07,107.56,-1.77,-0.21,-0.24,0.96,1000
17:16:17.411,-14.47,14.24,-96.97,-76.89,118.78,-2.93,-0.26,-0.29,0.91,1000
17:16:17.424,-15.44,15.38,-97.01,-81.89,121.4,-3.96,-0.32,-0.33,0.87,1000
17:16:17.433,-16.75,16.93,-97.06,-86.59,116.28,-4.02,-0.38,-0.35,0.8,1000
17:16:17.443,-18.36,18.92,-97.09,-90.73,106.77,-1.83,-0.39,-0.36,0.76,1000
17:16:17.454,-19.93,20.74,-97.1,-94.02,98.72,2.13,-0.36,-0.35,0.77,1000
17:16:17.466,-21.48,22.19,-97.03,-98.41,92.87,9.15,-0.32,-0.36,0.77,1000
17:16:17.480,-22.55,22.85,-96.91,-101.65,94.82,15.67,-0.32,-0.36,0.8,1000
17:16:17.487,-23.56,23.4,-96.7,-105.43,98.05,22.56,-0.36,-0.38,0.8,1000
17:16:17.498,-24.54,23.96,-96.43,-107.68,100.91,27.8,-0.4,-0.42,0.8,1000
17:16:17.509,-25.54,24.73,-96.14,-109.33,100.3,31.4,-0.45,-0.45,0.75,1000
17:16:17.520,-26.84,26.09,-95.74,-109.63,94.33,35.12,-0.51,-0.48,0.73,1000
17:16:17.531,-28.03,27.51,-95.34,-108.9,85.24,38.11,-0.53,-0.49,0.71,1000
17:16:17.544,-29.12,28.87,-94.9,-107.13,75.12,41.83,-0.53,-0.49,0.72,1000
17:16:17.554,-29.99,29.91,-94.42,-103.84,70.55,45.3,-0.5,-0.49,0.75,1000
17:16:17.567,-30.66,30.5,-93.91,-99.88,71.16,47.68,-0.47,-0.51,0.75,1000
17:16:17.577,-31.21,30.72,-93.43,-95.73,77.56,48.48,-0.48,-0.53,0.75,1000
17:16:17.589,-31.95,31.06,-92.85,-91.28,84.82,47.74,-0.52,-0.55,0.71,1000
17:16:17.597,-32.62,31.61,-92.34,-87.93,87.68,45.55,-0.58,-0.56,0.67,1000
17:16:17.608,-33.16,32.68,-91.85,-85.3,85.24,42.87,-0.65,-0.55,0.62,1000
17:16:17.619,-33.54,34.22,-91.39,-82.5,78.17,40.12,-0.69,-0.54,0.6,1000
17:16:17.630,-33.72,35.89,-90.96,-80.18,70.06,37.44,-0.68,-0.54,0.59,1000
17:16:17.644,-33.84,37.32,-90.56,-77.87,64.7,35.18,-0.66,-0.54,0.59,1000
17:16:17.652,-33.94,38.43,-90.19,-75.67,62.01,33.05,-0.65,-0.53,0.56,1000
17:16:17.670,-34.13,39.37,-89.84,-72.38,60.91,28.29,-0.68,-0.57,0.54,1000
17:16:17.674,-34.36,40.19,-89.6,-66.71,59.27,20.67,-0.71,-0.58,0.53,1000
17:16:17.688,-34.53,41.07,-89.41,-59.15,55.43,12.56,-0.72,-0.56,0.53,1000
17:16:17.696,-34.53,41.96,-89.3,-51.16,50.24,6.28,-0.72,-0.54,0.5,1000
17:16:17.707,-34.35,42.69,-89.25,-44.63,46.04,3.9,-0.72,-0.53,0.49,1000
17:16:17.718,-34.09,43.51,-89.21,-38.11,39.76,2.56,-0.72,-0.54,0.46,1000
17:16:17.730,-33.83,44.19,-89.18,-32.56,32.13,1.89,-0.71,-0.55,0.46,1000
17:16:17.743,-33.67,44.69,-89.16,-27.38,26.28,2.32,-0.72,-0.54,0.45,1000
17:16:17.752,-33.49,45.06,-89.13,-21.59,22.5,3.11,-0.7,-0.54,0.47,1000
17:16:17.762,-33.35,45.18,-89.1,-17.01,21.83,3.54,-0.68,-0.54,0.47,1000
17:16:17.773,-33.19,45.2,-89.06,-12.62,22.44,3.54,-0.69,-0.54,0.47,1000
17:16:17.793,-33.01,45.25,-89.02,-9.33,22.13,3.11,-0.71,-0.54,0.47,1000
17:16:17.797,-32.76,45.37,-88.99,-6.1,19.82,2.44,-0.72,-0.54,0.45,1000
17:16:17.807,-32.57,45.54,-88.96,-4.51,15.79,1.95,-0.72,-0.53,0.44,1000
17:16:17.818,-32.41,45.74,-88.94,-3.17,10.85,2.07,-0.73,-0.54,0.43,1000
17:16:17.829,-32.29,45.9,-88.92,-1.77,6.59,2.07,-0.71,-0.54,0.44,1000
17:16:17.839,-32.24,45.93,-88.9,-0.55,2.32,1.77,-0.71,-0.55,0.44,1000
17:16:17.853,-32.32,45.79,-88.88,0.98,0.79,1.46,-0.7,-0.56,0.45,1000
17:16:17.861,-32.44,45.52,-88.87,3.48,-0.12,0.43,-0.68,-0.57,0.46,1000
17:16:17.874,-32.7,45.03,-88.87,6.89,-0.3,-0.49,-0.67,-0.58,0.46,1000
17:16:17.888,-32.91,44.58,-88.88,9.63,-1.04,-1.71,-0.69,-0.58,0.46,1000
17:16:17.898,-33.02,44.3,-88.9,11.83,-2.93,-2.44,-0.71,-0.58,0.45,1000
17:16:17.908,-33.07,44.1,-88.93,14.02,-6.59,-2.87,-0.71,-0.57,0.46,1000
17:16:17.917,-33.01,43.96,-88.96,15.55,-9.09,-2.8,-0.7,-0.58,0.49,1000
17:16:17.928,-32.98,43.69,-88.99,17.07,-8.48,-1.65,-0.68,-0.56,0.49,1000
17:16:17.938,-32.91,43.4,-89.01,17.13,-6.34,-1.28,-0.67,-0.57,0.5,1000
17:16:17.952,-32.87,43.1,-89.02,16.83,-4.09,-1.71,-0.69,-0.57,0.49,1000
17:16:17.960,-32.85,42.93,-89.04,15.3,-2.8,-1.77,-0.7,-0.57,0.48,1000
17:16:17.971,-32.83,42.95,-89.06,13.23,-3.35,-2.56,-0.71,-0.56,0.46,1000
17:16:17.989,-32.75,43.09,-89.09,12.38,-4.27,-2.8,-0.7,-0.55,0.47,1000
17:16:17.996,-32.69,43.22,-89.13,11.34,-5.98,-3.29,-0.69,-0.55,0.47,1000
17:16:18.004,-32.66,43.26,-89.17,9.76,-6.4,-3.6,-0.69,-0.55,0.47,1000
17:16:18.016,-32.67,43.24,-89.21,8.54,-7.5,-4.21,-0.69,-0.56,0.47,1000
17:16:18.027,-32.7,43.22,-89.26,8.78,-8.84,-4.7,-0.7,-0.56,0.46,1000
17:16:18.038,-32.73,43.22,-89.32,10.3,-10.24,-5.55,-0.7,-0.56,0.46,1000
17:16:18.049,-32.7,43.23,-89.38,13.23,-12.62,-5.91,-0.69,-0.55,0.46,1000
17:16:18.059,-32.63,43.23,-89.44,16.83,-14.7,-6.04,-0.67,-0.54,0.46,1000
17:16:18.081,-32.55,43.12,-89.51,20.85,-17.93,-7.32,-0.66,-0.54,0.48,1000
17:16:18.102,-32.46,42.88,-89.6,25.79,-21.95,-9.76,-0.68,-0.56,0.48,1000
17:16:18.103,-32.4,42.65,-89.72,30.79,-24.82,-13.66,-0.68,-0.57,0.48,1000
17:16:18.104,-32.38,42.35,-89.89,36.46,-28.17,-18.54,-0.69,-0.59,0.49,1000
17:16:18.115,-32.33,41.97,-90.15,43.66,-31.22,-25.43,-0.68,-0.58,0.51,1000
17:16:18.135,-32.23,41.61,-90.43,50.98,-33.35,-30.55,-0.67,-0.58,0.53,1000
17:16:18.150,-32.02,41.12,-90.79,60.79,-34.76,-36.1,-0.64,-0.56,0.56,1000
17:16:18.159,-31.62,40.44,-91.26,73.29,-34.57,-43.9,-0.61,-0.55,0.56,1000
17:16:18.171,-31.25,39.82,-91.74,83.23,-33.41,-51.71,-0.61,-0.56,0.56,1000
17:16:18.171,-30.8,39.13,-92.41,94.21,-33.41,-62.26,-0.64,-0.56,0.58,1000
17:16:18.181,-30.41,38.63,-93.07,101.52,-35.98,-70.79,-0.67,-0.59,0.6,1000
17:16:18.214,-30.05,38.19,-93.89,106.95,-41.16,-78.11,-0.68,-0.61,0.61,1000
17:16:18.215,-29.48,37.7,-94.85,113.54,-50.37,-82.32,-0.66,-0.58,0.62,1000
17:16:18.220,-29.19,37.19,-95.76,120.73,-59.02,-82.93,-0.64,-0.57,0.63,1000
17:16:18.227,-28.84,36.52,-96.67,127.26,-67.07,-80.79,-0.58,-0.55,0.63,1000
17:16:18.236,-28.31,35.65,-97.54,132.87,-72.2,-77.5,-0.55,-0.54,0.65,1000
17:16:18.246,-27.92,34.62,-98.37,136.89,-76.77,-72.87,-0.54,-0.54,0.67,1000
17:16:18.258,-27.52,33.43,-99.15,139.39,-81.1,-68.6,-0.53,-0.53,0.71,1000
17:16:18.269,-27.07,32.2,-99.88,140.73,-86.65,-63.6,-0.51,-0.53,0.71,1000
17:16:18.284,-26.66,30.98,-100.55,142.74,-91.83,-58.23,-0.49,-0.51,0.72,1000
17:16:18.303,-26.21,29.74,-101.17,146.1,-97.32,-52.32,-0.45,-0.48,0.72,1000
17:16:18.304,-25.53,28.47,-101.72,149.63,-101.77,-47.68,-0.41,-0.43,0.73,1000
17:16:18.313,-24.79,27.08,-102.23,152.2,-104.45,-44.7,-0.39,-0.39,0.75,1000
17:16:18.324,-23.76,25.68,-102.71,153.11,-106.4,-43.6,-0.36,-0.37,0.78,1000
17:16:18.335,-22.59,24.22,-103.2,152.13,-107.38,-45.0,-0.35,-0.36,0.81,1000
17:16:18.346,-21.47,22.92,-103.66,148.9,-106.89,-47.13,-0.36,-0.35,0.85,1000
17:16:18.357,-20.12,21.48,-104.24,142.2,-102.68,-50.55,-0.33,-0.32,0.88,1000
17:16:18.367,-18.74,20.1,-104.81,134.09,-95.24,-53.05,-0.29,-0.27,0.91,1000
17:16:18.378,-17.22,18.65,-105.4,122.2,-85.49,-54.33,-0.25,-0.22,0.93,1000
17:16:18.389,-15.55,17.15,-106.0,108.66,-74.63,-54.21,-0.22,-0.17,0.95,1000
17:16:18.407,-13.72,15.73,-106.59,92.5,-63.78,-52.44,-0.21,-0.13,0.96,1000
17:16:18.411,-11.93,14.44,-107.16,75.79,-55.43,-50.18,-0.2,-0.11,0.99,1000
17:16:18.422,-10.31,13.25,-107.69,61.22,-49.45,-47.44,-0.21,-0.13,1.0,1000
17:16:18.433,-9.28,12.38,-108.2,48.9,-43.96,-43.48,-0.21,-0.15,0.99,1000
17:16:18.446,-8.72,11.71,-108.66,40.3,-39.39,-39.39,-0.21,-0.17,0.98,1000
17:16:18.455,-8.58,11.27,-109.06,34.02,-35.55,-34.15,-0.21,-0.19,0.96,1000
17:16:18.466,-8.68,10.96,-109.41,30.0,-33.54,-28.11,-0.2,-0.17,0.95,1000
17:16:18.477,-8.87,10.75,-109.69,27.8,-32.74,-22.2,-0.2,-0.17,0.96,1000
17:16:18.489,-8.97,10.48,-109.91,25.43,-31.89,-16.34,-0.18,-0.17,0.96,1000
17:16:18.505,-9.14,10.21,-110.06,23.41,-30.79,-11.4,-0.18,-0.19,0.96,1000
17:16:18.510,-9.34,9.95,-110.17,21.34,-29.63,-7.26,-0.19,-0.2,0.96,1000
17:16:18.522,-9.77,9.8,-110.24,20.61,-30.43,-4.51,-0.19,-0.22,0.95,1000
17:16:18.533,-10.22,9.64,-110.27,21.83,-34.21,-2.07,-0.19,-0.22,0.94,1000
17:16:18.544,-10.7,9.5,-110.28,25.24,-38.78,0.37,-0.19,-0.23,0.93,1000
17:16:18.555,-11.06,9.31,-110.27,29.02,-42.2,2.26,-0.18,-0.22,0.93,1000
17:16:18.566,-11.4,9.12,-110.24,32.99,-43.41,3.78,-0.16,-0.23,0.95,1000
17:16:18.578,-11.64,8.73,-110.19,35.06,-42.93,4.51,-0.13,-0.21,0.97,1000
17:16:18.591,-11.63,8.22,-110.15,35.18,-40.49,4.82,-0.13,-0.19,0.99,1000
17:16:18.598,-11.42,7.62,-110.08,33.54,-35.43,5.43,-0.12,-0.19,1.01,1000
17:16:18.610,-11.14,7.11,-110.02,31.46,-31.95,6.1,-0.12,-0.18,1.02,1000
17:16:18.621,-10.84,6.66,-109.95,29.57,-28.6,6.77,-0.11,-0.17,1.02,1000
17:16:18.631,-10.46,6.25,-109.88,27.56,-25.06,7.26,-0.1,-0.16,1.02,1000
17:16:18.642,-10.04,5.82,-109.79,24.33,-22.01,7.38,-0.08,-0.14,1.02,1000
17:16:18.653,-9.57,5.39,-109.72,19.76,-19.09,6.65,-0.09,-0.12,1.02,1000
17:16:18.664,-9.14,5.08,-109.65,13.96,-17.07,5.67,-0.1,-0.12,1.03,1000
17:16:18.676,-8.7,4.92,-109.59,7.07,-16.16,4.15,-0.11,-0.12,1.04,1000
17:16:18.687,-8.36,4.88,-109.55,0.55,-16.22,3.11,-0.12,-0.12,1.05,1000
17:16:18.698,-8.16,4.91,-109.52,-5.79,-16.65,2.99,-0.12,-0.12,1.05,1000
17:16:18.713,-8.03,4.97,-109.48,-9.88,-18.05,4.51,-0.11,-0.11,1.04,1000
17:16:18.723,-7.91,4.96,-109.42,-10.98,-19.94,6.77,-0.1,-0.12,1.03,1000
17:16:18.730,-7.78,4.9,-109.33,-10.12,-21.16,9.76,-0.08,-0.13,1.02,1000
17:16:18.741,-7.77,4.67,-109.21,-7.8,-21.16,12.2,-0.08,-0.14,1.03,1000
17:16:18.753,-7.85,4.37,-109.07,-4.76,-20.37,13.54,-0.07,-0.15,1.04,1000
17:16:18.763,-7.96,4.08,-108.92,-1.59,-18.6,13.54,-0.07,-0.14,1.05,1000
17:16:18.774,-8.03,3.81,-108.78,0.3,-16.22,12.26,-0.07,-0.14,1.06,1000
17:16:18.785,-8.05,3.63,-108.65,1.04,-13.41,9.63,-0.08,-0.14,1.06,1000
17:16:18.797,-8.03,3.54,-108.56,0.73,-11.16,7.13,-0.08,-0.14,1.06,1000
17:16:18.820,-8.02,3.49,-108.49,-0.3,-10.0,4.57,-0.07,-0.14,1.06,1000
17:16:18.821,-7.99,3.43,-108.45,-0.67,-9.94,2.62,-0.07,-0.13,1.05,1000
17:16:18.829,-7.91,3.37,-108.43,-0.43,-11.1,1.77,-0.06,-0.13,1.04,1000
17:16:18.840,-7.82,3.28,-108.41,0.79,-13.05,1.65,-0.06,-0.12,1.03,1000
17:16:18.851,-7.67,3.16,-108.39,2.68,-15.12,2.44,-0.06,-0.12,1.03,1000
17:16:18.862,-7.56,3.02,-108.36,4.45,-16.59,3.54,-0.06,-0.13,1.04,1000
17:16:18.875,-7.45,2.91,-108.32,5.98,-16.95,4.15,-0.06,-0.12,1.05,1000
17:16:18.885,-7.35,2.81,-108.27,7.07,-15.85,4.82,-0.06,-0.12,1.05,1000
17:16:18.898,-7.22,2.75,-108.21,7.68,-13.6,4.88,-0.05,-0.12,1.06,1000
17:16:18.914,-7.07,2.66,-108.16,7.32,-10.61,4.27,-0.05,-0.11,1.06,1000
17:16:18.917,-6.9,2.58,-108.12,6.59,-7.62,3.11,-0.04,-0.11,1.06,1000
17:16:18.928,-6.78,2.48,-108.1,4.76,-4.76,1.4,-0.04,-0.11,1.05,1000
17:16:18.940,-6.64,2.39,-108.09,2.74,-2.5,0.06,-0.04,-0.11,1.05,1000
17:16:18.950,-6.56,2.33,-108.09,0.85,-0.85,-0.49,-0.04,-0.11,1.04,1000
17:16:18.962,-6.52,2.24,-108.1,-1.04,-0.43,-0.98,-0.03,-0.11,1.04,1000
17:16:18.973,-6.5,2.13,-108.11,-2.87,-0.49,-0.3,-0.03,-0.11,1.03,1000
17:16:18.984,-6.52,1.99,-108.1,-4.21,-1.22,0.85,-0.02,-0.11,1.03,1000
17:16:18.995,-6.56,1.85,-108.09,-5.24,-2.44,2.07,-0.02,-0.12,1.02,1000
17:16:19.005,-6.68,1.7,-108.06,-5.61,-4.09,3.96,-0.03,-0.12,1.02,1000
17:16:19.021,-6.78,1.6,-108.01,-5.3,-5.06,5.91,-0.03,-0.13,1.02,1000
17:16:19.028,-6.92,1.51,-107.94,-4.15,-5.73,7.26,-0.03,-0.13,1.01,1000
17:16:19.038,-7.09,1.4,-107.84,-2.56,-6.04,8.29,-0.02,-0.13,1.02,1000
17:16:19.050,-7.23,1.29,-107.75,-1.16,-5.85,8.29,-0.03,-0.13,1.02,1000
17:16:19.061,-7.34,1.25,-107.66,0.18,-5.06,7.8,-0.03,-0.13,1.03,1000
17:16:19.071,-7.4,1.25,-107.58,1.22,-3.9,6.77,-0.03,-0.13,1.03,1000
17:16:19.083,-7.42,1.26,-107.52,2.01,-2.99,5.49,-0.02,-0.13,1.03,1000
17:16:19.093,-7.39,1.24,-107.46,2.38,-2.38,4.21,-0.02,-0.12,1.02,1000
17:16:19.104,-7.32,1.21,-107.42,2.26,-1.89,2.99,-0.03,-0.12,1.02,1000
17:16:19.116,-7.19,1.23,-107.39,2.26,-2.01,1.95,-0.03,-0.11,1.02,1000
17:16:19.126,-7.07,1.27,-107.38,1.95,-2.93,1.34,-0.03,-0.12,1.02,1000
17:16:19.137,-6.98,1.26,-107.36,1.83,-4.63,0.67,-0.02,-0.12,1.02,1000
17:16:19.148,-6.9,1.2,-107.36,1.95,-5.98,0.49,-0.02,-0.11,1.02,1000
17:16:19.159,-6.83,1.16,-107.35,2.44,-6.22,0.43,-0.03,-0.12,1.02,1000
17:16:19.171,-6.79,1.14,-107.34,3.29,-6.1,0.67,-0.02,-0.12,1.02,1000
17:16:19.188,-6.76,1.11,-107.34,4.02,-5.91,0.98,-0.03,-0.12,1.02,1000
17:16:19.194,-6.72,1.11,-107.32,4.63,-5.24,1.28,-0.03,-0.11,1.02,1000
17:16:19.210,-6.67,1.12,-107.3,4.88,-5.49,1.4,-0.02,-0.12,1.01,1000
17:16:19.215,-6.61,1.08,-107.29,4.94,-5.79,1.16,-0.02,-0.11,1.02,1000
17:16:19.228,-6.55,0.99,-107.28,4.7,-6.28,0.61,-0.01,-0.11,1.02,1000
17:16:19.237,-6.5,0.89,-107.28,4.33,-6.95,-0.3,-0.02,-0.11,1.02,1000
17:16:19.247,-6.46,0.8,-107.29,4.02,-7.38,-1.4,-0.02,-0.11,1.03,1000
17:16:19.259,-6.44,0.74,-107.31,3.96,-7.07,-2.13,-0.01,-0.11,1.04,1000
17:16:19.270,-6.4,0.68,-107.34,3.84,-5.98,-2.38,-0.01,-0.11,1.04,1000
17:16:19.280,-6.31,0.63,-107.36,3.9,-4.33,-2.13,-0.01,-0.1,1.04,1000
17:16:19.292,-6.2,0.61,-107.38,3.72,-2.87,-1.34,-0.01,-0.1,1.03,1000
17:16:19.302,-6.11,0.56,-107.4,3.54,-1.83,-1.22,-0.0,-0.1,1.03,1000
17:16:19.318,-6.02,0.47,-107.41,3.29,-2.2,-0.67,0.0,-0.09,1.03,1000
17:16:19.330,-5.95,0.36,-107.41,2.74,-2.68,-0.12,0.0,-0.1,1.03,1000
17:16:19.336,-5.87,0.22,-107.41,2.13,-3.23,-0.24,0.0,-0.1,1.03,1000
17:16:19.347,-5.82,0.13,-107.41,1.65,-3.72,-0.18,-0.01,-0.1,1.03,1000
17:16:19.358,-5.8,0.13,-107.41,1.1,-3.96,-0.43,-0.01,-0.1,1.04,1000
17:16:19.368,-5.78,0.15,-107.42,0.73,-3.72,-0.73,-0.01,-0.1,1.04,1000
17:16:19.380,-5.77,0.14,-107.43,0.0,-2.56,-1.46,0.0,-0.1,1.04,1000
17:16:19.390,-5.75,0.1,-107.45,-0.73,-0.98,-1.59,-0.0,-0.1,1.04,1000
17:16:19.401,-5.72,0.09,-107.47,-1.83,1.34,-1.95,-0.01,-0.1,1.04,1000
17:16:19.413,-5.69,0.13,-107.49,-2.5,3.17,-1.71,-0.02,-0.09,1.04,1000
17:16:19.423,-5.66,0.25,-107.5,-2.99,3.9,-1.46,-0.02,-0.1,1.04,1000
17:16:19.434,-5.7,0.39,-107.52,-3.29,4.09,-1.22,-0.01,-0.1,1.03,1000
17:16:19.445,-5.76,0.47,-107.53,-2.99,3.11,-0.91,-0.01,-0.11,1.02,1000
17:16:19.456,-5.84,0.51,-107.54,-2.93,1.52,-0.3,-0.01,-0.1,1.02,1000
17:16:19.467,-5.91,0.52,-107.54,-2.62,-0.06,0.24,-0.01,-0.11,1.02,1000
17:16:19.478,-5.97,0.51,-107.53,-2.07,-2.01,0.79,-0.01,-0.11,1.03,1000
17:16:19.490,-6.03,0.53,-107.52,-1.28,-2.99,0.79,-0.02,-0.11,1.04,1000
17:16:19.500,-6.1,0.54,-107.51,-0.06,-2.93,0.61,-0.01,-0.12,1.04,1000
17:16:19.512,-6.18,0.53,-107.51,1.46,-1.89,0.06,-0.01,-0.12,1.04,1000
17:16:19.532,-6.23,0.5,-107.51,2.87,-0.49,-0.18,-0.0,-0.12,1.04,1000
17:16:19.533,-6.25,0.48,-107.52,4.21,1.04,-0.79,-0.0,-0.11,1.04,1000
17:16:19.544,-6.22,0.44,-107.53,5.06,1.89,-1.16,-0.0,-0.11,1.03,1000
17:16:19.555,-6.16,0.41,-107.54,5.49,1.89,-1.34,0.0,-0.1,1.03,1000
17:16:19.566,-6.07,0.35,-107.56,5.12,1.89,-1.46,-0.0,-0.1,1.03,1000
17:16:19.578,-5.96,0.34,-107.58,4.45,1.83,-1.34,-0.01,-0.1,1.03,1000
17:16:19.592,-5.86,0.35,-107.59,3.41,1.83,-1.1,-0.01,-0.1,1.02,1000
17:16:19.599,-5.78,0.38,-107.6,2.38,1.77,-0.49,-0.02,-0.1,1.02,1000
17:16:19.612,-5.71,0.46,-107.6,1.34,1.89,0.0,-0.02,-0.1,1.02,1000
17:16:19.622,-5.68,0.52,-107.6,0.3,2.26,0.55,-0.01,-0.1,1.02,1000
17:16:19.634,-5.67,0.58,-107.59,-0.43,2.62,0.91,-0.01,-0.1,1.02,1000
17:16:19.643,-5.68,0.63,-107.58,-1.4,2.68,1.04,-0.02,-0.1,1.01,1000
17:16:19.654,-5.72,0.7,-107.56,-1.89,2.38,1.16,-0.02,-0.1,1.01,1000
17:16:19.665,-5.77,0.75,-107.55,-2.44,1.59,1.28,-0.02,-0.1,1.01,1000
17:16:19.676,-5.82,0.79,-107.54,-2.87,1.4,0.91,-0.01,-0.1,1.01,1000
17:16:19.690,-5.87,0.81,-107.53,-3.23,1.28,0.55,-0.01,-0.1,1.01,1000
17:16:19.698,-5.94,0.82,-107.53,-3.17,1.1,0.24,-0.01,-0.11,1.0,1000
17:16:19.710,-6.03,0.81,-107.53,-2.62,0.55,-0.06,-0.01,-0.11,1.0,1000
17:16:19.720,-6.16,0.8,-107.53,-2.38,-0.55,-0.24,-0.02,-0.12,1.0,1000
17:16:19.734,-6.3,0.81,-107.53,-2.07,-1.89,-0.18,-0.02,-0.12,0.99,1000
17:16:19.742,-6.4,0.79,-107.53,-1.95,-2.93,-0.12,-0.01,-0.11,1.0,1000
17:16:19.753,-6.45,0.69,-107.53,-2.56,-3.96,-0.18,-0.01,-0.11,1.01,1000
17:16:19.765,-6.45,0.61,-107.53,-2.93,-4.15,-0.18,-0.01,-0.11,1.01,1000
17:16:19.777,-6.47,0.56,-107.53,-3.17,-3.6,-0.24,-0.01,-0.12,1.02,1000
17:16:19.786,-6.53,0.54,-107.53,-3.17,-2.74,-0.49,-0.01,-0.12,1.02,1000
17:16:19.797,-6.6,0.54,-107.54,-3.35,-1.77,-0.67,-0.01,-0.12,1.02,1000
17:16:19.808,-6.7,0.53,-107.55,-3.41,-0.73,-0.18,-0.01,-0.12,1.03,1000
17:16:19.819,-6.74,0.55,-107.55,-3.41,-0.61,0.12,-0.02,-0.12,1.02,1000
17:16:19.830,-6.73,0.6,-107.54,-3.17,-0.91,1.1,-0.02,-0.11,1.02,1000
17:16:19.841,-6.7,0.66,-107.52,-3.17,-1.77,2.01,-0.02,-0.11,1.02,1000
17:16:19.853,-6.66,0.7,-107.5,-2.93,-2.56,2.93,-0.01,-0.11,1.02,1000
17:16:19.863,-6.63,0.69,-107.46,-2.44,-3.17,3.17,-0.01,-0.12,1.03,1000
17:16:19.874,-6.63,0.65,-107.43,-1.89,-3.48,3.11,-0.01,-0.12,1.03,1000
17:16:19.885,-6.65,0.6,-107.4,-1.28,-3.11,2.26,-0.01,-0.12,1.04,1000
17:16:19.897,-6.68,0.56,-107.38,-0.98,-2.87,1.77,-0.01,-0.12,1.04,1000
17:16:19.908,-6.71,0.51,-107.36,-0.73,-1.34,0.73,-0.01,-0.12,1.05,1000
17:16:19.922,-6.7,0.5,-107.36,-0.49,0.24,0.43,-0.01,-0.12,1.05,1000
17:16:19.930,-6.67,0.51,-107.35,-0.43,1.4,0.37,-0.01,-0.12,1.04,1000
17:16:19.941,-6.62,0.53,-107.35,-0.55,2.56,0.67,-0.01,-0.11,1.05,1000
17:16:19.952,-6.57,0.54,-107.34,-0.61,2.74,1.04,-0.0,-0.11,1.04,1000
17:16:19.962,-6.5,0.52,-107.33,-1.1,2.07,1.65,-0.0,-0.1,1.04,1000
17:16:19.973,-6.4,0.47,-107.31,-1.77,1.34,2.07,-0.0,-0.1,1.03,1000
17:16:19.984,-6.28,0.42,-107.28,-1.83,0.85,2.32,-0.01,-0.11,1.04,1000
17:16:19.995,-6.18,0.41,-107.26,-1.95,1.34,2.62,-0.01,-0.1,1.04,1000
17:16:20.006,-6.1,0.44,-107.23,-1.95,3.11,2.2,-0.01,-0.1,1.04,1000
17:16:20.017,-6.06,0.5,-107.2,-2.01,5.43,2.07,-0.01,-0.11,1.04,1000
17:16:20.029,-6.05,0.6,-107.18,-1.95,7.62,1.83,-0.02,-0.11,1.04,1000
17:16:20.046,-6.04,0.75,-107.16,-1.77,9.33,1.83,-0.02,-0.11,1.03,1000
17:16:20.050,-6.04,0.92,-107.14,-1.4,9.88,1.71,-0.02,-0.11,1.03,1000
17:16:20.061,-6.07,1.07,-107.12,-0.67,8.9,1.71,-0.02,-0.11,1.02,1000
17:16:20.072,-6.11,1.18,-107.11,-0.12,7.32,1.52,-0.02,-0.12,1.02,1000
17:16:20.084,-6.2,1.23,-107.09,0.67,5.3,1.28,-0.02,-0.12,1.01,1000
17:16:20.094,-6.28,1.26,-107.08,1.16,3.6,1.04,-0.02,-0.12,1.01,1000
17:16:20.107,-6.34,1.29,-107.07,1.22,2.5,0.85,-0.03,-0.12,1.01,1000
17:16:20.116,-6.36,1.34,-107.06,1.22,1.83,0.67,-0.03,-0.11,1.02,1000
17:16:20.127,-6.36,1.41,-107.05,0.85,0.98,0.49,-0.03,-0.11,1.02,1000
17:16:20.146,-6.35,1.46,-107.05,0.43,0.43,0.55,-0.02,-0.12,1.01,1000
17:16:20.149,-6.35,1.49,-107.04,0.0,0.24,0.91,-0.03,-0.11,1.01,1000
17:16:20.160,-6.36,1.51,-107.03,0.12,-0.43,1.34,-0.02,-0.11,1.01,1000
17:16:20.171,-6.34,1.46,-107.01,1.04,-1.16,2.01,-0.02,-0.11,1.0,1000
17:16:20.182,-6.28,1.36,-106.98,1.95,-1.65,2.68,-0.01,-0.11,1.01,1000
17:16:20.193,-6.22,1.23,-106.95,2.5,-1.52,3.05,-0.01,-0.1,1.01,1000
17:16:20.206,-6.14,1.14,-106.92,2.62,-1.89,3.11,-0.02,-0.1,1.01,1000
17:16:20.216,-6.06,1.11,-106.89,1.89,-2.26,2.62,-0.03,-0.1,1.01,1000
17:16:20.229,-6.0,1.15,-106.86,0.91,-2.56,2.07,-0.03,-0.1,1.02,1000
17:16:20.251,-5.94,1.22,-106.84,-0.43,-2.87,0.98,-0.03,-0.1,1.02,1000
17:16:20.251,-5.91,1.27,-106.84,-1.71,-3.17,0.12,-0.02,-0.1,1.01,1000
17:16:20.259,-5.89,1.27,-106.84,-2.87,-4.21,-0.73,-0.02,-0.1,1.01,1000
17:16:20.270,-5.86,1.22,-106.85,-2.99,-5.67,-1.83,-0.02,-0.1,1.01,1000
17:16:20.281,-5.83,1.13,-106.88,-2.5,-6.89,-2.13,-0.01,-0.1,1.01,1000
17:16:20.292,-5.82,1.02,-106.9,-2.07,-6.59,-2.74,-0.01,-0.1,1.02,1000
17:16:20.303,-5.79,0.92,-106.94,-2.01,-5.43,-3.29,-0.02,-0.1,1.02,1000
17:16:20.314,-5.74,0.89,-106.98,-2.5,-3.48,-3.72,-0.02,-0.1,1.03,1000
17:16:20.326,-5.72,0.94,-107.02,-3.05,-1.89,-4.33,-0.03,-0.1,1.04,1000
17:16:20.336,-5.72,1.04,-107.07,-3.48,-1.1,-4.21,-0.03,-0.1,1.03,1000
17:16:20.353,-5.71,1.1,-107.12,-3.78,-0.73,-4.15,-0.01,-0.1,1.03,1000
17:16:20.358,-5.68,1.03,-107.16,-4.33,-0.37,-4.21,0.0,-0.1,1.02,1000
17:16:20.370,-5.71,0.87,-107.21,-4.76,0.06,-4.15,-0.0,-0.11,1.02,1000
17:16:20.380,-5.81,0.75,-107.26,-6.04,0.18,-4.39,-0.0,-0.12,1.03,1000
17:16:20.391,-5.99,0.65,-107.31,-7.26,0.85,-4.94,-0.01,-0.12,1.04,1000
17:16:20.404,-6.19,0.63,-107.36,-9.51,1.28,-4.88,-0.02,-0.12,1.04,1000
17:16:20.416,-6.39,0.65,-107.41,-11.16,2.68,-4.76,-0.0,-0.14,1.03,1000
17:16:20.425,-6.7,0.62,-107.46,-11.04,3.48,-3.72,-0.0,-0.16,1.02,1000
17:16:20.435,-7.05,0.57,-107.49,-10.43,4.39,-1.28,-0.0,-0.13,1.02,1000
17:16:20.454,-7.35,0.49,-107.49,-9.51,5.55,1.71,0.0,-0.14,1.02,1000
17:16:20.457,-7.58,0.37,-107.46,-8.48,6.71,4.7,0.01,-0.14,1.01,1000
17:16:20.468,-7.8,0.21,-107.39,-6.65,9.15,7.5,0.03,-0.15,1.02,1000
17:16:20.479,-7.93,0.05,-107.31,-5.24,11.34,9.45,0.02,-0.15,1.01,1000
17:16:20.490,-7.98,-0.01,-107.18,-3.48,14.15,11.34,-0.0,-0.13,1.02,1000
17:16:20.501,-7.93,0.1,-107.05,-2.56,15.55,12.01,-0.02,-0.14,1.03,1000
17:16:20.514,-7.85,0.42,-106.92,-2.5,16.34,11.83,-0.03,-0.14,1.04,1000
17:16:20.523,-7.82,0.73,-106.8,-3.41,16.4,10.18,-0.03,-0.14,1.04,1000
17:16:20.536,-7.89,1.05,-106.69,-5.43,15.55,6.95,-0.05,-0.15,1.01,1000
17:16:20.547,-8.05,1.43,-106.63,-6.95,14.33,4.27,-0.08,-0.16,0.99,1000
17:16:20.559,-8.36,2.15,-106.6,-7.38,8.41,1.77,-0.11,-0.16,0.98,1000
17:16:20.568,-8.61,2.89,-106.59,-5.73,-1.71,-0.06,-0.11,-0.15,0.99,1000
17:16:20.578,-8.72,3.45,-106.6,-2.5,-13.6,-1.1,-0.09,-0.14,1.0,1000
17:16:20.591,-8.67,3.63,-106.61,-0.24,-20.55,-2.44,-0.05,-0.13,0.98,1000
17:16:20.600,-8.49,3.46,-106.65,0.61,-21.28,-3.48,-0.03,-0.12,0.99,1000
17:16:20.611,-8.19,3.08,-106.69,-0.12,-17.56,-4.76,-0.03,-0.11,1.01,1000
17:16:20.622,-7.85,2.75,-106.75,-0.91,-12.87,-5.61,-0.05,-0.12,1.02,1000
17:16:20.633,-7.64,2.64,-106.81,-2.32,-8.66,-6.16,-0.06,-0.13,1.03,1000
17:16:20.656,-7.56,2.69,-106.88,-3.54,-6.04,-6.89,-0.07,-0.14,1.03,1000
17:16:20.661,-7.58,2.8,-106.96,-4.76,-4.88,-7.38,-0.05,-0.14,1.03,1000
17:16:20.666,-7.64,2.77,-107.04,-6.22,-4.02,-8.17,-0.02,-0.14,1.01,1000
17:16:20.678,-7.71,2.55,-107.13,-7.5,-4.33,-7.8,-0.0,-0.13,1.01,1000
17:16:20.688,-7.74,2.19,-107.22,-7.56,-6.89,-6.77,0.0,-0.13,1.01,1000
17:16:20.699,-7.73,1.7,-107.28,-5.91,-10.3,-5.06,-0.01,-0.13,1.01,1000
17:16:20.712,-7.73,1.31,-107.33,-2.26,-12.93,-3.54,0.0,-0.15,1.0,1000
17:16:20.721,-7.82,0.96,-107.36,2.44,-12.38,-1.95,0.01,-0.17,1.02,1000
17:16:20.735,-7.98,0.58,-107.38,6.59,-9.27,-0.85,0.01,-0.17,1.04,1000
17:16:20.744,-8.08,0.27,-107.38,10.18,-3.9,0.0,0.01,-0.16,1.05,1000
17:16:20.757,-8.06,0.12,-107.38,11.34,0.85,0.49,-0.01,-0.15,1.06,1000
17:16:20.765,-7.95,0.13,-107.38,10.79,3.84,0.73,-0.02,-0.14,1.06,1000
17:16:20.776,-7.83,0.25,-107.37,9.02,4.21,0.61,-0.02,-0.14,1.05,1000
17:16:20.787,-7.74,0.43,-107.36,6.46,3.23,0.37,-0.02,-0.14,1.04,1000
17:16:20.798,-7.66,0.59,-107.36,4.21,1.16,0.24,-0.02,-0.13,1.03,1000
17:16:20.809,-7.59,0.72,-107.36,2.07,-1.1,0.3,-0.02,-0.13,1.02,1000
17:16:20.823,-7.5,0.83,-107.36,0.43,-2.99,0.91,-0.02,-0.12,1.01,1000
17:16:20.831,-7.42,0.88,-107.35,-1.04,-4.02,0.98,-0.02,-0.13,1.01,1000
17:16:20.844,-7.34,0.94,-107.34,-2.32,-4.02,1.04,-0.03,-0.12,1.02,1000
17:16:20.859,-7.3,0.99,-107.33,-3.96,-3.66,0.61,-0.03,-0.12,1.02,1000
17:16:20.864,-7.25,1.04,-107.32,-4.94,-3.11,-0.06,-0.03,-0.12,1.02,1000
17:16:20.875,-7.19,1.13,-107.33,-6.4,-2.38,-0.85,-0.03,-0.12,1.03,1000
17:16:20.886,-7.17,1.18,-107.34,-7.62,-2.01,-2.13,-0.02,-0.12,1.02,1000
17:16:20.898,-7.17,1.18,-107.37,-8.48,-2.26,-3.41,-0.02,-0.13,1.02,1000
17:16:20.909,-7.23,1.13,-107.41,-8.6,-3.05,-4.51,-0.01,-0.13,1.02,1000
17:16:20.923,-7.33,1.03,-107.47,-7.93,-4.39,-4.94,-0.01,-0.14,1.02,1000
17:16:20.930,-7.45,0.91,-107.52,-6.77,-5.06,-5.12,-0.01,-0.15,1.01,1000
17:16:20.946,-7.63,0.77,-107.58,-5.06,-5.91,-5.12,0.0,-0.15,1.02,1000
17:16:20.956,-7.8,0.59,-107.64,-2.87,-5.73,-4.82,0.0,-0.15,1.02,1000
17:16:20.967,-7.91,0.44,-107.68,-1.22,-4.7,-4.27,-0.0,-0.15,1.03,1000
17:16:20.974,-8.0,0.31,-107.73,0.18,-2.56,-3.96,-0.0,-0.15,1.03,1000
17:16:20.985,-8.05,0.24,-107.77,0.91,-0.18,-3.17,0.0,-0.15,1.03,1000
17:16:20.997,-8.11,0.17,-107.8,0.79,1.1,-2.5,0.0,-0.15,1.02,1000
17:16:21.007,-8.15,0.09,-107.83,-0.12,1.52,-1.34,0.01,-0.15,1.02,1000
17:16:21.019,-8.17,0.03,-107.84,-1.95,1.34,-0.3,0.0,-0.14,1.01,1000
17:16:21.029,-8.2,0.02,-107.84,-4.09,0.67,0.73,-0.01,-0.15,1.01,1000
17:16:21.040,-8.26,0.06,-107.82,-5.91,-0.3,1.83,-0.0,-0.15,1.0,1000
17:16:21.052,-8.34,0.07,-107.8,-7.13,-2.44,2.56,0.01,-0.15,1.0,1000
17:16:21.064,-8.43,0.01,-107.77,-7.32,-4.39,2.62,-0.0,-0.15,1.01,1000
17:16:21.073,-8.52,-0.01,-107.74,-6.71,-4.82,2.32,-0.01,-0.16,1.01,1000
17:16:21.084,-8.62,0.02,-107.71,-5.61,-4.7,1.95,-0.01,-0.16,1.02,1000
17:16:21.095,-8.73,0.08,-107.7,-4.15,-3.72,1.52,-0.0,-0.16,1.02,1000
17:16:21.106,-8.8,0.1,-107.68,-2.32,-2.87,0.67,-0.0,-0.16,1.02,1000
17:16:21.117,-8.83,0.11,-107.68,-0.67,-2.01,0.06,-0.0,-0.16,1.02,1000
17:16:21.128,-8.82,0.12,-107.68,1.1,-1.1,-0.43,-0.0,-0.15,1.02,1000
17:16:21.139,-8.78,0.11,-107.69,2.07,-0.73,-0.85,0.0,-0.15,1.02,1000
17:16:21.151,-8.73,0.07,-107.7,2.74,-0.73,-1.04,-0.0,-0.15,1.02,1000
17:16:21.161,-8.65,0.05,-107.71,2.99,-0.91,-0.61,-0.0,-0.15,1.02,1000
17:16:21.172,-8.55,0.03,-107.71,2.99,-1.59,-0.49,0.01,-0.15,1.02,1000
17:16:21.183,-8.45,-0.02,-107.72,2.68,-2.2,0.0,0.01,-0.14,1.02,1000
17:16:21.194,-8.35,-0.09,-107.72,2.07,-2.38,0.12,0.0,-0.15,1.02,1000
17:16:21.205,-8.28,-0.12,-107.72,1.4,-1.77,0.0,0.0,-0.15,1.02,1000
17:16:21.216,-8.24,-0.15,-107.72,1.04,-1.28,-0.12,0.01,-0.15,1.03,1000
17:16:21.230,-8.19,-0.19,-107.72,0.37,-0.37,-0.12,0.0,-0.15,1.03,1000
17:16:21.240,-8.14,-0.2,-107.72,-0.49,0.37,-0.18,0.0,-0.14,1.03,1000
17:16:21.253,-8.09,-0.19,-107.72,-1.34,0.91,0.0,0.0,-0.14,1.03,1000
17:16:21.269,-8.05,-0.18,-107.72,-1.71,0.85,0.12,-0.0,-0.14,1.02,1000
17:16:21.272,-8.04,-0.14,-107.72,-1.95,0.49,0.3,-0.0,-0.14,1.02,1000
17:16:21.282,-8.03,-0.07,-107.71,-1.83,0.24,0.49,-0.0,-0.15,1.01,1000
17:16:21.293,-8.04,-0.02,-107.71,-1.83,-0.37,0.55,-0.0,-0.14,1.02,1000
17:16:21.304,-8.05,0.02,-107.7,-1.95,-0.61,0.67,-0.0,-0.14,1.02,1000
17:16:21.315,-8.06,0.04,-107.69,-1.95,-0.73,0.67,-0.0,-0.15,1.02,1000
17:16:21.326,-8.08,0.03,-107.69,-2.13,-0.55,0.24,0.0,-0.15,1.02,1000
17:16:21.337,-8.12,-0.02,-107.69,-2.56,-0.73,-0.3,0.0,-0.15,1.02,1000
17:16:21.349,-8.18,-0.07,-107.7,-2.44,-0.91,-1.1,0.0,-0.15,1.02,1000
17:16:21.361,-8.24,-0.09,-107.71,-2.56,-1.04,-1.46,0.0,-0.15,1.02,1000
17:16:21.371,-8.3,-0.11,-107.73,-1.95,-1.46,-1.59,0.0,-0.16,1.02,1000
17:16:21.381,-8.4,-0.11,-107.74,-0.79,-1.34,-1.77,-0.0,-0.16,1.02,1000
17:16:21.392,-8.5,-0.1,-107.76,0.43,-0.85,-1.34,0.0,-0.16,1.02,1000
17:16:21.406,-8.59,-0.11,-107.78,1.71,-0.55,-0.98,0.01,-0.16,1.02,1000
17:16:21.414,-8.63,-0.15,-107.79,2.74,-0.12,-0.61,0.01,-0.16,1.02,1000
17:16:21.434,-8.65,-0.21,-107.79,3.48,-0.06,-0.43,0.01,-0.16,1.02,1000
17:16:21.437,-8.64,-0.26,-107.79,3.54,-0.55,-0.12,0.01,-0.15,1.02,1000
17:16:21.447,-8.62,-0.29,-107.8,3.54,-0.91,0.0,0.0,-0.16,1.02,1000
17:16:21.458,-8.6,-0.29,-107.8,2.93,-0.85,-0.3,0.0,-0.15,1.02,1000
17:16:21.469,-8.58,-0.28,-107.8,1.83,-0.61,-0.49,0.0,-0.15,1.02,1000
17:16:21.480,-8.56,-0.26,-107.8,0.85,-0.43,-0.61,0.0,-0.15,1.02,1000
17:16:21.491,-8.52,-0.23,-107.81,-0.18,0.12,-0.3,0.0,-0.15,1.02,1000
17:16:21.504,-8.47,-0.21,-107.81,-0.85,0.49,0.18,0.0,-0.14,1.02,1000
17:16:21.513,-8.4,-0.17,-107.81,-1.4,0.49,0.49,-0.0,-0.14,1.02,1000
17:16:21.524,-8.31,-0.11,-107.8,-1.46,0.24,1.4,-0.0,-0.14,1.02,1000
17:16:21.537,-8.26,-0.07,-107.78,-1.77,-0.06,1.4,0.0,-0.14,1.01,1000
17:16:21.547,-8.22,-0.05,-107.77,-1.71,-0.37,1.59,0.0,-0.15,1.01,1000
17:16:21.560,-8.2,-0.04,-107.75,-1.83,-0.91,1.4,0.0,-0.14,1.01,1000
17:16:21.570,-8.2,-0.04,-107.74,-1.89,-1.22,1.16,-0.0,-0.14,1.01,1000
17:16:21.580,-8.19,-0.04,-107.73,-1.71,-1.83,0.55,-0.01,-0.15,1.02,1000
17:16:21.590,-8.2,0.01,-107.72,-1.46,-2.26,-0.06,-0.01,-0.15,1.02,1000
17:16:21.601,-8.24,0.08,-107.73,-0.91,-2.32,-0.73,-0.01,-0.15,1.02,1000
17:16:21.612,-8.32,0.12,-107.74,0.06,-2.5,-1.22,-0.0,-0.16,1.02,1000
17:16:21.623,-8.4,0.11,-107.75,0.91,-2.2,-1.34,0.0,-0.16,1.02,1000
17:16:21.634,-8.46,0.06,-107.77,2.26,-2.01,-1.1,0.01,-0.15,1.02,1000
17:16:21.645,-8.48,-0.04,-107.78,2.93,-2.26,-0.61,0.01,-0.15,1.02,1000
17:16:21.656,-8.47,-0.14,-107.78,3.72,-2.44,-0.24,0.0,-0.15,1.02,1000
17:16:21.667,-8.43,-0.2,-107.78,4.21,-2.5,0.18,0.01,-0.15,1.02,1000
17:16:21.679,-8.34,-0.25,-107.78,4.57,-2.38,0.61,0.01,-0.14,1.02,1000
17:16:21.689,-8.23,-0.29,-107.77,4.63,-1.89,0.98,0.01,-0.14,1.03,1000
17:16:21.700,-8.09,-0.34,-107.76,4.27,-1.22,1.22,0.01,-0.14,1.02,1000
17:16:21.711,-7.95,-0.37,-107.74,3.29,-0.73,1.34,0.01,-0.13,1.02,1000
17:16:21.723,-7.82,-0.37,-107.73,2.38,-0.79,1.28,0.01,-0.13,1.02,1000
17:16:21.735,-7.71,-0.39,-107.72,1.04,-1.04,0.91,0.01,-0.14,1.02,1000
17:16:21.744,-7.66,-0.41,-107.71,0.0,-1.34,0.37,0.01,-0.14,1.02,1000
17:16:21.755,-7.61,-0.41,-107.71,-0.61,-1.28,-0.18,0.01,-0.13,1.02,1000
17:16:21.766,-7.58,-0.42,-107.71,-1.28,-0.61,-0.67,0.01,-0.13,1.02,1000
17:16:21.780,-7.57,-0.42,-107.72,-1.65,0.18,-0.98,0.01,-0.14,1.02,1000
17:16:21.788,-7.59,-0.4,-107.73,-2.07,0.98,-1.16,0.0,-0.14,1.02,1000
17:16:21.799,-7.65,-0.35,-107.74,-2.56,1.22,-1.34,0.0,-0.15,1.02,1000
17:16:21.810,-7.74,-0.3,-107.76,-2.8,1.34,-1.16,0.0,-0.14,1.01,1000
17:16:21.821,-7.82,-0.27,-107.77,-2.93,0.98,-0.79,0.01,-0.14,1.01,1000
17:16:21.848,-7.89,-0.28,-107.77,-3.23,0.73,-0.55,0.01,-0.15,1.01,1000
17:16:21.850,-7.97,-0.32,-107.78,-3.48,0.06,-0.3,0.01,-0.15,1.01,1000
17:16:21.859,-8.06,-0.33,-107.78,-3.78,-0.73,0.0,-0.0,-0.15,1.01,1000
17:16:21.868,-8.17,-0.31,-107.78,-3.72,-1.89,0.12,0.0,-0.15,1.01,1000
17:16:21.886,-8.3,-0.3,-107.78,-3.17,-2.56,0.06,0.0,-0.16,1.01,1000
17:16:21.889,-8.45,-0.28,-107.78,-2.26,-3.29,0.0,-0.0,-0.16,1.01,1000
17:16:21.898,-8.56,-0.24,-107.78,-1.46,-3.41,-0.24,-0.0,-0.16,1.01,1000
17:16:21.910,-8.65,-0.2,-107.78,-0.3,-2.99,-0.37,-0.0,-0.16,1.01,1000
17:16:21.920,-8.69,-0.16,-107.78,0.55,-2.5,-0.18,-0.0,-0.16,1.01,1000
17:16:21.931,-8.71,-0.14,-107.78,1.04,-2.07,-0.06,0.0,-0.15,1.01,1000
17:16:21.946,-8.67,-0.13,-107.77,1.16,-2.2,0.3,0.0,-0.15,1.01,1000
17:16:21.956,-8.6,-0.15,-107.77,1.04,-2.74,0.85,0.01,-0.15,1.01,1000
17:16:21.966,-8.52,-0.22,-107.76,0.85,-3.41,0.73,0.01,-0.15,1.02,1000
17:16:21.975,-8.46,-0.3,-107.75,-0.06,-4.45,0.37,0.01,-0.15,1.02,1000
17:16:21.989,-8.44,-0.41,-107.75,-0.67,-5.18,-0.18,0.01,-0.15,1.02,1000
17:16:21.997,-8.45,-0.48,-107.75,-1.34,-5.3,-0.79,0.01,-0.15,1.02,1000
17:16:22.008,-8.48,-0.51,-107.76,-1.83,-4.57,-1.22,0.01,-0.15,1.03,1000
17:16:22.021,-8.48,-0.52,-107.78,-2.01,-3.96,-1.83,0.01,-0.15,1.03,1000
17:16:22.030,-8.49,-0.54,-107.8,-1.95,-3.05,-2.13,0.02,-0.15,1.04,1000
17:16:22.043,-8.49,-0.59,-107.83,-1.46,-1.59,-2.26,0.02,-0.16,1.04,1000
17:16:22.052,-8.49,-0.63,-107.85,-0.49,0.24,-1.95,0.02,-0.16,1.05,1000
17:16:22.064,-8.48,-0.68,-107.87,0.67,1.95,-1.34,0.03,-0.15,1.04,1000
17:16:22.075,-8.45,-0.76,-107.88,1.65,3.66,-0.24,0.03,-0.15,1.04,1000
17:16:22.088,-8.41,-0.84,-107.88,2.26,4.33,0.49,0.02,-0.15,1.04,1000
17:16:22.096,-8.37,-0.88,-107.87,2.13,4.33,1.04,0.02,-0.15,1.03,1000
17:16:22.107,-8.32,-0.89,-107.86,1.4,3.35,1.59,0.01,-0.15,1.03,1000
17:16:22.118,-8.29,-0.86,-107.84,0.49,2.13,1.77,0.01,-0.15,1.02,1000
17:16:22.129,-8.25,-0.78,-107.82,-0.91,0.61,1.89,0.01,-0.14,1.02,1000
17:16:22.141,-8.22,-0.69,-107.79,-2.44,-0.43,2.01,0.0,-0.14,1.02,1000
17:16:22.151,-8.21,-0.62,-107.77,-3.66,-0.98,2.01,0.01,-0.14,1.02,1000
