Timestamp,Roll,Pitch,Yaw,Gyro_X,Gyro_Y,Gyro_Z,Accel_X,Accel_Y,Accel_Z,Throttle
20:28:29.819,0.35,-9.53,29.16,-9.33,2.01,12.74,0.21,0.01,1.06,1000
20:28:30.007,0.28,-9.5,29.28,-6.65,6.52,8.6,0.22,-0.01,1.05,1000
20:28:30.007,0.22,-9.42,29.36,-3.48,9.82,2.99,0.22,-0.03,1.05,1000
20:28:30.007,0.2,-9.33,29.37,-0.18,10.85,-1.22,0.2,-0.01,1.03,1000
20:28:30.007,0.21,-9.22,29.34,3.29,10.12,-4.21,0.19,0.01,1.03,1000
20:28:30.007,0.26,-9.13,29.29,5.73,8.66,-4.94,0.17,0.03,1.03,1000
20:28:30.007,0.31,-9.07,29.25,7.01,6.71,-5.0,0.15,0.04,1.05,1000
20:28:30.007,0.4,-9.01,29.19,7.8,3.84,-4.45,0.16,0.04,1.04,1000
20:28:30.007,0.5,-8.98,29.15,7.8,2.38,-4.27,0.16,0.04,1.05,1000
20:28:30.007,0.59,-8.96,29.1,6.4,1.52,-4.94,0.17,0.03,1.04,1000
20:28:30.007,0.66,-8.94,29.04,4.09,2.26,-6.22,0.19,0.03,1.03,1000
20:28:30.007,0.7,-8.92,28.96,0.98,4.76,-7.74,0.17,0.04,1.04,1000
20:28:30.007,0.71,-8.85,28.87,-2.99,8.6,-9.51,0.18,0.03,1.03,1000
20:28:30.007,0.67,-8.75,28.76,-5.67,12.99,-10.79,0.18,0.02,1.03,1000
20:28:30.007,0.61,-8.6,28.63,-6.89,16.59,-11.95,0.17,0.01,1.01,1000
20:28:30.007,0.54,-8.43,28.51,-6.65,18.78,-12.87,0.17,0.01,1.0,1000
20:28:30.007,0.48,-8.23,28.37,-5.3,20.06,-11.71,0.16,0.04,1.0,1000
20:28:30.012,0.44,-8.03,28.25,-2.93,19.76,-10.0,0.13,0.03,1.0,1000
20:28:30.014,0.43,-7.82,28.15,-0.61,18.29,-8.35,0.15,0.02,1.01,1000
20:28:30.025,0.44,-7.64,28.06,1.52,16.34,-7.68,0.14,-0.01,1.0,1000
20:28:30.036,0.47,-7.47,27.97,3.41,14.76,-8.48,0.16,-0.03,1.0,1000
20:28:30.047,0.5,-7.33,27.88,4.94,12.13,-8.6,0.14,-0.01,0.98,1000
20:28:30.057,0.55,-7.22,27.78,6.1,7.93,-7.93,0.11,0.0,1.0,1000
20:28:30.069,0.62,-7.16,27.7,6.22,3.78,-5.79,0.13,0.02,0.97,1000
20:28:30.080,0.67,-7.14,27.66,5.98,0.06,-2.62,0.09,0.04,0.99,1000
20:28:30.090,0.74,-7.15,27.64,5.0,-3.72,0.49,0.1,0.04,0.99,1000
20:28:30.103,0.8,-7.2,27.66,3.35,-6.28,2.26,0.12,0.03,0.98,1000
20:28:30.114,0.83,-7.27,27.69,1.59,-7.8,2.99,0.11,0.02,1.0,1000
20:28:30.126,0.85,-7.34,27.71,-0.43,-8.48,2.56,0.12,0.01,0.98,1000
20:28:30.135,0.83,-7.43,27.74,-2.56,-8.41,1.71,0.12,0.01,0.99,1000
20:28:30.147,0.8,-7.52,27.75,-3.72,-8.29,0.55,0.12,0.01,0.99,1000
20:28:30.157,0.76,-7.6,27.76,-3.66,-8.29,0.12,0.12,0.02,0.99,1000
20:28:30.169,0.72,-7.69,27.76,-3.29,-8.66,0.06,0.11,0.02,0.99,1000
20:28:30.179,0.7,-7.78,27.76,-2.2,-9.45,0.06,0.11,0.03,1.0,1000
20:28:30.192,0.68,-7.87,27.76,-0.98,-9.15,0.61,0.12,0.05,0.98,1000
20:28:30.201,0.68,-7.95,27.77,-0.85,-7.38,1.4,0.13,0.07,1.0,1000
20:28:30.213,0.69,-8.01,27.79,-1.34,-3.54,2.2,0.14,0.07,1.0,1000
20:28:30.224,0.7,-8.03,27.81,-1.65,-0.06,1.22,0.15,0.05,1.06,1000
20:28:30.235,0.71,-8.01,27.81,-0.67,4.51,-2.56,0.18,-0.0,1.05,1000
20:28:30.246,0.72,-7.95,27.75,1.59,8.41,-7.74,0.2,-0.03,1.07,1000
20:28:30.256,0.74,-7.86,27.65,2.99,10.98,-12.01,0.18,-0.01,1.03,1000
20:28:30.267,0.77,-7.75,27.51,2.87,14.33,-13.35,0.2,0.05,1.02,1000
20:28:30.279,0.81,-7.62,27.38,2.13,15.49,-12.07,0.12,0.07,1.06,1000
20:28:30.289,0.84,-7.45,27.24,1.22,13.41,-10.37,0.12,0.05,1.06,1000
20:28:30.299,0.87,-7.32,27.13,0.73,10.73,-10.06,0.14,0.01,1.03,1000
20:28:30.513,0.88,-7.22,27.02,0.85,7.26,-10.37,0.12,-0.0,1.03,1000
20:28:30.513,0.89,-7.17,26.9,0.91,1.83,-10.0,0.12,0.0,1.02,1000
20:28:30.513,0.9,-7.17,26.82,1.28,-3.84,-8.9,0.1,0.01,1.02,1000
20:28:30.513,0.91,-7.24,26.74,1.77,-9.94,-6.65,0.1,0.01,1.01,1000
20:28:30.513,0.93,-7.38,26.67,0.98,-14.88,-3.66,0.11,0.03,1.0,1000
20:28:30.513,0.93,-7.52,26.65,-0.24,-16.59,-0.18,0.1,0.05,1.01,1000
20:28:30.513,0.93,-7.68,26.66,-1.95,-17.2,4.02,0.11,0.05,1.03,1000
20:28:30.513,0.91,-7.85,26.72,-3.05,-16.04,6.77,0.13,0.02,1.04,1000
20:28:30.513,0.88,-8.0,26.8,-3.23,-13.41,7.07,0.15,-0.01,1.05,1000
20:28:30.513,0.84,-8.12,26.87,-2.8,-9.82,6.04,0.17,-0.03,1.04,1000
20:28:30.513,0.8,-8.21,26.93,-1.46,-5.98,4.82,0.17,-0.02,1.03,1000
20:28:30.513,0.78,-8.26,26.98,0.06,-1.71,4.57,0.16,0.01,1.03,1000
20:28:30.513,0.79,-8.26,27.04,1.65,2.26,6.1,0.14,0.04,1.04,1000
20:28:30.513,0.81,-8.22,27.11,2.38,6.16,7.93,0.14,0.02,1.05,1000
20:28:30.513,0.84,-8.14,27.2,3.11,9.21,8.29,0.15,0.01,1.05,1000
20:28:30.513,0.87,-8.03,27.29,3.66,11.16,7.32,0.15,0.0,1.04,1000
20:28:30.513,0.91,-7.9,27.37,3.78,11.46,6.16,0.15,0.0,1.04,1000
20:28:30.513,0.95,-7.79,27.43,3.72,9.88,5.18,0.14,0.01,1.03,1000
20:28:30.513,0.98,-7.7,27.48,3.48,6.4,4.63,0.13,0.02,1.02,1000
20:28:30.523,1.01,-7.64,27.54,2.68,2.93,5.3,0.12,0.04,1.01,1000
20:28:30.531,1.04,-7.62,27.6,1.4,-0.37,6.28,0.11,0.03,1.01,1000
20:28:30.542,1.06,-7.64,27.67,0.67,-3.48,6.71,0.12,0.02,1.01,1000
20:28:30.555,1.07,-7.68,27.75,1.28,-5.91,6.83,0.12,0.02,1.01,1000
20:28:30.568,1.09,-7.75,27.81,2.68,-8.84,6.71,0.14,0.02,1.02,1000
20:28:30.575,1.13,-7.86,27.89,4.88,-11.59,6.52,0.15,0.03,1.02,1000
20:28:30.586,1.19,-7.98,27.96,6.71,-12.01,7.44,0.16,0.06,1.01,1000
20:28:30.602,1.28,-8.11,28.05,7.44,-8.54,9.33,0.16,0.09,1.01,1000
20:28:30.792,1.39,-8.19,28.16,7.87,-4.02,11.04,0.15,0.08,1.05,1000
20:28:30.792,1.5,-8.21,28.28,7.99,1.77,10.49,0.15,0.05,1.07,1000
20:28:30.792,1.61,-8.16,28.39,8.6,7.5,7.5,0.18,0.03,1.06,1000
20:28:30.792,1.71,-8.07,28.45,9.09,12.62,3.66,0.18,0.02,1.05,1000
20:28:30.792,1.82,-7.92,28.47,9.94,15.85,-0.49,0.17,0.03,1.05,1000
20:28:30.792,1.93,-7.76,28.46,10.43,16.1,-2.32,0.15,0.06,1.03,1000
20:28:30.792,2.05,-7.6,28.43,10.12,14.33,-2.5,0.11,0.07,1.02,1000
20:28:30.792,2.16,-7.47,28.41,8.96,11.46,-2.2,0.12,0.07,1.01,1000
20:28:30.792,2.27,-7.35,28.39,6.34,7.5,-1.1,0.1,0.08,1.01,1000
20:28:30.792,2.33,-7.29,28.38,2.99,3.11,0.0,0.1,0.08,1.01,1000
20:28:30.792,2.37,-7.27,28.38,0.0,-1.46,1.1,0.12,0.07,1.0,1000
20:28:30.793,2.37,-7.3,28.4,-3.29,-5.37,2.2,0.12,0.08,1.0,1000
20:28:30.793,2.33,-7.36,28.43,-6.22,-8.11,3.23,0.12,0.08,1.0,1000
20:28:30.793,2.28,-7.45,28.47,-8.35,-9.82,4.7,0.12,0.07,1.01,1000
20:28:30.793,2.2,-7.56,28.53,-9.51,-10.79,6.04,0.13,0.07,1.02,1000
20:28:30.793,2.11,-7.67,28.6,-9.15,-11.1,6.77,0.13,0.06,1.02,1000
20:28:30.793,2.03,-7.79,28.67,-7.8,-11.1,7.2,0.14,0.06,1.02,1000
20:28:30.795,1.97,-7.9,28.75,-5.79,-10.49,7.44,0.15,0.07,1.02,1000
20:28:30.806,1.93,-8.01,28.83,-4.02,-9.33,7.26,0.15,0.06,1.02,1000
20:28:31.019,1.91,-8.1,28.91,-2.13,-6.59,5.91,0.17,0.06,1.02,1000
20:28:31.019,1.91,-8.16,28.96,-0.79,-2.87,3.9,0.16,0.05,1.02,1000
20:28:31.019,1.92,-8.18,29.0,0.37,1.34,1.52,0.17,0.04,1.04,1000
20:28:31.019,1.94,-8.15,29.0,1.71,4.82,-0.98,0.18,0.04,1.02,1000
20:28:31.019,1.97,-8.09,28.98,3.11,9.02,-3.05,0.18,0.05,1.02,1000
20:28:31.019,2.01,-7.99,28.94,3.72,11.83,-4.09,0.16,0.04,1.03,1000
20:28:31.019,2.06,-7.87,28.89,4.45,13.35,-4.7,0.17,0.05,1.03,1000
20:28:31.019,2.12,-7.73,28.84,5.06,14.33,-4.57,0.15,0.05,1.02,1000
20:28:31.019,2.18,-7.58,28.8,4.88,14.57,-3.72,0.15,0.06,1.03,1000
20:28:31.019,2.24,-7.43,28.76,3.23,14.15,-3.11,0.12,0.05,1.02,1000
20:28:31.019,2.27,-7.29,28.72,1.16,12.26,-4.09,0.11,0.04,1.03,1000
20:28:31.019,2.28,-7.18,28.68,-0.79,9.27,-4.88,0.13,0.04,1.0,1000
20:28:31.019,2.26,-7.09,28.61,-3.05,4.57,-5.91,0.11,0.03,0.99,1000
20:28:31.019,2.22,-7.06,28.54,-4.57,-0.67,-6.89,0.11,0.03,0.99,1000
20:28:31.019,2.16,-7.09,28.46,-6.04,-6.52,-7.07,0.11,0.03,0.98,1000
20:28:31.019,2.09,-7.17,28.39,-6.52,-11.59,-6.52,0.1,0.03,0.99,1000
20:28:31.019,2.02,-7.29,28.33,-6.83,-14.51,-5.18,0.1,0.04,0.99,1000
20:28:31.019,1.94,-7.46,28.28,-7.2,-15.73,-2.8,0.11,0.05,1.0,1000
20:28:31.019,1.87,-7.61,28.25,-7.26,-14.57,-1.4,0.11,0.03,1.0,1000
20:28:31.034,1.79,-7.75,28.24,-6.65,-12.62,-0.49,0.13,0.01,1.01,1000
20:28:31.037,1.72,-7.86,28.24,-5.12,-9.33,-0.24,0.14,0.01,1.0,1000
20:28:31.048,1.67,-7.95,28.24,-3.6,-6.71,0.0,0.13,0.02,1.0,1000
20:28:31.059,1.63,-7.99,28.24,-1.65,-3.17,1.16,0.12,0.04,1.0,1000
20:28:31.070,1.62,-8.0,28.26,0.0,1.22,2.26,0.13,0.05,0.99,1000
20:28:31.081,1.64,-7.97,28.29,1.77,5.12,3.78,0.13,0.05,1.02,1000
20:28:31.095,1.66,-7.89,28.33,3.6,9.51,4.27,0.15,0.04,1.02,1000
20:28:31.103,1.71,-7.79,28.36,5.37,11.95,2.99,0.13,0.01,1.05,1000
20:28:31.114,1.77,-7.66,28.38,7.56,12.56,0.43,0.16,-0.0,1.03,1000
20:28:31.128,1.85,-7.53,28.38,9.02,11.65,-2.56,0.15,0.0,1.02,1000
20:28:31.138,1.94,-7.42,28.34,10.06,7.5,-4.27,0.14,0.02,1.02,1000
20:28:31.150,2.04,-7.37,28.29,9.82,0.98,-4.63,0.12,0.04,1.01,1000
20:28:31.157,2.14,-7.39,28.24,8.78,-5.55,-3.72,0.12,0.05,1.01,1000
20:28:31.169,2.23,-7.48,28.21,6.95,-11.52,-1.16,0.11,0.07,1.02,1000
20:28:31.181,2.3,-7.62,28.2,4.7,-15.67,1.16,0.12,0.06,1.02,1000
20:28:31.191,2.35,-7.8,28.23,2.2,-18.29,3.54,0.14,0.06,1.02,1000
20:28:31.202,2.37,-7.99,28.28,-0.37,-18.66,5.61,0.15,0.06,1.03,1000
20:28:31.213,2.36,-8.19,28.34,-3.17,-17.2,6.59,0.16,0.05,1.04,1000
20:28:31.227,2.33,-8.37,28.42,-5.06,-13.84,7.26,0.17,0.05,1.04,1000
20:28:31.237,2.27,-8.5,28.51,-5.98,-8.11,8.54,0.18,0.08,1.03,1000
20:28:31.248,2.22,-8.56,28.61,-5.91,-2.32,10.0,0.16,0.06,1.07,1000
20:28:31.258,2.17,-8.57,28.72,-4.39,3.17,9.88,0.19,0.03,1.07,1000
20:28:31.268,2.13,-8.52,28.82,-1.59,8.11,8.29,0.19,0.02,1.06,1000
20:28:31.279,2.13,-8.42,28.91,1.65,11.83,6.59,0.18,0.02,1.07,1000
20:28:31.290,2.15,-8.29,28.97,4.33,13.41,4.94,0.18,0.02,1.04,1000
20:28:31.300,2.2,-8.16,29.02,6.22,13.35,3.66,0.15,0.04,1.06,1000
20:28:31.312,2.26,-8.04,29.05,6.89,12.2,2.74,0.15,0.04,1.02,1000
20:28:31.323,2.33,-7.91,29.08,6.28,10.73,2.56,0.13,0.06,1.04,1000
20:28:31.515,2.39,-7.81,29.11,4.33,8.48,2.56,0.11,0.05,1.03,1000
20:28:31.515,2.43,-7.72,29.13,2.13,6.16,1.71,0.13,0.04,1.03,1000
20:28:31.515,2.45,-7.67,29.14,0.24,3.84,0.91,0.12,0.04,1.02,1000
20:28:31.515,2.44,-7.63,29.15,-1.77,0.49,0.49,0.13,0.04,1.02,1000
20:28:31.515,2.41,-7.63,29.16,-2.68,-2.13,0.85,0.14,0.05,1.0,1000
20:28:31.515,2.38,-7.66,29.17,-3.17,-3.48,2.38,0.12,0.07,1.02,1000
20:28:31.515,2.35,-7.69,29.21,-3.11,-4.51,4.21,0.12,0.05,1.01,1000
20:28:31.515,2.33,-7.73,29.25,-2.5,-4.09,5.55,0.15,0.05,1.01,1000
20:28:31.515,2.31,-7.77,29.33,-1.22,-1.34,7.56,0.13,0.08,1.02,1000
20:28:31.515,2.32,-7.77,29.42,0.0,0.43,8.11,0.13,0.04,1.04,1000
20:28:31.515,2.33,-7.75,29.5,1.46,2.07,6.65,0.16,0.03,1.03,1000
20:28:31.515,2.35,-7.72,29.57,2.99,3.84,4.15,0.15,0.02,1.02,1000
20:28:31.515,2.39,-7.68,29.6,4.21,5.06,2.13,0.15,0.04,1.01,1000
20:28:31.515,2.43,-7.63,29.63,4.63,5.55,2.07,0.12,0.07,1.01,1000
20:28:31.515,2.49,-7.56,29.65,4.7,6.34,2.32,0.13,0.07,1.0,1000
20:28:31.515,2.55,-7.49,29.68,4.39,6.4,3.11,0.12,0.07,1.02,1000
20:28:31.515,2.6,-7.42,29.71,3.41,6.1,3.11,0.12,0.05,1.01,1000
20:28:31.521,2.64,-7.35,29.75,2.5,4.82,2.5,0.13,0.05,1.02,1000
20:28:31.533,2.67,-7.31,29.77,1.83,2.87,1.89,0.12,0.06,1.0,1000
20:28:31.545,2.69,-7.29,29.79,0.61,0.3,1.89,0.13,0.07,1.0,1000
20:28:31.560,2.7,-7.29,29.81,-0.49,-2.5,2.56,0.11,0.07,1.0,1000
20:28:31.565,2.7,-7.33,29.84,-1.46,-5.18,2.8,0.12,0.06,1.0,1000
20:28:31.582,2.69,-7.39,29.87,-1.59,-7.68,2.68,0.12,0.06,1.0,1000
20:28:31.587,2.68,-7.48,29.9,-1.22,-10.12,2.87,0.12,0.07,1.01,1000
20:28:31.601,2.69,-7.6,29.94,-0.3,-12.74,2.87,0.12,0.06,1.0,1000
20:28:31.612,2.69,-7.72,29.96,0.79,-14.7,3.05,0.13,0.06,1.01,1000
20:28:31.624,2.72,-7.86,29.99,1.83,-16.22,3.11,0.12,0.06,1.02,1000
20:28:31.631,2.74,-8.02,30.02,2.44,-17.68,2.44,0.14,0.06,1.0,1000
20:28:31.646,2.78,-8.22,30.04,2.8,-19.02,1.89,0.14,0.07,1.02,1000
20:28:31.655,2.82,-8.42,30.06,2.56,-19.33,1.4,0.15,0.07,1.0,1000
20:28:31.664,2.85,-8.62,30.08,2.2,-17.2,1.22,0.17,0.09,1.0,1000
20:28:31.675,2.89,-8.8,30.09,0.61,-13.78,1.34,0.13,0.1,1.04,1000
20:28:31.688,2.9,-8.92,30.1,-2.2,-8.48,0.0,0.17,0.08,1.03,1000
20:28:31.700,2.88,-8.97,30.09,-4.82,-0.43,-1.4,0.19,0.1,1.04,1000
20:28:31.709,2.84,-8.94,30.07,-7.44,8.72,-2.93,0.17,0.07,1.05,1000
20:28:31.720,2.77,-8.81,30.03,-8.9,15.55,-6.28,0.18,0.03,1.06,1000
20:28:31.729,2.67,-8.63,29.94,-8.96,20.06,-9.51,0.18,0.01,1.04,1000
20:28:31.996,2.57,-8.41,29.82,-7.07,22.07,-12.2,0.16,0.01,1.03,1000
20:28:31.996,2.5,-8.18,29.69,-4.7,20.91,-12.01,0.15,0.03,1.01,1000
20:28:31.996,2.45,-7.97,29.57,-1.65,17.87,-9.7,0.13,0.05,1.0,1000
20:28:31.996,2.45,-7.79,29.47,1.52,14.57,-5.91,0.11,0.07,1.01,1000
20:28:31.996,2.48,-7.64,29.42,3.72,11.16,-2.87,0.09,0.04,1.02,1000
20:28:31.996,2.52,-7.54,29.4,5.73,6.1,-0.79,0.12,0.02,1.02,1000
20:28:31.996,2.59,-7.48,29.4,7.38,2.44,0.3,0.12,0.02,1.0,1000
20:28:31.996,2.67,-7.46,29.41,8.17,-1.59,1.65,0.11,0.03,1.02,1000
20:28:31.996,2.74,-7.49,29.43,7.74,-5.55,2.99,0.13,0.04,1.0,1000
20:28:31.996,2.81,-7.55,29.47,7.01,-7.93,4.39,0.12,0.04,1.0,1000
20:28:31.996,2.88,-7.65,29.53,5.61,-9.63,6.22,0.11,0.04,1.01,1000
20:28:31.996,2.93,-7.74,29.59,4.27,-10.18,7.44,0.13,0.04,1.0,1000
20:28:31.996,2.96,-7.84,29.68,2.68,-10.3,8.23,0.12,0.04,1.01,1000
20:28:31.996,2.98,-7.95,29.77,2.26,-10.43,8.29,0.14,0.04,1.0,1000
20:28:31.996,2.99,-8.05,29.86,1.77,-10.24,8.41,0.14,0.04,1.0,1000
20:28:31.996,3.01,-8.16,29.96,2.01,-9.45,8.72,0.15,0.06,1.0,1000
20:28:31.996,3.03,-8.25,30.07,2.13,-8.48,9.33,0.14,0.07,1.03,1000
20:28:31.996,3.06,-8.34,30.16,2.32,-6.83,8.9,0.16,0.05,1.04,1000
20:28:31.996,3.08,-8.39,30.24,2.74,-4.57,7.62,0.17,0.04,1.03,1000
20:28:31.997,3.11,-8.43,30.3,3.23,-2.44,5.67,0.17,0.05,1.04,1000
20:28:31.997,3.14,-8.45,30.36,3.48,-0.67,4.57,0.17,0.06,1.03,1000
20:28:31.997,3.18,-8.46,30.41,3.48,0.3,4.21,0.15,0.07,1.03,1000
20:28:31.997,3.22,-8.46,30.46,3.23,0.67,4.15,0.16,0.07,1.04,1000
20:28:31.997,3.26,-8.46,30.5,2.62,0.12,3.9,0.15,0.07,1.03,1000
20:28:32.004,3.29,-8.47,30.54,1.77,-1.1,3.48,0.16,0.07,1.03,1000
20:28:32.018,3.31,-8.49,30.58,0.79,-2.62,3.41,0.16,0.08,1.03,1000
20:28:32.026,3.32,-8.52,30.62,-0.06,-4.33,3.35,0.16,0.08,1.03,1000
20:28:32.037,3.33,-8.58,30.65,-0.85,-5.79,3.41,0.16,0.09,1.02,1000
20:28:32.238,3.33,-8.65,30.69,-1.4,-6.83,3.29,0.16,0.09,1.02,1000
20:28:32.238,3.32,-8.72,30.72,-1.95,-6.89,3.23,0.17,0.1,1.02,1000
20:28:32.238,3.32,-8.79,30.76,-2.2,-6.16,3.6,0.15,0.11,1.04,1000
20:28:32.238,3.31,-8.85,30.79,-2.74,-5.3,2.68,0.17,0.09,1.04,1000
20:28:32.238,3.3,-8.9,30.81,-3.17,-3.66,0.37,0.17,0.08,1.04,1000
20:28:32.238,3.28,-8.93,30.8,-3.35,-1.4,-2.74,0.18,0.07,1.03,1000
20:28:32.238,3.25,-8.94,30.76,-3.48,0.37,-5.79,0.18,0.06,1.03,1000
20:28:32.238,3.22,-8.93,30.69,-3.41,2.56,-8.23,0.17,0.09,1.03,1000
20:28:32.238,3.2,-8.9,30.59,-3.48,4.94,-9.21,0.16,0.1,1.02,1000
20:28:32.238,3.17,-8.84,30.49,-3.72,8.6,-9.39,0.18,0.11,1.03,1000
20:28:32.238,3.15,-8.73,30.39,-3.6,12.62,-9.76,0.14,0.09,1.05,1000
20:28:32.238,3.14,-8.58,30.28,-3.23,15.18,-11.04,0.16,0.06,1.06,1000
20:28:32.238,3.11,-8.41,30.14,-2.44,16.77,-13.17,0.18,0.04,1.04,1000
20:28:32.238,3.09,-8.23,29.99,-1.4,16.59,-15.43,0.16,0.04,1.03,1000
20:28:32.238,3.08,-8.07,29.82,-0.49,13.6,-15.91,0.15,0.04,1.02,1000
20:28:32.238,3.07,-7.94,29.64,0.18,9.15,-15.73,0.13,0.05,1.01,1000
20:28:32.238,3.07,-7.87,29.49,0.12,4.21,-14.27,0.12,0.04,1.0,1000
20:28:32.238,3.07,-7.85,29.35,-0.49,-1.71,-12.13,0.11,0.06,0.99,1000
20:28:32.449,3.06,-7.89,29.23,-1.04,-6.71,-8.84,0.1,0.06,0.99,1000
20:28:32.449,3.05,-7.98,29.15,-1.83,-11.71,-6.04,0.13,0.05,0.99,1000
20:28:32.449,3.02,-8.11,29.09,-2.68,-15.12,-3.48,0.13,0.06,0.98,1000
20:28:32.449,2.99,-8.27,29.06,-3.48,-16.83,-1.52,0.14,0.04,0.99,1000
20:28:32.449,2.95,-8.45,29.05,-4.27,-16.83,-0.61,0.16,0.04,0.99,1000
20:28:32.449,2.9,-8.63,29.05,-4.21,-15.67,-0.06,0.15,0.03,1.0,1000
20:28:32.449,2.85,-8.8,29.05,-3.41,-14.94,-0.37,0.17,0.03,1.0,1000
20:28:32.449,2.82,-8.94,29.04,-1.77,-13.11,-0.37,0.18,0.05,0.99,1000
20:28:32.449,2.8,-9.07,29.04,0.37,-9.15,0.37,0.17,0.07,1.01,1000
20:28:32.449,2.82,-9.15,29.05,1.71,-4.51,0.98,0.2,0.08,1.03,1000
20:28:32.449,2.85,-9.18,29.06,2.8,0.37,0.18,0.17,0.04,1.05,1000
20:28:32.449,2.88,-9.17,29.05,3.96,3.84,-2.74,0.19,0.01,1.05,1000
20:28:32.449,2.93,-9.12,29.0,4.88,6.89,-6.83,0.21,0.02,1.04,1000
20:28:32.449,2.97,-9.04,28.91,5.18,8.23,-10.3,0.18,0.02,1.03,1000
20:28:32.449,3.01,-8.97,28.79,5.0,6.77,-11.89,0.17,0.04,1.02,1000
20:28:32.449,3.05,-8.91,28.65,4.02,4.7,-11.34,0.15,0.07,1.0,1000
20:28:32.449,3.08,-8.87,28.54,2.2,2.2,-9.57,0.12,0.07,1.01,1000
20:28:32.449,3.1,-8.85,28.44,0.18,-0.79,-7.68,0.14,0.06,1.02,1000
20:28:32.449,3.08,-8.87,28.36,-2.2,-3.84,-5.85,0.14,0.05,1.02,1000
20:28:32.467,3.05,-8.92,28.31,-4.09,-6.4,-4.21,0.15,0.04,1.02,1000
20:28:32.467,3.0,-8.99,28.27,-5.06,-8.78,-2.74,0.16,0.04,1.01,1000
20:28:32.481,2.93,-9.09,28.24,-5.73,-10.61,-1.46,0.16,0.03,1.02,1000
20:28:32.488,2.86,-9.21,28.24,-5.67,-11.22,0.12,0.16,0.04,1.01,1000
20:28:32.501,2.8,-9.32,28.25,-5.12,-10.98,2.26,0.16,0.04,1.02,1000
20:28:32.512,2.74,-9.43,28.28,-3.54,-9.21,4.82,0.16,0.06,1.02,1000
20:28:32.521,2.71,-9.52,28.34,-1.95,-7.07,6.59,0.17,0.04,1.03,1000
20:28:32.533,2.69,-9.58,28.42,-0.3,-4.39,7.13,0.18,0.03,1.03,1000
20:28:32.544,2.69,-9.62,28.49,1.59,-1.46,6.34,0.18,0.02,1.02,1000
20:28:32.561,2.71,-9.62,28.55,2.93,1.4,4.76,0.19,0.02,1.02,1000
20:28:32.570,2.73,-9.6,28.6,3.9,3.29,3.35,0.18,0.01,1.01,1000
20:28:32.579,2.76,-9.56,28.63,4.33,4.15,2.32,0.17,0.02,1.01,1000
20:28:32.588,2.79,-9.52,28.66,3.78,4.33,2.56,0.16,0.04,1.01,1000
20:28:32.599,2.82,-9.48,28.69,1.83,3.54,3.84,0.15,0.05,1.01,1000
20:28:32.613,2.82,-9.44,28.74,-1.22,2.07,6.34,0.16,0.06,1.01,1000
20:28:32.621,2.79,-9.42,28.82,-4.45,0.06,9.27,0.16,0.07,1.01,1000
20:28:32.632,2.73,-9.43,28.93,-7.26,-2.26,11.59,0.17,0.06,1.01,1000
20:28:32.643,2.65,-9.46,29.07,-9.51,-4.09,13.11,0.18,0.06,1.0,1000
20:28:32.838,2.54,-9.51,29.21,-10.91,-5.49,13.78,0.18,0.05,1.01,1000
20:28:32.838,2.43,-9.58,29.36,-11.16,-6.34,12.87,0.19,0.05,1.0,1000
20:28:32.838,2.31,-9.65,29.5,-10.49,-6.04,11.59,0.18,0.05,1.01,1000
20:28:32.838,2.21,-9.72,29.62,-8.6,-5.55,10.0,0.18,0.04,1.02,1000
20:28:32.838,2.13,-9.78,29.72,-5.3,-5.18,7.74,0.18,0.04,1.02,1000
20:28:32.838,2.1,-9.84,29.79,-1.59,-4.57,5.18,0.19,0.03,1.02,1000
20:28:32.838,2.1,-9.89,29.84,2.68,-4.09,3.05,0.19,0.04,1.02,1000
20:28:32.838,2.15,-9.94,29.86,6.71,-3.17,1.16,0.19,0.05,1.03,1000
20:28:32.838,2.23,-9.97,29.87,9.39,-2.26,-0.24,0.19,0.06,1.02,1000
20:28:32.838,2.35,-10.0,29.86,11.04,-1.46,-1.59,0.18,0.06,1.03,1000
20:28:32.838,2.47,-10.01,29.84,11.28,-0.85,-2.74,0.19,0.05,1.02,1000
20:28:32.838,2.6,-10.02,29.8,10.37,-0.49,-3.84,0.19,0.06,1.03,1000
20:28:32.838,2.71,-10.03,29.76,8.29,-0.24,-4.45,0.19,0.08,1.01,1000
20:28:32.838,2.81,-10.04,29.7,5.91,-0.73,-4.09,0.19,0.08,1.02,1000
20:28:32.838,2.86,-10.05,29.67,2.56,-0.24,-3.41,0.18,0.08,1.01,1000
20:28:32.838,2.88,-10.05,29.63,-0.73,0.43,-2.87,0.18,0.07,1.03,1000
20:28:32.838,2.87,-10.04,29.61,-3.84,1.22,-2.32,0.19,0.06,1.03,1000
20:28:32.841,2.82,-10.03,29.58,-6.28,2.44,-2.38,0.19,0.05,1.02,1000
20:28:32.857,2.76,-10.0,29.55,-7.26,2.99,-1.89,0.19,0.05,1.02,1000
20:28:33.055,2.7,-9.98,29.54,-7.07,3.41,-1.28,0.19,0.05,1.01,1000
20:28:33.055,2.64,-9.95,29.54,-5.3,3.05,0.49,0.18,0.05,1.02,1000
20:28:33.055,2.6,-9.92,29.55,-3.35,2.74,1.65,0.18,0.04,1.02,1000
20:28:33.055,2.58,-9.9,29.57,-0.24,1.89,2.68,0.18,0.04,1.03,1000
20:28:33.055,2.59,-9.88,29.61,2.68,0.67,3.17,0.18,0.03,1.02,1000
20:28:33.055,2.63,-9.88,29.64,5.43,-0.55,2.93,0.18,0.03,1.03,1000
20:28:33.055,2.69,-9.89,29.67,7.07,-1.4,2.93,0.17,0.05,1.02,1000
20:28:33.055,2.76,-9.9,29.7,8.05,-1.89,2.68,0.17,0.05,1.02,1000
20:28:33.055,2.85,-9.93,29.73,7.99,-2.44,2.26,0.17,0.05,1.02,1000
20:28:33.055,2.93,-9.95,29.75,6.77,-1.59,1.77,0.17,0.06,1.02,1000
20:28:33.055,3.0,-9.95,29.77,5.0,-0.12,1.65,0.17,0.07,1.02,1000
20:28:33.055,3.05,-9.95,29.79,2.87,0.91,1.59,0.17,0.06,1.03,1000
20:28:33.055,3.07,-9.93,29.8,1.04,2.07,0.79,0.18,0.06,1.02,1000
20:28:33.055,3.08,-9.9,29.81,0.12,2.68,0.18,0.19,0.06,1.02,1000
20:28:33.055,3.08,-9.87,29.81,-0.49,2.68,-0.43,0.18,0.05,1.02,1000
20:28:33.055,3.08,-9.84,29.8,-0.24,2.2,-0.49,0.18,0.06,1.02,1000
20:28:33.055,3.08,-9.82,29.8,0.43,1.71,-0.24,0.18,0.06,1.01,1000
20:28:33.055,3.09,-9.81,29.8,1.34,0.98,0.49,0.17,0.06,1.02,1000
20:28:33.061,3.11,-9.8,29.81,1.89,0.12,1.52,0.17,0.06,1.02,1000
20:28:33.072,3.14,-9.79,29.83,2.87,-0.18,2.01,0.17,0.05,1.01,1000
20:28:33.091,3.17,-9.79,29.85,3.48,-0.67,2.44,0.17,0.05,1.01,1000
20:28:33.101,3.21,-9.8,29.88,3.78,-1.16,2.38,0.18,0.03,1.0,1000
20:28:33.105,3.24,-9.82,29.9,3.72,-1.46,2.26,0.18,0.03,1.0,1000
20:28:33.116,3.28,-9.83,29.93,3.54,-1.83,3.23,0.17,0.05,0.99,1000
20:28:33.126,3.3,-9.85,29.97,2.68,-1.16,5.12,0.18,0.07,1.0,1000
20:28:33.143,3.33,-9.86,30.04,1.46,-0.12,7.01,0.16,0.07,1.02,1000
20:28:33.149,3.33,-9.85,30.11,-0.24,1.28,7.8,0.18,0.05,1.01,1000
20:28:33.160,3.32,-9.83,30.2,-2.32,3.35,7.26,0.19,0.05,1.01,1000
20:28:33.171,3.28,-9.79,30.27,-3.72,4.57,5.55,0.19,0.04,1.0,1000
20:28:33.183,3.23,-9.75,30.32,-4.27,5.3,3.6,0.2,0.04,0.99,1000
20:28:33.193,3.18,-9.7,30.35,-4.02,5.37,2.38,0.18,0.05,1.0,1000
20:28:33.204,3.13,-9.65,30.38,-3.66,5.18,2.13,0.17,0.07,0.99,1000
20:28:33.218,3.1,-9.59,30.41,-3.23,5.85,2.99,0.18,0.09,0.99,1000
20:28:33.225,3.08,-9.54,30.44,-2.62,7.5,4.88,0.16,0.1,1.02,1000
20:28:33.237,3.06,-9.46,30.49,-2.07,8.6,5.06,0.15,0.06,1.03,1000
20:28:33.249,3.05,-9.37,30.53,-1.28,8.66,3.72,0.18,0.05,1.02,1000
20:28:33.262,3.04,-9.27,30.57,0.18,7.99,1.89,0.19,0.04,1.02,1000
20:28:33.271,3.05,-9.2,30.58,1.71,5.67,0.43,0.17,0.05,1.02,1000
20:28:33.291,3.07,-9.16,30.59,2.38,2.32,0.0,0.16,0.06,1.0,1000
20:28:33.292,3.09,-9.15,30.59,2.74,-0.91,0.61,0.14,0.07,0.99,1000
20:28:33.304,3.13,-9.17,30.6,2.56,-4.57,1.83,0.15,0.08,0.99,1000
20:28:33.313,3.16,-9.23,30.63,1.77,-7.32,4.27,0.13,0.09,1.01,1000
20:28:33.324,3.18,-9.31,30.69,0.55,-9.7,6.28,0.14,0.09,1.01,1000
20:28:33.336,3.2,-9.41,30.76,-0.24,-11.34,7.26,0.16,0.08,1.01,1000
20:28:33.347,3.21,-9.54,30.84,-1.04,-12.13,7.26,0.17,0.08,1.0,1000
20:28:33.359,3.21,-9.66,30.91,-1.22,-13.11,6.71,0.17,0.07,1.02,1000
20:28:33.369,3.21,-9.8,30.98,-1.4,-12.93,5.67,0.19,0.07,1.0,1000
20:28:33.381,3.2,-9.94,31.04,-1.71,-11.83,4.39,0.19,0.07,1.02,1000
20:28:33.391,3.19,-10.06,31.09,-2.13,-9.21,3.29,0.19,0.08,1.02,1000
20:28:33.403,3.17,-10.14,31.12,-2.56,-5.43,1.89,0.18,0.07,1.04,1000
20:28:33.415,3.15,-10.18,31.13,-3.41,-1.1,-0.24,0.2,0.06,1.04,1000
20:28:33.423,3.12,-10.17,31.12,-3.48,3.9,-2.8,0.21,0.04,1.04,1000
20:28:33.434,3.08,-10.12,31.07,-2.99,8.23,-5.37,0.21,0.02,1.04,1000
20:28:33.449,3.04,-10.02,31.01,-2.13,11.52,-6.89,0.2,0.03,1.04,1000
20:28:33.457,3.01,-9.89,30.93,-1.28,14.02,-6.89,0.2,0.03,1.03,1000
20:28:33.468,2.99,-9.74,30.86,-0.79,15.67,-5.61,0.2,0.04,1.02,1000
20:28:33.480,2.97,-9.58,30.81,-0.61,18.05,-3.29,0.19,0.07,1.01,1000
20:28:33.492,2.97,-9.38,30.79,-0.61,21.1,0.61,0.19,0.08,1.03,1000
20:28:33.501,2.96,-9.16,30.81,-0.79,22.07,3.17,0.15,0.04,1.06,1000
20:28:33.512,2.95,-8.92,30.85,-0.67,21.83,3.6,0.18,0.02,1.04,1000
20:28:33.525,2.94,-8.69,30.88,-0.24,20.73,2.74,0.18,0.02,1.02,1000
20:28:33.536,2.92,-8.48,30.91,-0.3,18.29,2.5,0.16,0.01,1.03,1000
20:28:33.545,2.91,-8.31,30.94,-0.24,13.9,2.5,0.15,0.03,1.0,1000
20:28:33.556,2.89,-8.17,30.97,-0.79,10.79,4.02,0.13,0.05,0.99,1000
20:28:33.567,2.87,-8.07,31.03,-1.95,7.74,6.59,0.1,0.07,1.01,1000
20:28:33.762,2.84,-7.99,31.11,-2.56,5.06,9.15,0.11,0.04,1.01,1000
20:28:33.762,2.81,-7.94,31.22,-2.13,2.68,10.49,0.13,0.04,1.02,1000
20:28:33.762,2.79,-7.91,31.33,-0.98,1.04,11.52,0.13,0.04,1.02,1000
20:28:33.762,2.78,-7.89,31.44,-0.43,-0.18,11.22,0.13,0.03,1.02,1000
20:28:33.762,2.77,-7.89,31.57,0.0,-0.24,11.28,0.15,0.04,1.01,1000
20:28:33.762,2.77,-7.89,31.69,0.61,0.37,11.04,0.13,0.05,1.01,1000
20:28:33.762,2.77,-7.88,31.81,0.91,1.4,11.52,0.15,0.07,1.01,1000
20:28:33.762,2.78,-7.86,31.94,1.1,2.93,11.65,0.15,0.07,1.02,1000
20:28:33.762,2.8,-7.82,32.07,1.34,4.94,12.13,0.15,0.08,1.02,1000
20:28:33.762,2.83,-7.76,32.2,1.59,7.5,12.07,0.14,0.07,1.03,1000
20:28:33.762,2.86,-7.67,32.33,2.01,9.02,10.3,0.15,0.04,1.03,1000
20:28:33.762,2.89,-7.58,32.43,3.05,9.33,7.26,0.17,0.03,1.03,1000
20:28:33.762,2.92,-7.5,32.49,4.27,7.99,3.9,0.15,0.04,1.03,1000
20:28:33.762,2.97,-7.43,32.53,4.63,5.98,1.77,0.15,0.06,1.0,1000
20:28:33.762,3.02,-7.38,32.54,4.27,3.96,1.04,0.11,0.09,1.02,1000
20:28:33.762,3.07,-7.35,32.56,3.29,2.07,0.79,0.12,0.07,1.01,1000
20:28:33.762,3.11,-7.33,32.56,2.13,-0.12,0.37,0.13,0.07,1.01,1000
20:28:33.768,3.13,-7.34,32.57,1.22,-2.01,-0.06,0.12,0.07,1.01,1000
20:28:33.776,3.15,-7.37,32.57,0.49,-4.09,-0.24,0.13,0.07,1.01,1000
20:28:33.789,3.16,-7.42,32.56,0.12,-5.49,-0.55,0.13,0.07,1.01,1000
20:28:33.798,3.17,-7.48,32.55,0.18,-6.59,-0.73,0.13,0.07,1.01,1000
20:28:33.813,3.18,-7.55,32.55,-0.18,-5.43,-0.49,0.14,0.08,1.0,1000
20:28:33.820,3.18,-7.6,32.55,-1.34,-2.93,0.12,0.12,0.08,1.02,1000
20:28:33.831,3.17,-7.62,32.55,-2.56,-0.49,-0.3,0.15,0.06,1.03,1000
20:28:33.846,3.15,-7.61,32.54,-3.05,1.77,-1.46,0.16,0.05,1.02,1000
20:28:33.853,3.11,-7.59,32.52,-2.99,3.17,-3.29,0.15,0.05,1.02,1000
20:28:33.865,3.09,-7.57,32.48,-3.29,4.27,-4.45,0.14,0.06,1.0,1000
20:28:33.875,3.05,-7.52,32.44,-3.35,5.55,-4.94,0.12,0.06,1.0,1000
20:28:33.890,3.02,-7.46,32.38,-3.11,5.37,-5.0,0.11,0.05,1.01,1000
20:28:33.899,2.99,-7.4,32.33,-2.44,4.82,-5.49,0.11,0.04,1.0,1000
20:28:33.910,2.96,-7.35,32.26,-1.34,3.66,-5.3,0.1,0.03,1.0,1000
20:28:34.127,2.95,-7.31,32.21,-0.3,1.4,-4.63,0.1,0.04,1.01,1000
20:28:34.127,2.94,-7.3,32.16,0.67,-1.59,-3.23,0.09,0.05,1.01,1000
20:28:34.127,2.95,-7.32,32.13,1.16,-5.18,-1.16,0.09,0.05,1.02,1000
20:28:34.127,2.96,-7.37,32.13,1.46,-8.35,1.46,0.12,0.06,1.02,1000
20:28:34.127,2.97,-7.46,32.16,1.28,-9.94,3.66,0.11,0.07,1.03,1000
20:28:34.127,2.99,-7.54,32.2,0.73,-9.76,4.88,0.12,0.04,1.05,1000
20:28:34.127,2.99,-7.63,32.25,-0.49,-8.78,4.21,0.15,0.03,1.04,1000
20:28:34.127,2.97,-7.72,32.29,-1.34,-7.5,2.32,0.17,0.02,1.04,1000
20:28:34.127,2.94,-7.79,32.31,-2.26,-5.43,1.04,0.18,0.03,1.04,1000
20:28:34.127,2.9,-7.84,32.32,-3.05,-1.89,1.22,0.17,0.08,1.03,1000
20:28:34.127,2.87,-7.85,32.34,-3.35,2.8,2.32,0.14,0.07,1.05,1000
20:28:34.127,2.84,-7.81,32.37,-3.41,7.01,2.62,0.18,0.05,1.06,1000
20:28:34.127,2.8,-7.72,32.39,-2.8,10.98,1.52,0.17,0.03,1.05,1000
20:28:34.127,2.77,-7.6,32.4,-2.01,13.84,-0.55,0.17,0.01,1.05,1000
20:28:34.127,2.74,-7.46,32.38,-1.65,15.06,-2.99,0.16,0.01,1.02,1000
20:28:34.127,2.71,-7.31,32.35,-1.95,14.02,-4.27,0.15,0.02,1.02,1000
20:28:34.127,2.67,-7.18,32.3,-3.05,11.71,-4.45,0.13,0.03,1.0,1000
20:28:34.127,2.63,-7.07,32.25,-4.21,10.0,-2.74,0.12,0.06,1.0,1000
20:28:34.127,2.57,-6.97,32.24,-5.06,8.23,0.24,0.09,0.06,1.01,1000
20:28:34.128,2.52,-6.89,32.25,-5.18,5.67,2.5,0.11,0.03,1.02,1000
20:28:34.139,2.47,-6.84,32.28,-4.33,3.54,4.09,0.12,0.03,1.01,1000
20:28:34.150,2.42,-6.81,32.33,-3.54,0.85,5.37,0.11,0.03,1.02,1000
20:28:34.160,2.38,-6.81,32.4,-3.6,-1.22,5.91,0.13,0.03,1.02,1000
20:28:34.173,2.34,-6.83,32.46,-3.78,-2.68,6.16,0.12,0.02,1.02,1000
20:28:34.182,2.29,-6.86,32.53,-4.21,-2.56,6.22,0.13,0.03,1.01,1000
20:28:34.365,2.23,-6.89,32.6,-4.63,-1.16,6.52,0.12,0.05,1.02,1000
20:28:34.365,2.18,-6.89,32.68,-4.57,1.1,7.38,0.12,0.05,1.03,1000
20:28:34.365,2.14,-6.86,32.75,-3.6,4.09,7.44,0.12,0.04,1.04,1000
20:28:34.365,2.11,-6.81,32.83,-2.01,6.71,5.79,0.14,0.02,1.05,1000
20:28:34.365,2.09,-6.74,32.88,-0.18,8.6,3.41,0.15,-0.0,1.05,1000
20:28:34.365,2.09,-6.64,32.9,1.4,9.7,-0.3,0.15,0.0,1.04,1000
20:28:34.365,2.09,-6.56,32.88,2.32,10.0,-3.05,0.15,0.01,1.04,1000
20:28:34.365,2.11,-6.47,32.85,3.11,9.51,-4.27,0.12,0.02,1.05,1000
20:28:34.365,2.13,-6.37,32.8,3.41,9.02,-3.96,0.11,0.03,1.04,1000
20:28:34.365,2.16,-6.28,32.76,2.87,9.09,-2.44,0.1,0.04,1.04,1000
20:28:34.365,2.18,-6.17,32.75,1.89,9.33,-0.43,0.1,0.05,1.04,1000
20:28:34.365,2.19,-6.07,32.75,0.55,9.15,1.83,0.1,0.05,1.04,1000
20:28:34.365,2.2,-5.97,32.78,-0.12,8.17,3.84,0.11,0.04,1.03,1000
20:28:34.365,2.19,-5.88,32.83,-0.98,6.4,5.91,0.1,0.06,1.04,1000
20:28:34.365,2.18,-5.82,32.9,-2.26,5.61,7.32,0.11,0.06,1.03,1000
20:28:34.365,2.16,-5.75,32.99,-3.41,6.1,8.9,0.09,0.06,1.05,1000
20:28:34.370,2.12,-5.68,33.09,-5.0,7.2,8.48,0.11,0.03,1.04,1000
20:28:34.382,2.07,-5.6,33.17,-5.79,8.96,6.46,0.12,0.02,1.04,1000
20:28:34.392,2.0,-5.5,33.23,-5.43,9.76,4.51,0.1,0.02,1.04,1000
20:28:34.405,1.95,-5.39,33.28,-4.02,8.78,3.54,0.11,0.02,1.04,1000
20:28:34.418,1.91,-5.31,33.32,-1.4,7.01,3.6,0.1,0.04,1.03,1000
20:28:34.427,1.9,-5.24,33.36,0.55,5.79,5.49,0.08,0.07,1.03,1000
20:28:34.436,1.92,-5.17,33.43,1.83,6.28,7.56,0.07,0.07,1.04,1000
20:28:34.447,1.95,-5.1,33.52,2.62,6.89,8.11,0.09,0.04,1.04,1000
20:28:34.458,1.99,-5.02,33.6,2.8,7.74,6.28,0.1,0.03,1.04,1000
20:28:34.473,2.02,-4.93,33.66,2.99,8.29,3.35,0.1,0.01,1.03,1000
20:28:34.481,2.05,-4.85,33.68,2.5,7.87,0.37,0.1,0.02,1.03,1000
20:28:34.491,2.07,-4.77,33.68,0.98,7.2,-1.59,0.1,0.05,1.01,1000
20:28:34.502,2.07,-4.7,33.66,-1.46,7.74,-1.4,0.08,0.07,1.02,1000
20:28:34.515,2.05,-4.61,33.65,-3.9,9.27,-0.79,0.08,0.06,1.01,1000
20:28:34.524,2.0,-4.5,33.64,-6.34,11.04,-1.1,0.08,0.05,1.03,1000
20:28:34.535,1.93,-4.37,33.62,-7.5,12.56,-1.89,0.09,0.03,1.02,1000
20:28:34.546,1.85,-4.24,33.6,-7.68,13.48,-2.87,0.08,0.02,1.02,1000
20:28:34.556,1.77,-4.1,33.56,-6.52,12.5,-4.39,0.09,0.01,1.0,1000
20:28:34.568,1.7,-3.98,33.51,-4.94,11.59,-5.0,0.1,0.02,0.98,1000
20:28:34.578,1.66,-3.87,33.46,-2.62,11.71,-3.9,0.07,0.06,0.98,1000
20:28:34.590,1.65,-3.74,33.43,0.18,12.5,-0.98,0.06,0.07,0.99,1000
20:28:34.601,1.68,-3.6,33.43,3.29,12.8,0.3,0.04,0.04,1.01,1000
20:28:34.616,1.74,-3.46,33.43,6.71,12.01,0.49,0.07,0.03,1.01,1000
20:28:34.623,1.84,-3.33,33.44,10.85,10.49,0.06,0.08,0.02,1.0,1000
20:28:34.634,1.97,-3.24,33.44,14.57,6.83,-0.55,0.08,0.02,1.01,1000
20:28:34.645,2.13,-3.19,33.43,16.46,1.89,-0.98,0.06,0.02,1.0,1000
20:28:34.656,2.31,-3.2,33.41,17.32,-3.29,-0.67,0.06,0.04,1.0,1000
20:28:34.667,2.49,-3.26,33.41,17.01,-7.5,-0.3,0.05,0.03,1.0,1000
20:28:34.679,2.66,-3.36,33.41,15.49,-9.39,0.37,0.06,0.06,1.0,1000
20:28:34.689,2.82,-3.46,33.42,12.44,-9.51,3.05,0.04,0.08,1.02,1000
20:28:34.700,2.94,-3.56,33.46,8.72,-8.54,5.0,0.06,0.06,1.02,1000
20:28:34.922,3.02,-3.63,33.52,5.3,-7.13,5.24,0.08,0.04,1.03,1000
20:28:34.922,3.06,-3.71,33.58,1.22,-5.0,4.33,0.09,0.05,1.04,1000
20:28:34.922,3.06,-3.76,33.62,-1.4,-3.41,3.29,0.1,0.04,1.03,1000
20:28:34.922,3.03,-3.8,33.65,-3.54,-2.26,2.26,0.1,0.05,1.04,1000
20:28:34.923,2.98,-3.83,33.67,-4.39,-1.28,1.71,0.1,0.05,1.03,1000
20:28:34.923,2.93,-3.85,33.69,-4.21,0.43,2.07,0.08,0.08,1.03,1000
20:28:34.923,2.89,-3.85,33.72,-3.84,2.32,2.93,0.08,0.06,1.04,1000
20:28:34.923,2.86,-3.82,33.75,-3.35,3.05,2.32,0.09,0.04,1.04,1000
20:28:34.923,2.82,-3.8,33.76,-2.07,2.26,0.18,0.1,0.03,1.05,1000
20:28:34.930,2.41,-4.72,-0.28,-3.54,-4.21,-0.06,-0.04,-0.65,1.0,1100
20:28:34.946,2.42,-4.73,-0.3,13.05,6.28,-9.39,0.42,0.73,0.98,1100
20:28:35.945,2.35,-3.55,-7.44,16.52,-28.96,-21.71,-0.37,-0.93,1.02,1140
20:28:35.953,2.46,-3.86,-7.67,38.9,-23.72,-18.29,-0.17,-0.02,0.92,1140
20:28:37.109,0.93,0.34,-19.34,8.84,-5.18,-37.62,0.1,0.28,1.24,1220
20:28:38.232,0.1,0.17,-16.92,55.3,-13.41,-13.54,-0.36,-1.06,0.87,1270
20:28:38.245,0.11,0.11,-17.09,-47.32,19.57,-11.52,-0.09,0.54,1.23,1270
20:28:38.253,0.01,0.08,-17.25,31.52,-18.23,-18.72,-0.19,-1.45,0.81,1270
20:28:38.264,-0.07,0.05,-17.42,-56.71,11.04,-15.3,0.4,1.24,1.24,1270
20:28:38.275,-0.15,0.04,-17.57,16.34,-20.91,-16.89,-0.31,-1.61,0.97,1270
20:28:39.308,-0.27,0.61,-16.81,16.22,0.55,2.93,0.11,-0.6,1.02,1280
20:28:39.502,-0.29,0.63,-16.82,-8.17,4.27,-1.77,0.28,0.77,1.01,1280
20:28:39.502,-0.34,0.64,-16.83,-0.37,-13.41,-6.77,-0.05,-1.23,0.85,1280
20:28:40.486,-0.82,0.87,-16.91,8.17,-14.51,-2.5,-0.52,-0.45,0.87,1280
20:28:41.666,-0.32,0.31,-17.93,-50.91,32.5,5.43,0.23,-0.09,1.57,1280
20:28:41.680,-0.37,0.4,-17.88,39.21,-7.93,8.11,-0.17,0.54,1.09,1280
20:28:41.686,-0.37,0.46,-17.83,-39.76,31.1,7.99,0.56,0.41,1.29,1280
20:28:41.698,-0.41,0.53,-17.77,42.2,-11.4,7.26,-0.16,-0.13,1.06,1280
20:28:42.677,-0.22,0.55,-18.27,17.07,-1.71,4.57,0.46,-0.05,0.92,1270
20:28:42.686,-0.23,0.58,-18.23,-22.68,0.85,5.0,0.11,0.4,1.12,1270
20:28:42.698,-0.29,0.6,-18.18,14.88,-2.38,1.89,-0.07,-1.3,0.86,1270
20:28:42.708,-0.31,0.62,-18.14,-18.17,6.16,1.71,-0.14,0.99,0.99,1270
20:28:43.710,-1.23,-0.67,-16.17,-10.18,2.44,-2.44,0.7,0.12,1.07,1270
20:28:44.885,-1.57,-0.84,-13.33,-23.72,7.44,-5.43,-0.45,-1.59,1.25,1270
20:28:44.896,-1.53,-0.87,-13.37,1.59,-4.39,-2.68,0.51,1.89,0.95,1270
20:28:44.907,-1.49,-0.9,-13.41,-16.77,-2.44,-7.32,-0.17,-1.41,1.04,1270
20:28:44.919,-1.42,-0.95,-13.46,13.84,-10.18,-5.0,0.58,1.75,0.96,1270
20:28:47.217,-1.59,-1.01,-19.77,-46.4,3.05,-7.74,0.29,0.98,1.15,1266
20:28:47.228,-1.66,-0.98,-19.87,10.06,5.43,-6.65,-0.03,-1.29,1.18,1266
20:28:48.372,-1.07,-1.19,-20.61,22.44,-10.3,-7.26,-0.26,0.51,1.14,1266
20:28:48.384,-0.95,-1.23,-20.73,-5.06,-0.61,-10.12,0.55,0.14,1.14,1266
20:28:48.394,-0.83,-1.3,-20.84,33.05,-7.99,-6.46,-0.21,0.33,1.05,1266
20:28:51.738,0.08,-0.62,-16.29,24.27,7.26,7.93,-0.75,-1.98,0.85,1266
20:28:51.750,0.13,-0.64,-16.18,-17.56,-9.21,6.89,0.31,1.5,0.94,1266
20:28:51.764,0.1,-0.65,-16.08,-13.72,11.34,9.15,-0.66,-2.23,1.03,1266
20:28:52.916,2.2,1.62,-25.38,39.88,3.72,-12.87,-0.06,-0.37,0.64,1266
20:28:52.926,2.37,1.67,-25.45,2.38,-3.05,-9.21,-0.27,0.09,0.98,1266
20:28:54.103,-0.78,2.08,-29.6,-14.09,1.04,16.34,0.34,0.09,0.9,1266
20:28:54.115,-0.9,2.13,-29.45,-11.22,7.62,16.34,0.23,0.22,1.13,1266
20:28:54.125,-1.02,2.17,-29.3,-24.39,-5.06,16.4,-0.07,0.51,1.25,1266
20:28:54.136,-1.16,2.17,-29.14,-23.41,-5.91,15.91,0.07,0.03,0.88,1266
20:28:55.170,3.81,3.95,-20.88,12.99,12.5,-6.04,-0.21,-0.89,1.23,1266
20:28:55.181,3.87,4.0,-20.94,-6.52,-0.18,-2.93,0.17,1.76,1.16,1266
20:28:56.226,0.36,0.71,-19.4,-7.87,-19.7,6.77,0.13,0.56,0.87,1266
20:28:56.238,0.26,0.66,-19.36,-21.04,-2.62,-0.79,0.15,-0.83,0.77,1266
20:28:56.249,0.19,0.62,-19.31,6.04,-15.24,-1.4,-0.44,0.45,0.93,1266
20:28:57.260,-1.97,-1.19,-21.34,7.32,-0.12,-0.43,0.17,-0.55,0.68,1266
20:28:58.286,-1.25,-0.48,-14.83,-18.78,-14.15,-7.38,0.66,1.52,0.7,1266
20:28:58.294,-1.36,-0.5,-14.85,8.11,-6.71,-5.73,-0.84,-1.72,1.1,1266
20:28:58.305,-1.41,-0.53,-14.88,-26.04,0.49,-2.44,0.48,1.94,0.95,1266
20:28:59.310,-2.22,-0.36,-12.4,37.5,-15.0,-6.65,0.05,-1.14,0.77,1266
20:28:59.317,-2.34,-0.34,-12.46,-62.44,9.33,-8.17,0.19,1.2,1.14,1266
20:29:00.343,-5.71,-0.21,-22.85,-30.12,1.1,13.84,-0.19,-0.18,1.17,1266
20:29:00.352,-5.97,-0.19,-22.69,-23.05,-6.1,14.33,0.1,0.4,0.95,1266
20:29:00.362,-6.16,-0.17,-22.52,-12.8,9.76,13.54,0.22,-0.64,0.94,1266
20:29:00.373,-6.26,-0.13,-22.35,5.61,5.24,14.39,-0.36,-0.15,0.91,1266
20:29:01.407,-2.62,-0.61,-16.56,8.72,9.76,-2.56,0.19,1.33,0.89,1266
20:29:01.418,-2.81,-0.32,-16.59,2.26,28.17,-1.65,-0.43,-1.92,0.78,1266
20:29:01.429,-2.91,-0.09,-16.63,-31.28,18.41,-5.06,0.53,2.02,1.12,1266
20:29:01.448,-3.02,0.11,-16.66,4.02,4.51,-3.54,-0.15,-1.8,0.95,1266
20:29:02.496,-2.06,1.07,-21.66,-55.79,0.0,-8.84,0.52,1.68,1.1,1266
20:29:03.530,-1.1,0.05,-14.71,38.54,-0.06,11.89,0.24,1.14,0.9,1266
20:29:03.541,-1.12,0.04,-14.58,-48.17,3.84,8.29,-0.97,-1.36,1.02,1266
20:29:03.556,-1.24,0.04,-14.46,22.87,-2.56,12.56,0.67,0.67,0.99,1266
20:29:04.609,-1.33,-2.89,-20.57,14.33,8.78,11.46,-0.07,-1.25,0.97,1266
20:29:05.620,-2.27,0.53,-25.01,-1.1,11.04,-6.16,0.27,-0.31,0.86,1266
20:29:06.698,0.25,1.35,-28.1,-8.72,-22.07,-37.68,-0.02,0.14,1.02,1266
20:29:06.715,0.23,1.21,-28.51,-6.71,-16.22,-37.32,0.44,0.26,0.72,1266
20:29:06.719,0.23,1.1,-28.91,4.94,-5.18,-38.6,0.17,-0.27,1.09,1266
20:29:06.731,0.28,1.03,-29.28,13.54,-12.62,-37.56,0.0,0.25,1.15,1266
20:29:07.767,-1.6,0.05,-8.37,-3.11,3.96,-1.95,-0.71,-1.12,1.4,1266
20:29:07.776,-1.46,-0.04,-8.45,7.44,12.8,-10.18,0.13,0.66,1.06,1266
20:29:07.795,-1.39,-0.05,-8.55,2.26,-9.76,-10.61,0.15,-0.98,1.16,1266
20:29:09.043,-1.04,-0.1,-17.99,30.06,-9.63,5.12,-0.23,0.09,0.95,1266
20:29:09.043,-1.0,-0.11,-17.95,-12.87,-3.72,1.77,0.24,-0.26,0.74,1266
20:29:09.043,-1.04,-0.14,-17.91,14.09,8.35,1.4,-0.76,-0.85,1.0,1266
20:29:09.866,-2.93,-1.44,-18.39,-61.65,17.8,-7.99,-0.81,-0.65,1.23,1266
