Timestamp,Roll,Pitch,Yaw,Gyro_X,Gyro_Y,Gyro_Z,Accel_X,Accel_Y,Accel_Z,Throttle
20:27:28.058,9.01,-3.06,-81.7,-2.99,-6.95,-11.1,-0.01,0.14,0.96,1000
20:27:28.071,8.96,-3.07,-81.81,-7.01,-1.46,-6.77,0.03,0.12,0.93,1000
20:27:28.080,8.87,-3.04,-81.87,-8.66,1.95,-2.99,0.02,0.13,0.93,1000
20:27:28.091,8.77,-2.99,-81.9,-8.96,2.26,-1.83,-0.02,0.17,0.91,1000
20:27:28.102,8.67,-2.94,-81.92,-10.12,0.49,-4.33,-0.04,0.23,0.94,1000
20:27:28.113,8.59,-2.9,-81.99,-10.67,-0.3,-8.84,-0.03,0.23,0.95,1000
20:27:28.124,8.49,-2.85,-82.11,-9.45,2.62,-12.26,-0.0,0.14,1.01,1000
20:27:28.135,8.41,-2.77,-82.25,-6.65,6.34,-13.35,-0.04,0.12,0.98,1000
20:27:28.151,8.35,-2.66,-82.41,-5.0,6.59,-15.98,-0.06,0.16,1.0,1000
20:27:28.169,8.31,-2.54,-82.6,-3.9,6.4,-20.18,-0.04,0.17,1.01,1000
20:27:28.170,8.28,-2.42,-82.84,-2.38,7.44,-24.94,-0.03,0.18,1.02,1000
20:27:28.178,8.27,-2.31,-83.11,-0.91,9.76,-30.12,-0.04,0.18,1.02,1000
20:27:28.192,8.29,-2.15,-83.47,0.37,10.06,-36.04,-0.11,0.24,1.01,1000
20:27:28.200,8.32,-1.98,-83.89,0.49,9.94,-42.38,-0.08,0.26,1.05,1000
20:27:28.211,8.37,-1.81,-84.38,0.12,11.95,-46.89,-0.07,0.21,1.07,1000
20:27:28.224,8.4,-1.63,-84.85,-0.12,14.45,-47.8,-0.07,0.19,1.06,1000
20:27:28.233,8.42,-1.41,-85.38,0.43,15.18,-46.65,-0.05,0.17,1.05,1000
20:27:28.245,8.45,-1.2,-85.88,2.07,14.76,-43.96,-0.07,0.16,1.05,1000
20:27:28.260,8.5,-1.0,-86.35,4.76,12.87,-40.37,-0.11,0.16,1.03,1000
20:27:28.267,8.57,-0.82,-86.78,7.87,9.88,-38.17,-0.12,0.21,1.06,1000
20:27:28.278,8.69,-0.67,-87.2,11.04,7.13,-36.77,-0.11,0.23,1.07,1000
20:27:28.288,8.84,-0.54,-87.59,13.78,5.61,-34.27,-0.11,0.21,1.09,1000
20:27:28.299,9.02,-0.43,-87.95,14.88,4.63,-30.12,-0.09,0.21,1.06,1000
20:27:28.310,9.2,-0.33,-88.26,13.48,3.48,-25.67,-0.1,0.22,1.06,1000
20:27:28.322,9.34,-0.24,-88.52,8.41,3.72,-20.67,-0.08,0.19,1.07,1000
20:27:28.333,9.42,-0.14,-88.72,1.89,5.12,-14.94,-0.08,0.18,1.07,1000
20:27:28.344,9.41,-0.03,-88.86,-6.28,6.46,-9.76,-0.13,0.2,1.06,1000
20:27:28.363,9.32,0.1,-88.96,-14.94,6.46,-6.77,-0.13,0.22,1.07,1000
20:27:28.366,9.14,0.22,-89.02,-21.89,5.3,-4.7,-0.17,0.21,1.05,1000
20:27:28.378,8.89,0.34,-89.06,-27.01,3.78,-1.83,-0.11,0.18,1.09,1000
20:27:28.388,8.62,0.43,-89.06,-29.88,2.2,2.5,-0.08,0.13,1.08,1000
20:27:28.399,8.29,0.49,-89.01,-30.55,-1.4,7.87,-0.1,0.11,1.07,1000
20:27:28.410,7.95,0.5,-88.9,-29.57,-7.26,12.26,-0.05,0.09,1.06,1000
20:27:28.424,7.63,0.42,-88.76,-27.56,-13.78,14.63,-0.07,0.1,1.05,1000
20:27:28.432,7.32,0.28,-88.59,-25.3,-21.04,15.06,-0.13,0.1,1.03,1000
20:27:28.443,7.04,0.07,-88.43,-21.71,-28.05,13.54,-0.13,0.11,1.05,1000
20:27:28.456,6.82,-0.2,-88.3,-15.85,-32.99,9.45,-0.11,0.14,1.06,1000
20:27:28.465,6.68,-0.51,-88.22,-8.17,-34.15,5.3,-0.08,0.11,1.06,1000
20:27:28.476,6.61,-0.82,-88.17,-0.85,-32.38,2.74,-0.1,0.08,1.04,1000
20:27:28.487,6.62,-1.09,-88.15,6.16,-27.32,1.71,-0.07,0.06,1.03,1000
20:27:28.498,6.7,-1.31,-88.13,11.71,-20.37,1.65,-0.06,0.05,1.02,1000
20:27:28.508,6.82,-1.44,-88.11,15.85,-11.4,1.89,-0.08,0.06,0.99,1000
20:27:28.519,6.97,-1.47,-88.09,17.62,-1.65,0.73,-0.06,0.1,0.99,1000
20:27:28.531,7.15,-1.4,-88.09,19.57,8.23,-1.52,-0.01,0.12,0.99,1000
20:27:28.542,7.36,-1.22,-88.12,20.37,18.84,-3.66,-0.03,0.13,0.98,1000
20:27:28.552,7.57,-0.94,-88.17,19.27,28.05,-4.94,-0.06,0.13,0.98,1000
20:27:28.570,7.76,-0.55,-88.22,15.18,36.77,-4.94,-0.06,0.14,1.02,1000
20:27:28.574,7.89,-0.08,-88.27,8.78,44.76,-3.29,-0.04,0.13,1.02,1000
20:27:28.587,7.95,0.46,-88.29,1.65,49.21,0.12,-0.06,0.11,1.01,1000
20:27:28.596,7.92,1.03,-88.27,-6.1,50.06,4.15,-0.08,0.12,1.01,1000
20:27:28.607,7.81,1.59,-88.21,-12.56,48.66,8.41,-0.08,0.11,1.02,1000
20:27:28.618,7.64,2.14,-88.1,-18.78,46.52,12.07,-0.09,0.12,1.04,1000
20:27:28.629,7.4,2.66,-87.95,-24.09,43.9,15.3,-0.08,0.11,1.04,1000
20:27:28.641,7.11,3.14,-87.77,-29.09,38.84,16.89,-0.12,0.16,1.02,1000
20:27:28.651,6.77,3.55,-87.59,-32.99,31.28,16.65,-0.11,0.17,1.01,1000
20:27:28.670,6.41,3.88,-87.41,-36.16,22.2,16.1,-0.17,0.17,1.02,1000
20:27:28.674,6.03,4.11,-87.22,-37.07,14.45,18.23,-0.13,0.08,1.06,1000
20:27:28.685,5.64,4.28,-87.0,-34.76,10.0,24.33,-0.16,0.01,1.08,1000
20:27:28.696,5.26,4.41,-86.7,-30.73,4.94,30.73,-0.22,0.0,1.03,1000
20:27:28.707,4.92,4.49,-86.34,-25.24,-1.16,35.79,-0.15,0.02,1.06,1000
20:27:28.718,4.64,4.5,-85.93,-18.96,-4.09,39.02,-0.15,0.02,1.05,1000
20:27:28.728,4.44,4.48,-85.49,-12.44,-5.85,41.04,-0.2,0.02,1.03,1000
20:27:28.740,4.3,4.47,-85.04,-7.26,-5.67,41.16,-0.17,0.03,1.04,1000
20:27:28.750,4.21,4.47,-84.59,-2.01,-3.23,40.18,-0.2,0.04,1.02,1000
20:27:29.171,4.18,4.5,-84.16,1.46,-1.65,37.93,-0.19,0.06,1.0,1000
20:27:29.171,4.19,4.55,-83.75,3.54,-0.24,35.37,-0.15,0.05,1.01,1000
20:27:29.171,4.21,4.6,-83.37,4.09,1.22,33.9,-0.14,0.02,1.0,1000
20:27:29.171,4.23,4.66,-83.0,4.21,2.13,33.17,-0.13,0.0,0.99,1000
20:27:29.171,4.25,4.72,-82.64,3.9,2.32,32.8,-0.13,0.0,0.98,1000
20:27:29.171,4.25,4.78,-82.29,3.29,2.2,31.22,-0.15,0.02,0.99,1000
20:27:29.171,4.25,4.83,-81.98,2.38,2.01,28.96,-0.15,0.03,1.01,1000
20:27:29.171,4.25,4.89,-81.65,1.89,2.8,25.79,-0.14,0.03,1.02,1000
20:27:29.171,4.25,4.96,-81.38,2.07,3.6,22.8,-0.14,0.03,1.02,1000
20:27:29.171,4.24,5.01,-81.19,2.68,2.87,18.84,-0.16,0.04,1.02,1000
20:27:29.171,4.26,5.06,-81.02,3.48,0.98,14.27,-0.15,0.05,1.03,1000
20:27:29.171,4.28,5.09,-80.88,4.45,-0.06,10.24,-0.14,0.05,1.03,1000
20:27:29.171,4.31,5.12,-80.79,5.18,-1.52,6.95,-0.16,0.06,1.01,1000
20:27:29.171,4.35,5.12,-80.74,5.55,-3.11,2.8,-0.16,0.06,1.01,1000
20:27:29.171,4.38,5.11,-80.73,6.04,-4.82,-0.67,-0.21,0.1,0.99,1000
20:27:29.171,4.45,5.08,-80.76,5.55,-8.35,-6.22,-0.21,0.15,1.01,1000
20:27:29.171,4.52,5.03,-80.85,5.91,-8.9,-9.51,-0.13,0.1,1.04,1000
20:27:29.171,4.59,4.99,-80.95,6.4,-5.55,-9.51,-0.12,0.05,1.04,1000
20:27:29.171,4.66,4.98,-81.05,6.95,-3.11,-7.13,-0.14,0.03,1.0,1000
20:27:29.171,4.73,4.97,-81.11,7.99,-3.11,-4.33,-0.14,0.05,1.0,1000
20:27:29.171,4.8,4.97,-81.15,8.78,-3.29,-3.17,-0.16,0.1,0.98,1000
20:27:29.171,4.89,4.97,-81.19,8.48,-3.17,-4.27,-0.13,0.12,1.0,1000
20:27:29.171,4.98,4.97,-81.25,7.32,-2.2,-5.98,-0.15,0.13,0.98,1000
20:27:29.171,5.07,4.98,-81.33,4.88,-1.4,-7.8,-0.13,0.16,1.0,1000
20:27:29.171,5.13,5.0,-81.42,1.46,1.16,-8.72,-0.12,0.15,0.99,1000
20:27:29.171,5.15,5.05,-81.51,-2.99,4.27,-7.99,-0.12,0.14,0.99,1000
20:27:29.171,5.13,5.13,-81.59,-7.32,7.56,-5.55,-0.09,0.12,0.97,1000
20:27:29.171,5.05,5.24,-81.63,-12.07,11.59,-1.46,-0.09,0.08,0.98,1000
20:27:29.171,4.91,5.38,-81.63,-15.98,12.62,2.13,-0.11,0.11,0.93,1000
20:27:29.171,4.74,5.53,-81.6,-19.39,10.91,3.41,-0.15,0.15,0.94,1000
20:27:29.171,4.55,5.65,-81.57,-22.68,8.23,1.1,-0.16,0.23,0.98,1000
20:27:29.171,4.34,5.75,-81.57,-25.73,7.56,-1.95,-0.09,0.19,1.0,1000
20:27:29.171,4.11,5.85,-81.6,-28.29,8.78,-2.26,-0.12,0.14,1.0,1000
20:27:29.171,3.84,5.96,-81.61,-30.18,9.76,0.18,-0.12,0.11,0.97,1000
20:27:29.172,3.6,6.06,-81.6,-31.16,10.91,4.15,-0.09,0.06,1.0,1000
20:27:29.172,3.25,6.21,-81.52,-30.49,14.33,10.37,-0.1,0.03,0.98,1000
20:27:29.172,2.99,6.33,-81.41,-28.17,17.5,14.51,-0.12,0.05,0.97,1000
20:27:29.172,2.74,6.53,-81.25,-24.45,19.02,17.26,-0.16,0.06,0.96,1000
20:27:29.183,2.5,6.76,-81.06,-21.04,19.57,16.77,-0.17,0.11,1.01,1000
20:27:29.193,2.31,6.99,-80.89,-17.13,20.61,15.3,-0.12,0.07,1.02,1000
20:27:29.201,2.17,7.23,-80.71,-12.26,22.13,16.89,-0.13,0.03,1.03,1000
20:27:29.212,2.06,7.47,-80.52,-7.56,22.26,19.57,-0.15,-0.01,1.01,1000
20:27:29.223,1.99,7.71,-80.28,-2.74,21.77,23.66,-0.14,-0.02,1.02,1000
20:27:29.236,1.97,7.95,-80.01,1.71,20.67,26.4,-0.17,0.01,1.01,1000
20:27:29.246,1.99,8.17,-79.72,4.7,18.72,26.28,-0.17,0.06,1.03,1000
20:27:29.257,2.05,8.37,-79.43,6.1,16.4,25.49,-0.15,0.04,1.03,1000
20:27:29.267,2.12,8.54,-79.15,6.4,14.27,25.49,-0.17,0.02,1.03,1000
20:27:29.279,2.18,8.69,-78.87,4.94,12.74,26.1,-0.14,0.01,1.02,1000
20:27:29.290,2.21,8.83,-78.58,2.68,12.5,27.62,-0.13,0.0,1.03,1000
20:27:29.301,2.21,8.96,-78.27,-0.61,11.83,28.11,-0.15,0.01,0.99,1000
20:27:29.311,2.17,9.07,-77.96,-4.21,10.06,27.93,-0.14,0.04,0.99,1000
20:27:29.324,2.11,9.16,-77.66,-7.26,6.4,25.43,-0.19,0.08,0.95,1000
20:27:29.333,2.02,9.21,-77.41,-10.55,2.56,20.18,-0.15,0.11,0.99,1000
20:27:29.345,1.91,9.24,-77.2,-13.05,1.95,15.67,-0.12,0.09,1.0,1000
20:27:29.355,1.78,9.26,-77.05,-15.18,2.99,12.74,-0.16,0.06,0.98,1000
20:27:29.367,1.63,9.29,-76.91,-17.13,3.11,10.79,-0.18,0.04,0.97,1000
20:27:29.378,1.46,9.33,-76.8,-17.99,4.02,9.51,-0.18,0.04,0.99,1000
20:27:29.389,1.27,9.39,-76.7,-17.99,6.46,8.17,-0.2,0.04,0.99,1000
20:27:29.402,1.1,9.47,-76.62,-16.89,7.62,5.49,-0.23,0.07,0.98,1000
20:27:29.410,0.94,9.58,-76.58,-14.45,8.96,1.83,-0.21,0.06,1.0,1000
20:27:29.421,0.82,9.71,-76.57,-10.55,11.83,-0.73,-0.22,0.05,1.01,1000
20:27:29.433,0.75,9.87,-76.58,-6.34,13.9,-2.44,-0.25,0.04,1.0,1000
20:27:29.446,0.71,10.05,-76.62,-2.32,13.96,-4.02,-0.28,0.08,1.01,1000
20:27:29.455,0.73,10.24,-76.67,0.67,14.45,-5.0,-0.23,0.05,1.04,1000
20:27:29.466,0.77,10.44,-76.71,3.29,16.4,-2.2,-0.25,-0.0,1.06,1000
20:27:29.482,0.82,10.65,-76.72,5.06,17.26,2.62,-0.25,-0.02,1.02,1000
20:27:29.491,0.88,10.86,-76.66,6.1,16.83,8.17,-0.23,-0.03,1.05,1000
20:27:29.500,0.93,11.07,-76.54,6.4,17.26,14.94,-0.23,-0.05,1.03,1000
20:27:29.509,0.98,11.28,-76.36,6.28,17.2,19.82,-0.24,-0.03,1.03,1000
20:27:29.521,1.03,11.48,-76.12,5.85,15.3,23.17,-0.28,0.0,1.01,1000
20:27:29.532,1.07,11.66,-75.87,4.82,12.38,23.17,-0.27,0.04,1.04,1000
20:27:29.544,1.11,11.81,-75.62,3.11,10.73,22.44,-0.25,0.03,1.06,1000
20:27:29.555,1.13,11.94,-75.37,0.73,10.24,22.32,-0.27,0.02,1.05,1000
20:27:29.565,1.13,12.07,-75.12,-1.28,9.39,22.62,-0.26,0.02,1.03,1000
20:27:29.575,1.1,12.19,-74.87,-3.35,9.51,22.99,-0.26,0.02,1.03,1000
20:27:29.592,1.06,12.32,-74.62,-4.76,10.24,23.29,-0.26,0.02,1.02,1000
20:27:29.598,1.0,12.46,-74.36,-5.67,12.2,23.29,-0.26,0.02,1.02,1000
20:27:29.608,0.93,12.62,-74.11,-6.04,14.45,22.56,-0.27,0.04,1.0,1000
20:27:29.620,0.87,12.81,-73.87,-5.67,16.95,20.67,-0.27,0.04,1.01,1000
20:27:29.631,0.83,13.03,-73.65,-4.27,20.43,18.78,-0.27,0.05,1.0,1000
20:27:29.646,0.8,13.28,-73.45,-2.44,23.05,17.32,-0.27,0.04,0.98,1000
20:27:29.652,0.8,13.56,-73.27,0.37,24.82,15.73,-0.26,0.04,0.97,1000
20:27:29.663,0.83,13.85,-73.1,4.15,24.76,15.0,-0.25,0.03,0.96,1000
20:27:29.674,0.91,14.12,-72.93,8.29,23.66,13.96,-0.26,0.05,0.95,1000
20:27:29.924,1.04,14.38,-72.79,12.8,21.71,12.68,-0.23,0.05,0.96,1000
20:27:29.924,1.21,14.61,-72.65,16.22,20.91,11.95,-0.25,0.05,0.96,1000
20:27:29.924,1.41,14.84,-72.51,18.23,20.49,12.26,-0.27,0.03,0.96,1000
20:27:29.924,1.62,15.06,-72.38,19.27,19.76,12.74,-0.32,0.04,0.95,1000
20:27:29.924,1.84,15.28,-72.24,19.33,18.48,12.01,-0.33,0.08,0.96,1000
20:27:29.924,2.06,15.5,-72.11,18.11,18.41,11.04,-0.28,0.07,1.0,1000
20:27:29.924,2.26,15.72,-71.99,16.46,20.73,11.28,-0.29,0.04,1.01,1000
20:27:29.924,2.42,15.94,-71.88,13.66,22.32,12.2,-0.31,0.03,0.98,1000
20:27:29.924,2.55,16.2,-71.74,10.55,22.26,12.68,-0.32,0.04,1.0,1000
20:27:29.924,2.65,16.44,-71.6,8.48,20.49,12.87,-0.33,0.05,0.98,1000
20:27:29.924,2.74,16.67,-71.46,6.83,18.11,11.52,-0.34,0.05,1.0,1000
20:27:29.924,2.8,16.87,-71.34,5.85,15.73,9.94,-0.33,0.04,0.99,1000
20:27:29.924,2.86,17.05,-71.24,4.88,13.54,8.23,-0.35,0.04,0.99,1000
20:27:29.924,2.91,17.2,-71.16,4.15,11.22,5.79,-0.37,0.07,0.99,1000
20:27:29.924,2.94,17.34,-71.11,2.74,8.84,2.62,-0.38,0.09,1.0,1000
20:27:29.924,2.97,17.46,-71.1,0.61,6.34,-0.79,-0.4,0.09,1.02,1000
20:27:29.925,2.98,17.53,-71.11,-1.59,5.73,-1.77,-0.33,0.06,1.04,1000
20:27:29.925,2.96,17.62,-71.13,-3.96,4.39,-1.65,-0.38,0.06,1.02,1000
20:27:29.925,2.91,17.67,-71.15,-5.85,1.04,-1.28,-0.36,0.07,1.01,1000
20:27:29.925,2.85,17.69,-71.16,-6.83,-2.56,-0.91,-0.36,0.08,1.0,1000
20:27:29.925,2.78,17.67,-71.17,-7.93,-6.28,-0.73,-0.38,0.1,1.0,1000
20:27:29.925,2.71,17.61,-71.18,-9.27,-9.82,-1.1,-0.38,0.12,1.01,1000
20:27:29.927,2.62,17.51,-71.2,-11.22,-12.62,-1.95,-0.35,0.1,1.02,1000
20:27:29.938,2.52,17.39,-71.21,-13.23,-14.15,-0.06,-0.36,0.05,1.02,1000
20:27:29.953,2.39,17.25,-71.2,-13.96,-15.61,2.62,-0.37,0.05,1.0,1000
20:27:29.962,2.25,17.1,-71.16,-12.93,-17.2,4.82,-0.35,0.04,1.01,1000
20:27:29.973,2.13,16.92,-71.1,-10.49,-18.11,6.59,-0.34,0.04,1.0,1000
20:27:29.982,2.03,16.74,-71.02,-6.65,-18.66,8.48,-0.33,0.01,1.0,1000
20:27:29.994,1.97,16.56,-70.92,-1.59,-19.27,10.37,-0.35,0.0,0.98,1000
20:27:30.004,1.97,16.37,-70.8,2.93,-19.76,10.43,-0.36,0.05,1.02,1000
20:27:30.016,2.02,16.17,-70.69,6.95,-21.22,8.66,-0.36,0.05,1.0,1000
20:27:30.027,2.11,15.96,-70.61,9.09,-22.13,7.26,-0.33,0.04,1.05,1000
20:27:30.037,2.21,15.75,-70.53,10.79,-22.62,7.2,-0.32,0.0,1.03,1000
20:27:30.048,2.33,15.52,-70.44,11.95,-23.48,8.72,-0.3,-0.02,1.03,1000
20:27:30.062,2.44,15.27,-70.33,12.87,-24.21,11.04,-0.28,-0.04,1.01,1000
20:27:30.072,2.56,15.02,-70.2,14.27,-24.09,13.17,-0.25,-0.05,1.0,1000
20:27:30.084,2.68,14.76,-70.05,15.43,-23.72,14.21,-0.28,-0.04,0.97,1000
20:27:30.292,2.81,14.51,-69.91,15.85,-24.21,12.07,-0.3,0.04,0.97,1000
20:27:30.292,2.96,14.26,-69.8,14.45,-23.54,6.22,-0.24,0.06,1.0,1000
20:27:30.292,3.07,14.04,-69.75,11.59,-20.24,1.59,-0.27,0.04,1.0,1000
20:27:30.292,3.16,13.85,-69.75,6.95,-15.91,-1.95,-0.24,0.03,1.0,1000
20:27:30.292,3.2,13.7,-69.78,1.95,-11.52,-3.29,-0.24,0.03,1.01,1000
20:27:30.292,3.18,13.6,-69.82,-3.48,-6.89,-4.45,-0.22,0.03,1.0,1000
20:27:30.292,3.11,13.54,-69.87,-7.8,-3.29,-4.09,-0.19,0.01,1.0,1000
20:27:30.292,2.99,13.5,-69.91,-11.1,-0.55,-2.87,-0.21,0.03,1.0,1000
20:27:30.292,2.84,13.48,-69.94,-14.51,-0.73,-2.68,-0.21,0.06,1.01,1000
20:27:30.292,2.66,13.46,-69.97,-17.32,0.3,-2.26,-0.19,0.05,1.03,1000
20:27:30.292,2.46,13.45,-69.99,-19.94,2.93,-0.3,-0.18,0.01,1.05,1000
20:27:30.292,2.22,13.46,-69.97,-22.2,4.27,3.23,-0.23,0.03,1.04,1000
20:27:30.292,1.97,13.49,-69.93,-23.6,4.76,5.73,-0.21,0.03,1.06,1000
20:27:30.292,1.7,13.52,-69.85,-24.39,3.96,8.41,-0.2,0.02,1.07,1000
20:27:30.292,1.43,13.53,-69.75,-24.33,1.95,11.28,-0.21,0.02,1.06,1000
20:27:30.292,1.16,13.51,-69.61,-23.29,-0.24,14.63,-0.18,-0.02,1.07,1000
20:27:30.292,0.9,13.48,-69.43,-20.98,-2.2,19.27,-0.2,-0.06,1.06,1000
20:27:30.292,0.67,13.41,-69.2,-17.38,-6.1,22.93,-0.22,-0.05,1.03,1000
20:27:30.292,0.48,13.3,-68.94,-11.95,-12.26,23.96,-0.23,-0.01,1.03,1000
20:27:30.497,0.35,13.12,-68.68,-6.83,-19.21,22.13,-0.25,0.03,1.03,1000
20:27:30.497,0.29,12.87,-68.46,-2.44,-25.98,18.78,-0.23,0.03,1.04,1000
20:27:30.497,0.28,12.59,-68.28,0.55,-30.55,17.26,-0.22,-0.03,1.05,1000
20:27:30.497,0.29,12.25,-68.08,3.05,-33.66,18.9,-0.24,-0.05,1.0,1000
20:27:30.497,0.31,11.87,-67.87,5.12,-36.95,18.78,-0.2,0.0,1.01,1000
20:27:30.497,0.37,11.45,-67.67,7.2,-39.82,18.29,-0.18,-0.01,0.98,1000
20:27:30.497,0.45,11.0,-67.46,9.57,-41.83,19.57,-0.17,-0.05,0.96,1000
20:27:30.497,0.54,10.54,-67.24,11.16,-42.32,21.4,-0.14,-0.04,0.95,1000
20:27:30.497,0.65,10.07,-66.99,12.87,-41.59,23.35,-0.13,-0.04,0.92,1000
20:27:30.497,0.77,9.61,-66.73,13.54,-39.63,24.76,-0.12,-0.02,0.93,1000
20:27:30.497,0.89,9.18,-66.46,13.48,-35.3,25.61,-0.1,-0.04,0.92,1000
20:27:30.497,1.01,8.81,-66.16,12.68,-28.54,28.48,-0.11,-0.07,0.93,1000
20:27:30.497,1.11,8.51,-65.84,11.28,-21.16,31.65,-0.12,-0.06,0.92,1000
20:27:30.497,1.18,8.3,-65.48,9.02,-13.72,33.35,-0.11,-0.04,0.93,1000
20:27:30.497,1.23,8.17,-65.11,7.2,-7.26,33.11,-0.12,-0.01,0.94,1000
20:27:30.497,1.27,8.1,-64.76,5.91,-2.8,30.79,-0.11,0.03,0.97,1000
20:27:30.497,1.32,8.07,-64.43,5.0,1.04,27.87,-0.1,0.02,0.98,1000
20:27:30.497,1.36,8.08,-64.13,4.21,4.7,26.59,-0.11,-0.01,1.0,1000
20:27:30.508,1.38,8.14,-63.84,2.62,8.66,25.98,-0.13,-0.01,1.01,1000
20:27:30.515,1.39,8.23,-63.56,0.98,10.91,25.06,-0.15,0.0,1.01,1000
20:27:30.524,1.39,8.35,-63.29,0.24,12.13,23.54,-0.14,0.03,1.02,1000
20:27:30.534,1.38,8.47,-63.04,-0.37,11.77,20.49,-0.13,0.06,1.04,1000
20:27:30.543,1.39,8.59,-62.83,0.49,9.94,17.01,-0.13,0.08,1.02,1000
20:27:30.554,1.41,8.67,-62.66,0.91,6.83,12.62,-0.14,0.12,1.06,1000
20:27:30.567,1.45,8.72,-62.54,0.73,4.39,8.72,-0.12,0.11,1.06,1000
20:27:30.576,1.49,8.75,-62.45,-0.49,3.35,7.32,-0.14,0.09,1.07,1000
20:27:30.587,1.5,8.76,-62.37,-2.93,0.67,7.56,-0.2,0.12,1.01,1000
20:27:30.598,1.5,8.74,-62.3,-6.1,-3.84,5.18,-0.21,0.2,1.06,1000
20:27:30.611,1.48,8.69,-62.25,-9.33,-6.71,4.45,-0.1,0.14,1.11,1000
20:27:30.621,1.42,8.61,-62.19,-11.89,-4.94,8.05,-0.09,0.09,1.11,1000
20:27:30.631,1.33,8.54,-62.08,-13.29,-4.27,13.29,-0.11,0.07,1.07,1000
20:27:30.642,1.22,8.48,-61.91,-13.35,-2.32,18.23,-0.1,0.07,1.11,1000
20:27:30.653,1.11,8.44,-61.69,-12.01,2.26,22.01,-0.1,0.06,1.09,1000
20:27:30.665,1.02,8.46,-61.43,-9.02,5.67,24.15,-0.13,0.1,1.04,1000
20:27:30.678,0.97,8.52,-61.18,-5.18,7.87,19.76,-0.15,0.19,1.1,1000
20:27:30.688,0.99,8.6,-60.99,-0.79,10.73,12.87,-0.13,0.21,1.12,1000
20:27:30.697,1.06,8.71,-60.88,3.96,12.87,6.34,-0.13,0.16,1.11,1000
20:27:30.710,1.19,8.83,-60.83,8.17,13.84,2.32,-0.12,0.13,1.1,1000
20:27:30.721,1.37,8.96,-60.81,12.74,13.96,0.91,-0.12,0.1,1.08,1000
20:27:30.733,1.57,9.08,-60.8,16.16,12.87,-0.43,-0.16,0.11,1.06,1000
20:27:30.741,1.81,9.2,-60.83,18.41,10.91,-4.63,-0.18,0.19,1.04,1000
20:27:30.753,2.08,9.3,-60.91,18.54,8.35,-13.11,-0.18,0.27,1.07,1000
20:27:30.764,2.35,9.38,-61.09,15.98,7.44,-20.98,-0.19,0.26,1.07,1000
20:27:30.957,2.58,9.46,-61.35,10.12,8.35,-26.65,-0.17,0.24,1.1,1000
20:27:30.957,2.72,9.53,-61.6,3.54,9.51,-29.15,-0.17,0.24,1.11,1000
20:27:30.957,2.81,9.63,-61.95,-4.94,9.51,-29.15,-0.14,0.23,1.09,1000
20:27:30.957,2.81,9.71,-62.23,-13.35,7.07,-26.77,-0.12,0.21,1.06,1000
20:27:30.957,2.71,9.75,-62.51,-21.22,2.74,-22.56,-0.1,0.19,1.05,1000
20:27:30.957,2.52,9.72,-62.73,-27.56,-2.93,-16.71,-0.06,0.15,1.01,1000
20:27:30.957,2.28,9.63,-62.88,-31.46,-8.35,-9.57,-0.06,0.14,1.01,1000
20:27:30.957,2.0,9.46,-62.96,-32.13,-16.04,-4.7,-0.12,0.19,0.95,1000
20:27:30.957,1.69,9.22,-63.01,-30.37,-24.88,-3.78,-0.15,0.24,1.04,1000
20:27:30.957,1.52,8.95,-63.04,-26.52,-31.22,-4.02,-0.09,0.23,1.05,1000
20:27:30.957,1.36,8.59,-63.08,-21.1,-36.16,-3.23,-0.1,0.19,1.09,1000
20:27:30.957,1.24,8.15,-63.1,-15.06,-39.88,-0.18,-0.08,0.14,1.07,1000
20:27:30.957,1.19,7.68,-63.09,-8.48,-41.52,3.72,-0.08,0.12,1.05,1000
20:27:30.957,1.19,7.19,-63.03,-1.22,-41.52,7.8,-0.07,0.12,1.02,1000
20:27:30.957,1.27,6.71,-62.93,5.49,-42.5,10.37,-0.08,0.15,0.97,1000
20:27:30.957,1.44,6.22,-62.82,12.5,-43.35,10.98,-0.05,0.16,0.98,1000
20:27:30.957,1.67,5.72,-62.69,18.35,-42.8,12.2,-0.04,0.14,0.99,1000
20:27:30.961,1.96,5.24,-62.55,22.93,-41.34,13.78,-0.1,0.15,0.95,1000
20:27:30.972,2.28,4.79,-62.39,25.3,-40.0,14.76,-0.06,0.16,0.98,1000
20:27:30.984,2.63,4.36,-62.22,26.71,-35.37,16.65,-0.05,0.14,0.98,1000
20:27:30.994,2.97,3.99,-62.03,26.1,-29.63,19.51,-0.07,0.12,0.96,1000
20:27:31.005,3.3,3.68,-61.8,24.21,-24.45,23.35,-0.05,0.11,0.95,1000
20:27:31.017,3.6,3.44,-61.52,22.2,-19.33,27.13,-0.04,0.09,0.92,1000
20:27:31.027,3.86,3.24,-61.21,19.39,-15.49,30.12,-0.05,0.12,0.91,1000
20:27:31.040,4.09,3.07,-60.88,16.59,-14.45,29.94,-0.05,0.18,0.9,1000
20:27:31.054,4.31,2.91,-60.56,13.41,-13.96,27.56,-0.06,0.18,0.92,1000
20:27:31.062,4.49,2.76,-60.26,9.45,-16.28,24.88,-0.11,0.21,0.91,1000
20:27:31.072,4.62,2.6,-60.02,5.18,-18.11,23.35,-0.04,0.18,0.97,1000
20:27:31.087,4.71,2.43,-59.79,1.46,-17.44,24.76,-0.02,0.12,0.98,1000
20:27:31.094,4.75,2.24,-59.47,-3.05,-16.4,29.33,-0.04,0.08,0.94,1000
20:27:31.104,4.72,2.06,-59.13,-6.28,-16.04,33.48,0.01,0.08,0.95,1000
20:27:31.116,4.66,1.88,-58.74,-7.56,-14.94,36.46,0.02,0.06,0.92,1000
20:27:31.135,4.59,1.7,-58.34,-7.01,-15.85,37.32,-0.0,0.11,0.9,1000
20:27:31.138,4.53,1.51,-57.94,-5.67,-15.85,34.02,0.03,0.14,0.94,1000
20:27:31.148,4.5,1.32,-57.59,-3.96,-15.98,29.39,-0.02,0.15,0.93,1000
20:27:31.160,4.5,1.14,-57.29,-2.32,-17.01,23.35,-0.03,0.18,0.94,1000
20:27:31.170,4.52,0.94,-57.06,-2.01,-17.13,18.11,-0.01,0.16,0.99,1000
20:27:31.182,4.55,0.76,-56.87,-2.32,-15.24,15.43,-0.02,0.12,0.98,1000
20:27:31.193,4.55,0.62,-56.72,-3.84,-12.07,15.61,-0.02,0.09,0.98,1000
20:27:31.203,4.53,0.51,-56.54,-5.61,-7.07,17.13,-0.02,0.07,0.95,1000
20:27:31.214,4.47,0.46,-56.35,-8.17,-2.8,17.56,-0.03,0.1,0.94,1000
20:27:31.230,4.38,0.46,-56.17,-11.52,2.44,14.76,-0.02,0.15,0.97,1000
20:27:31.236,4.27,0.52,-56.02,-15.37,10.24,10.85,-0.01,0.14,0.98,1000
20:27:31.251,4.12,0.68,-55.92,-19.09,19.76,7.93,-0.05,0.11,0.99,1000
20:27:31.258,3.92,0.95,-55.84,-22.87,28.29,5.18,-0.08,0.14,1.02,1000
20:27:31.269,3.69,1.32,-55.8,-26.22,37.13,2.68,-0.07,0.11,1.06,1000
20:27:31.280,3.42,1.78,-55.77,-28.84,44.76,2.8,-0.13,0.05,1.08,1000
20:27:31.292,3.11,2.32,-55.73,-30.85,50.24,4.76,-0.12,0.02,1.08,1000
20:27:31.302,2.77,2.91,-55.67,-30.49,52.26,5.85,-0.12,0.03,1.09,1000
20:27:31.315,2.45,3.5,-55.61,-28.41,49.82,3.48,-0.15,0.12,1.08,1000
20:27:31.334,2.18,4.04,-55.6,-23.78,42.87,-2.62,-0.13,0.16,1.11,1000
20:27:31.335,1.98,4.51,-55.65,-18.54,37.38,-6.71,-0.08,0.11,1.17,1000
20:27:31.347,1.83,4.9,-55.73,-13.23,30.18,-7.5,-0.16,0.09,1.09,1000
20:27:31.360,1.74,5.2,-55.81,-10.18,21.1,-6.04,-0.1,0.06,1.15,1000
20:27:31.368,1.66,5.42,-55.85,-8.17,15.43,-1.1,-0.05,0.02,1.11,1000
20:27:31.379,1.58,5.55,-55.84,-7.68,9.27,5.37,-0.09,0.02,1.07,1000
20:27:31.395,1.51,5.63,-55.76,-7.13,5.06,10.0,-0.0,0.05,1.07,1000
20:27:31.401,1.44,5.65,-55.63,-5.85,4.21,12.93,-0.0,0.07,1.05,1000
20:27:31.412,1.4,5.66,-55.49,-4.33,3.84,12.87,-0.03,0.13,1.03,1000
20:27:31.425,1.4,5.66,-55.35,-2.13,5.98,11.4,0.03,0.11,1.05,1000
20:27:31.435,1.42,5.7,-55.23,0.3,10.61,11.04,-0.02,0.09,1.05,1000
20:27:31.445,1.47,5.78,-55.11,2.38,12.38,9.82,-0.04,0.14,1.02,1000
20:27:31.456,1.55,5.87,-55.02,4.45,12.99,6.4,-0.01,0.15,1.06,1000
20:27:31.468,1.66,5.97,-54.96,6.4,13.6,4.7,-0.05,0.11,1.05,1000
20:27:31.479,1.79,6.08,-54.91,7.99,12.93,3.84,-0.05,0.11,1.03,1000
20:27:31.489,1.92,6.18,-54.87,8.41,11.4,2.8,-0.05,0.12,1.02,1000
20:27:31.501,2.06,6.26,-54.84,8.17,10.61,2.01,-0.08,0.11,1.01,1000
20:27:31.515,2.18,6.34,-54.83,6.4,8.41,-0.12,-0.11,0.15,1.02,1000
20:27:31.522,2.29,6.4,-54.84,2.93,6.59,-2.44,-0.1,0.12,1.0,1000
20:27:31.540,2.34,6.45,-54.87,-2.13,4.82,-2.68,-0.14,0.11,1.0,1000
20:27:31.544,2.33,6.49,-54.9,-10.18,3.05,-2.87,-0.15,0.11,0.99,1000
20:27:31.556,2.22,6.53,-54.93,-19.45,2.38,-2.44,-0.13,0.09,1.04,1000
20:27:31.567,2.0,6.56,-54.95,-28.96,1.34,-1.16,-0.15,0.06,1.01,1000
20:27:31.577,1.67,6.57,-54.96,-37.87,-1.95,0.18,-0.13,0.06,1.03,1000
20:27:31.592,1.25,6.54,-54.95,-44.39,-5.06,0.98,-0.12,0.04,1.05,1000
20:27:31.599,0.81,6.48,-54.93,-48.6,-8.66,2.99,-0.15,-0.01,1.04,1000
20:27:31.610,0.28,6.38,-54.89,-49.15,-13.66,5.79,-0.17,-0.02,1.01,1000
20:27:31.621,-0.24,6.23,-54.81,-46.22,-19.88,7.93,-0.16,-0.02,1.01,1000
20:27:31.641,-0.73,6.0,-54.72,-42.74,-27.07,8.72,-0.17,0.01,1.01,1000
20:27:31.644,-1.17,5.7,-54.63,-40.67,-34.76,8.29,-0.17,0.02,0.99,1000
20:27:31.655,-1.6,5.33,-54.53,-40.43,-40.73,8.9,-0.11,-0.0,1.03,1000
20:27:31.666,-2.02,4.9,-54.43,-40.18,-41.04,11.04,-0.09,-0.04,1.03,1000
20:27:31.677,-2.44,4.48,-54.29,-39.15,-37.93,15.3,-0.1,-0.07,1.03,1000
20:27:31.688,-2.86,4.1,-54.1,-36.46,-33.84,19.63,-0.07,-0.07,1.01,1000
20:27:31.699,-3.24,3.76,-53.87,-31.46,-29.88,21.77,-0.04,-0.06,1.01,1000
20:27:31.710,-3.55,3.45,-53.63,-23.84,-25.55,22.62,-0.03,-0.06,1.01,1000
20:27:31.721,-3.77,3.19,-53.38,-15.06,-21.22,22.93,-0.04,-0.07,1.0,1000
20:27:31.736,-3.89,2.97,-53.13,-6.28,-18.96,21.95,-0.08,-0.01,0.97,1000
20:27:31.745,-3.91,2.77,-52.91,-0.91,-18.29,17.07,-0.07,0.08,1.03,1000
20:27:31.754,-3.86,2.59,-52.75,1.52,-17.01,11.71,-0.12,0.07,1.03,1000
20:27:31.765,-3.79,2.44,-52.63,0.73,-16.71,8.96,-0.15,0.06,1.07,1000
20:27:31.776,-3.74,2.3,-52.54,-2.26,-15.37,9.21,-0.11,-0.01,1.1,1000
20:27:31.787,-3.74,2.18,-52.41,-6.22,-13.9,14.39,-0.11,-0.06,1.09,1000
20:27:31.798,-3.79,2.06,-52.22,-8.72,-16.46,22.07,-0.12,-0.08,1.03,1000
20:27:31.810,-3.88,1.9,-51.95,-9.45,-21.4,28.9,-0.09,-0.07,1.01,1000
20:27:31.821,-3.96,1.69,-51.61,-7.2,-25.85,33.41,-0.11,-0.02,0.98,1000
20:27:31.832,-4.0,1.45,-51.27,-3.66,-30.24,34.57,-0.12,0.04,1.0,1000
20:27:31.842,-3.98,1.16,-50.9,1.89,-32.26,33.23,-0.09,0.04,1.03,1000
20:27:31.852,-3.89,0.85,-50.53,7.56,-33.41,33.41,-0.17,0.02,1.01,1000
20:27:31.864,-3.73,0.55,-50.16,12.26,-34.57,34.57,-0.13,0.02,1.04,1000
20:27:31.874,-3.54,0.23,-49.76,15.98,-33.9,38.6,-0.1,-0.04,1.07,1000
20:27:31.885,-3.32,-0.06,-49.31,18.48,-30.06,44.27,-0.11,-0.04,1.04,1000
20:27:31.898,-3.08,-0.31,-48.8,21.34,-24.76,49.7,-0.03,-0.05,1.04,1000
20:27:31.907,-2.82,-0.51,-48.23,24.45,-18.29,54.15,-0.05,-0.01,1.0,1000
20:27:31.918,-2.52,-0.65,-47.64,27.68,-13.78,53.9,-0.04,0.06,0.98,1000
20:27:31.931,-2.17,-0.74,-47.05,31.34,-7.2,50.91,0.03,0.1,1.0,1000
20:27:31.950,-1.77,-0.76,-46.51,33.84,0.67,47.5,0.01,0.09,0.99,1000
20:27:31.952,-1.38,-0.72,-46.05,32.32,6.83,44.39,-0.02,0.12,1.01,1000
20:27:32.061,-0.97,-0.6,-45.53,24.51,13.29,41.52,0.05,0.07,1.03,1000
20:27:32.061,-0.69,-0.44,-45.07,14.7,18.41,42.87,0.05,0.03,1.03,1000
20:27:32.061,-0.54,-0.2,-44.54,1.65,22.2,45.49,0.05,0.02,1.03,1000
20:27:32.061,-0.52,0.01,-44.09,-6.04,23.66,46.34,0.07,0.03,1.04,1000
20:27:32.061,-0.6,0.24,-43.58,-12.38,24.02,44.63,0.05,0.07,1.06,1000
20:27:32.061,-0.7,0.46,-43.15,-14.21,24.45,40.43,0.05,0.08,1.07,1000
20:27:32.061,-0.82,0.71,-42.73,-12.32,25.24,35.61,0.02,0.06,1.09,1000
20:27:32.061,-0.9,0.96,-42.36,-8.54,25.0,31.1,-0.0,0.05,1.1,1000
20:27:32.061,-0.94,1.21,-42.03,-5.24,23.6,28.05,0.0,0.03,1.1,1000
20:27:32.064,-0.96,1.44,-41.73,-2.5,20.24,26.4,-0.01,0.03,1.08,1000
20:27:32.073,-0.95,1.61,-41.48,-0.98,16.04,25.0,0.03,0.03,1.09,1000
20:27:32.084,-0.92,1.73,-41.2,0.12,10.67,24.45,0.0,0.04,1.05,1000
20:27:32.096,-0.89,1.8,-40.94,0.3,4.45,23.23,-0.01,0.09,1.07,1000
20:27:32.111,-0.85,1.81,-40.69,0.3,-0.37,22.32,0.03,0.07,1.08,1000
20:27:32.116,-0.81,1.77,-40.46,1.1,-2.74,23.11,0.03,0.04,1.09,1000
20:27:32.128,-0.75,1.71,-40.19,2.74,-3.41,26.16,0.0,0.0,1.07,1000
20:27:32.139,-0.69,1.65,-39.88,5.98,-2.99,30.85,0.01,-0.02,1.06,1000
20:27:32.154,-0.59,1.6,-39.53,10.61,-1.28,34.45,0.03,-0.01,1.03,1000
20:27:32.162,-0.45,1.57,-39.14,15.37,1.34,35.67,0.03,0.02,1.01,1000
20:27:32.173,-0.23,1.58,-38.72,20.0,5.43,34.33,0.06,0.05,1.0,1000
20:27:32.186,-0.05,1.61,-38.45,22.68,10.79,32.13,0.05,0.05,0.98,1000
20:27:32.194,0.11,1.67,-38.26,24.21,15.37,29.02,0.01,0.1,0.98,1000
20:27:32.205,0.41,1.83,-37.96,24.33,21.71,23.41,0.07,0.16,1.02,1000
20:27:32.217,0.71,2.05,-37.73,22.68,28.54,17.5,0.03,0.2,1.06,1000
20:27:32.226,1.02,2.36,-37.55,19.21,35.12,13.66,0.01,0.16,1.08,1000
20:27:32.238,1.27,2.73,-37.4,14.76,41.04,13.78,-0.04,0.13,1.15,1000
20:27:32.254,1.47,3.18,-37.24,9.63,44.82,17.07,-0.08,0.11,1.15,1000
20:27:32.263,1.6,3.65,-37.02,4.94,44.15,22.26,-0.1,0.12,1.2,1000
20:27:32.271,1.69,4.11,-36.76,2.01,39.45,26.4,-0.1,0.13,1.17,1000
20:27:32.283,1.74,4.5,-36.45,-0.3,29.39,31.22,-0.13,0.14,1.15,1000
20:27:32.292,1.78,4.77,-36.09,-2.13,17.38,36.1,-0.11,0.11,1.16,1000
20:27:32.305,1.79,4.91,-35.66,-3.96,4.15,42.2,-0.14,0.09,1.16,1000
20:27:32.317,1.77,4.91,-35.17,-4.82,-8.11,48.6,-0.15,0.07,1.14,1000
20:27:32.325,1.74,4.79,-34.61,-5.43,-19.27,54.02,-0.15,0.08,1.16,1000
20:27:32.336,1.71,4.55,-34.0,-4.27,-29.82,58.84,-0.15,0.06,1.12,1000
20:27:32.545,1.69,4.21,-33.33,-1.59,-39.27,62.62,-0.16,0.05,1.11,1000
20:27:32.545,1.71,3.77,-32.63,2.2,-48.54,64.88,-0.1,0.06,1.08,1000
20:27:32.545,1.76,3.23,-31.91,6.34,-55.73,66.22,-0.07,0.04,1.05,1000
20:27:32.545,1.86,2.62,-31.18,10.3,-60.67,67.26,-0.07,0.02,0.99,1000
20:27:32.545,1.99,1.96,-30.44,13.72,-63.48,67.74,-0.01,0.02,0.95,1000
20:27:32.545,2.15,1.28,-29.7,15.61,-63.35,66.46,-0.0,0.04,0.93,1000
20:27:32.545,2.3,0.67,-29.04,15.67,-60.3,64.15,0.0,0.04,0.91,1000
20:27:32.545,2.48,-0.02,-28.28,13.96,-52.99,61.4,0.04,0.02,0.9,1000
20:27:32.545,2.62,-0.56,-27.62,10.91,-43.72,58.9,0.03,0.01,0.88,1000
20:27:32.545,2.71,-0.99,-26.98,6.4,-31.83,56.28,0.04,0.0,0.86,1000
20:27:32.545,2.74,-1.29,-26.38,0.98,-20.37,52.62,0.01,0.06,0.85,1000
20:27:32.545,2.72,-1.45,-25.88,-5.55,-7.8,46.89,0.08,0.06,0.89,1000
20:27:32.545,2.63,-1.49,-25.38,-12.38,4.7,41.95,0.06,0.01,0.92,1000
20:27:32.545,2.46,-1.41,-24.93,-17.5,14.82,39.21,0.04,-0.02,0.91,1000
20:27:32.545,2.23,-1.23,-24.51,-20.73,22.26,37.38,0.06,-0.06,0.95,1000
20:27:32.545,1.96,-0.98,-24.11,-21.52,26.65,35.67,0.04,-0.06,0.95,1000
20:27:32.545,1.69,-0.7,-23.72,-19.94,28.35,33.23,0.04,-0.06,0.96,1000
20:27:32.545,1.44,-0.41,-23.38,-16.71,26.65,29.09,0.03,-0.05,0.97,1000
20:27:32.545,1.24,-0.16,-23.08,-12.99,22.99,24.21,0.04,-0.03,0.99,1000
20:27:32.565,1.08,0.05,-22.83,-8.29,17.56,19.09,0.03,-0.05,0.99,1000
20:27:32.567,0.98,0.2,-22.64,-3.48,11.77,14.88,0.03,-0.05,1.02,1000
20:27:32.581,0.93,0.27,-22.51,1.22,5.98,10.55,0.05,-0.05,1.02,1000
20:27:32.590,0.93,0.29,-22.41,4.63,-0.79,6.46,-0.04,-0.02,1.01,1000
20:27:32.601,0.95,0.25,-22.36,5.98,-5.37,2.74,0.02,-0.03,1.03,1000
20:27:32.612,1.0,0.17,-22.34,6.77,-7.2,-0.24,-0.02,-0.02,1.01,1000
20:27:32.623,1.05,0.09,-22.36,6.4,-7.5,-3.05,-0.03,0.01,1.0,1000
20:27:32.634,1.1,0.01,-22.41,4.88,-6.34,-6.46,0.01,0.01,1.0,1000
20:27:32.645,1.13,-0.04,-22.49,3.35,-4.09,-8.84,-0.01,0.02,0.97,1000
20:27:32.820,1.15,-0.08,-22.59,1.89,-2.44,-11.59,0.01,0.05,0.96,1000
20:27:32.820,1.17,-0.09,-22.73,0.0,0.73,-14.57,0.02,0.05,0.97,1000
20:27:32.820,1.17,-0.07,-22.9,-1.83,4.39,-16.28,0.02,0.04,0.96,1000
20:27:32.820,1.15,-0.01,-23.08,-3.6,9.88,-16.77,0.02,0.04,0.97,1000
20:27:32.820,1.11,0.12,-23.27,-5.3,15.18,-16.77,-0.01,0.05,0.96,1000
20:27:32.820,1.06,0.3,-23.46,-7.38,20.0,-17.74,0.0,0.09,1.01,1000
20:27:32.820,1.0,0.51,-23.64,-9.63,23.41,-18.05,-0.01,0.08,1.0,1000
20:27:32.820,0.9,0.8,-23.85,-12.13,24.94,-16.77,-0.01,0.04,1.03,1000
20:27:32.820,0.79,1.06,-24.02,-13.23,24.76,-12.93,-0.0,0.0,1.05,1000
20:27:32.820,0.65,1.32,-24.14,-12.62,23.54,-7.5,-0.0,-0.02,1.05,1000
20:27:32.820,0.52,1.56,-24.2,-10.18,21.1,-2.38,-0.0,-0.02,1.05,1000
20:27:32.820,0.42,1.77,-24.2,-6.28,18.84,1.71,-0.0,-0.01,1.05,1000
20:27:32.820,0.37,1.95,-24.18,-1.89,15.85,3.29,-0.02,0.02,1.05,1000
20:27:32.820,0.37,2.09,-24.14,1.77,12.01,2.5,0.0,0.05,1.07,1000
20:27:32.820,0.41,2.18,-24.12,4.76,9.33,1.28,0.02,0.02,1.07,1000
20:27:32.822,0.48,2.25,-24.1,7.07,7.56,1.28,-0.02,0.0,1.07,1000
20:27:32.832,0.57,2.32,-24.09,8.66,6.52,1.89,-0.04,0.01,1.05,1000
20:27:32.843,0.66,2.38,-24.07,9.15,6.71,0.43,-0.05,0.02,1.1,1000
20:27:33.038,0.76,2.45,-24.08,9.09,8.35,-0.85,-0.04,0.0,1.07,1000
20:27:33.038,0.86,2.54,-24.09,8.78,10.79,-1.95,-0.06,-0.01,1.08,1000
20:27:33.038,0.95,2.67,-24.12,8.29,13.05,-2.93,-0.05,-0.02,1.05,1000
20:27:33.038,1.02,2.81,-24.15,7.68,15.85,-4.15,-0.03,-0.02,1.07,1000
20:27:33.038,1.08,2.99,-24.2,7.01,19.39,-5.91,-0.03,-0.03,1.04,1000
20:27:33.038,1.13,3.22,-24.27,5.85,24.51,-7.13,-0.02,-0.07,1.06,1000
20:27:33.038,1.16,3.49,-24.36,5.06,27.44,-8.54,-0.12,-0.04,0.97,1000
20:27:33.038,1.18,3.79,-24.47,3.41,26.65,-13.54,-0.09,0.01,1.02,1000
20:27:33.038,1.19,4.08,-24.65,1.59,25.61,-20.43,-0.04,0.02,1.03,1000
20:27:33.038,1.19,4.34,-24.9,-0.3,23.6,-27.56,-0.06,0.04,1.02,1000
20:27:33.038,1.16,4.57,-25.24,-3.66,19.39,-35.3,-0.04,0.03,1.02,1000
20:27:33.038,1.11,4.75,-25.65,-6.77,15.73,-40.18,-0.06,-0.0,1.04,1000
20:27:33.038,1.01,4.9,-26.11,-10.24,12.74,-43.35,-0.09,-0.01,1.01,1000
20:27:33.038,0.88,5.02,-26.59,-13.48,10.37,-45.61,-0.1,0.01,1.01,1000
20:27:33.038,0.72,5.12,-27.1,-15.49,8.54,-47.5,-0.14,0.01,1.01,1000
20:27:33.038,0.54,5.22,-27.64,-16.83,6.1,-49.76,-0.15,0.04,1.03,1000
20:27:33.038,0.36,5.29,-28.19,-17.38,4.27,-50.73,-0.11,-0.01,1.04,1000
20:27:33.041,0.18,5.35,-28.74,-15.73,3.6,-49.15,-0.13,-0.02,1.04,1000
20:27:33.053,0.01,5.4,-29.31,-13.29,2.99,-45.79,-0.13,-0.05,1.03,1000
20:27:33.219,-0.12,5.44,-29.75,-10.91,2.99,-40.91,-0.13,-0.07,1.04,1000
20:27:33.219,-0.25,5.49,-30.18,-7.8,3.9,-35.55,-0.11,-0.05,1.04,1000
20:27:33.219,-0.33,5.54,-30.52,-5.43,4.33,-32.13,-0.08,-0.01,1.04,1000
20:27:33.219,-0.39,5.59,-30.85,-3.48,4.45,-28.29,-0.08,-0.02,1.03,1000
20:27:33.219,-0.44,5.63,-31.15,-2.38,4.21,-24.09,-0.07,-0.03,1.05,1000
20:27:33.219,-0.47,5.66,-31.39,-2.07,3.29,-20.0,-0.09,-0.03,1.04,1000
20:27:33.219,-0.5,5.68,-31.58,-2.13,1.89,-16.4,-0.08,-0.02,1.07,1000
20:27:33.219,-0.54,5.69,-31.75,-2.38,0.85,-12.56,-0.08,-0.03,1.06,1000
20:27:33.219,-0.57,5.68,-31.87,-2.5,-0.67,-9.02,-0.1,-0.03,1.05,1000
20:27:33.220,-0.61,5.66,-31.96,-2.74,-3.6,-6.65,-0.11,-0.0,1.03,1000
20:27:33.220,-0.64,5.6,-32.04,-3.17,-7.32,-7.01,-0.13,0.04,1.03,1000
20:27:33.220,-0.67,5.5,-32.12,-3.05,-12.8,-8.96,-0.1,0.06,1.03,1000
20:27:33.220,-0.68,5.35,-32.23,-2.68,-15.73,-11.16,-0.09,0.03,1.06,1000
20:27:33.220,-0.68,5.16,-32.35,-1.34,-18.9,-10.79,-0.1,-0.03,1.02,1000
20:27:33.220,-0.68,4.94,-32.47,0.79,-22.56,-9.51,-0.07,-0.05,1.03,1000
20:27:33.228,-0.66,4.68,-32.57,3.48,-27.38,-10.18,-0.19,0.04,0.98,1000
20:27:33.239,-0.61,4.37,-32.7,5.18,-32.8,-14.27,-0.07,0.04,1.08,1000
20:27:33.250,-0.53,4.03,-32.87,7.44,-32.5,-16.4,-0.07,0.0,1.06,1000
20:27:33.261,-0.43,3.68,-33.05,8.9,-30.91,-16.65,-0.06,-0.03,1.04,1000
20:27:33.280,-0.34,3.36,-33.23,9.09,-27.8,-14.82,-0.02,-0.06,1.04,1000
20:27:33.283,-0.25,3.08,-33.38,8.23,-22.2,-12.44,0.0,-0.05,1.02,1000
20:27:33.294,-0.19,2.85,-33.51,6.83,-15.85,-10.67,-0.04,-0.02,0.96,1000
20:27:33.305,-0.14,2.7,-33.62,4.51,-10.3,-10.06,-0.04,-0.01,1.0,1000
20:27:33.316,-0.11,2.6,-33.73,1.71,-4.09,-9.82,-0.02,-0.01,0.98,1000
20:27:33.327,-0.11,2.58,-33.84,0.12,3.6,-9.33,0.01,-0.02,0.99,1000
20:27:33.340,-0.12,2.63,-33.94,-0.98,10.67,-8.41,-0.0,-0.02,1.0,1000
20:27:33.349,-0.14,2.75,-34.03,-1.65,15.06,-8.23,-0.03,0.02,0.99,1000
20:27:33.360,-0.16,2.91,-34.12,-1.59,17.8,-8.96,-0.01,0.01,1.03,1000
20:27:33.565,-0.17,3.1,-34.22,-0.61,20.85,-7.8,-0.04,-0.04,1.03,1000
20:27:33.565,-0.18,3.33,-34.29,1.83,23.05,-5.0,-0.06,-0.06,1.04,1000
20:27:33.565,-0.16,3.57,-34.34,3.96,23.05,-2.99,-0.07,-0.03,1.03,1000
20:27:33.565,-0.12,3.81,-34.37,6.59,20.18,-3.54,-0.14,0.03,1.0,1000
20:27:33.565,-0.05,4.02,-34.42,6.4,14.94,-7.13,-0.09,0.07,1.08,1000
20:27:33.565,0.04,4.17,-34.52,6.34,8.78,-9.94,-0.12,0.07,1.03,1000
20:27:33.565,0.12,4.25,-34.63,5.06,2.44,-11.1,-0.1,0.03,1.1,1000
20:27:33.565,0.18,4.26,-34.74,2.56,-3.41,-10.12,-0.09,0.03,1.07,1000
20:27:33.565,0.21,4.21,-34.84,-0.49,-7.93,-6.65,-0.06,-0.02,1.08,1000
20:27:33.565,0.2,4.11,-34.89,-3.35,-10.55,-1.59,-0.08,-0.04,1.04,1000
20:27:33.565,0.15,3.99,-34.88,-5.49,-10.98,3.17,-0.06,-0.02,1.04,1000
20:27:33.565,0.07,3.88,-34.84,-6.65,-8.29,5.12,-0.04,0.0,1.02,1000
20:27:33.565,0.0,3.79,-34.78,-6.22,-7.56,4.21,-0.13,0.06,0.98,1000
20:27:33.565,-0.06,3.72,-34.75,-5.43,-6.22,0.0,-0.02,0.06,1.06,1000
20:27:33.565,-0.09,3.67,-34.76,-3.6,-1.83,-2.26,-0.04,0.01,1.04,1000
20:27:33.565,-0.11,3.66,-34.79,-1.95,2.01,-2.32,-0.06,-0.03,1.02,1000
20:27:33.565,-0.12,3.69,-34.81,-0.79,5.24,-0.79,-0.03,-0.04,1.04,1000
20:27:33.565,-0.14,3.76,-34.81,0.0,10.43,0.55,-0.06,-0.04,1.04,1000
20:27:33.568,-0.14,3.88,-34.81,0.06,12.56,0.0,-0.09,0.01,1.02,1000
20:27:33.580,-0.15,4.03,-34.82,-1.22,13.96,-2.26,-0.07,0.02,1.06,1000
20:27:33.591,-0.17,4.18,-34.85,-3.9,14.57,-3.84,-0.06,0.0,1.05,1000
20:27:33.602,-0.22,4.33,-34.9,-5.91,14.02,-4.57,-0.08,-0.0,1.03,1000
20:27:33.613,-0.3,4.47,-34.95,-8.96,11.1,-5.0,-0.11,0.0,1.03,1000
20:27:33.624,-0.4,4.57,-35.0,-11.4,4.21,-4.82,-0.13,-0.0,1.0,1000
20:27:33.635,-0.53,4.59,-35.05,-12.87,-4.57,-4.76,-0.14,0.02,1.03,1000
20:27:33.647,-0.66,4.52,-35.1,-13.41,-10.98,-3.11,-0.06,-0.05,1.09,1000
20:27:33.660,-0.8,4.39,-35.12,-11.65,-14.15,0.43,-0.08,-0.07,1.05,1000
20:27:33.668,-0.93,4.23,-35.1,-7.99,-17.32,4.27,-0.12,-0.08,1.02,1000
20:27:33.688,-1.02,4.04,-35.04,-3.35,-19.39,6.1,-0.09,-0.04,1.04,1000
20:27:33.690,-1.04,3.83,-34.97,1.77,-20.37,5.79,-0.09,-0.02,1.03,1000
20:27:33.703,-1.01,3.61,-34.91,6.65,-19.15,5.49,-0.03,-0.05,1.04,1000
20:27:33.712,-0.93,3.42,-34.85,10.0,-16.4,6.16,-0.06,-0.05,1.02,1000
20:27:33.723,-0.83,3.25,-34.78,11.52,-13.35,6.77,-0.04,-0.04,1.0,1000
20:27:33.734,-0.72,3.12,-34.7,11.22,-9.21,6.95,-0.05,-0.02,0.98,1000
20:27:33.750,-0.61,3.03,-34.64,9.09,-4.76,4.88,-0.04,0.03,1.0,1000
20:27:33.759,-0.53,3.0,-34.59,5.24,0.55,3.48,-0.02,-0.0,1.0,1000
20:27:33.771,-0.48,3.02,-34.55,1.71,6.22,3.35,-0.04,-0.02,1.0,1000
20:27:33.977,-0.48,3.1,-34.52,-1.52,11.04,3.54,-0.03,-0.02,0.99,1000
20:27:33.978,-0.51,3.23,-34.48,-4.02,14.39,3.29,-0.06,-0.01,1.0,1000
20:27:33.978,-0.56,3.39,-34.45,-5.0,15.91,1.89,-0.07,-0.0,1.0,1000
20:27:33.978,-0.62,3.56,-34.44,-5.06,15.0,-0.43,-0.09,0.02,1.01,1000
20:27:33.978,-0.66,3.72,-34.45,-4.57,12.62,-2.93,-0.07,0.01,1.04,1000
20:27:33.978,-0.7,3.85,-34.49,-3.78,9.57,-4.21,-0.1,-0.01,1.02,1000
20:27:33.978,-0.74,3.94,-34.54,-3.17,4.09,-4.82,-0.11,0.02,1.02,1000
20:27:33.978,-0.76,3.97,-34.59,-2.87,0.37,-5.06,-0.07,-0.01,1.04,1000
20:27:33.978,-0.78,3.98,-34.63,-2.68,-1.28,-3.35,-0.1,-0.05,1.03,1000
20:27:33.978,-0.8,3.96,-34.65,-1.95,-2.62,-0.18,-0.1,-0.06,1.01,1000
20:27:33.978,-0.83,3.95,-34.64,-0.24,-2.26,1.77,-0.08,-0.04,1.03,1000
20:27:33.978,-0.83,3.94,-34.62,2.32,-1.16,1.83,-0.13,-0.02,0.99,1000
20:27:33.978,-0.8,3.94,-34.61,3.54,-2.13,-1.46,-0.11,0.08,1.03,1000
20:27:33.978,-0.74,3.92,-34.65,3.72,-3.05,-5.67,-0.03,0.02,1.04,1000
20:27:33.978,-0.69,3.9,-34.71,3.41,-0.91,-5.61,-0.05,-0.02,1.05,1000
20:27:33.978,-0.65,3.9,-34.77,1.65,0.85,-3.48,-0.07,-0.03,1.02,1000
20:27:33.978,-0.64,3.91,-34.79,-0.3,2.56,-0.12,-0.06,-0.04,1.03,1000
20:27:33.978,-0.65,3.95,-34.78,-1.46,6.1,2.13,-0.06,-0.02,1.01,1000
20:27:33.978,-0.68,4.03,-34.75,-3.11,9.39,2.8,-0.07,0.0,0.99,1000
20:27:33.989,-0.72,4.14,-34.73,-4.27,12.44,2.07,-0.04,0.0,1.02,1000
20:27:33.998,-0.76,4.28,-34.71,-4.27,14.82,0.73,-0.12,0.02,0.97,1000
20:27:34.010,-0.8,4.45,-34.71,-4.7,15.49,-2.74,-0.07,0.05,1.05,1000
20:27:34.020,-0.82,4.62,-34.76,-4.02,16.52,-4.88,-0.06,0.01,1.03,1000
20:27:34.031,-0.85,4.79,-34.81,-3.05,16.04,-4.45,-0.12,-0.01,1.03,1000
20:27:34.042,-0.87,4.96,-34.86,-2.2,14.21,-3.84,-0.09,-0.02,1.03,1000
20:27:34.059,-0.88,5.11,-34.89,-1.16,13.35,-1.52,-0.12,-0.03,1.06,1000
20:27:34.065,-0.89,5.26,-34.9,0.49,12.13,0.12,-0.14,-0.03,1.02,1000
20:27:34.079,-0.88,5.38,-34.9,0.79,6.65,-0.24,-0.17,0.07,1.03,1000
20:27:34.100,-0.85,5.43,-34.92,0.55,-2.07,-3.48,-0.14,0.05,1.09,1000
20:27:34.100,-0.82,5.4,-34.95,1.28,-7.13,-2.68,-0.08,0.01,1.1,1000
20:27:34.109,-0.79,5.31,-34.97,1.4,-12.56,-0.3,-0.15,0.01,1.1,1000
20:27:34.120,-0.76,5.15,-34.96,0.49,-19.63,2.32,-0.09,0.0,1.11,1000
20:27:34.131,-0.75,4.93,-34.92,-0.24,-23.48,6.22,-0.11,-0.04,1.09,1000
20:27:34.141,-0.76,4.67,-34.83,-0.85,-25.73,10.55,-0.07,-0.05,1.07,1000
20:27:34.152,-0.78,4.39,-34.71,-1.04,-26.1,12.26,-0.04,-0.04,1.06,1000
20:27:34.166,-0.8,4.11,-34.58,-0.91,-26.34,11.4,-0.1,-0.0,1.03,1000
20:27:34.174,-0.81,3.83,-34.47,-0.3,-25.67,7.01,-0.04,0.02,1.04,1000
20:27:34.385,-0.8,3.56,-34.41,0.73,-22.2,3.05,-0.02,-0.01,1.03,1000
20:27:34.385,-0.78,3.33,-34.39,0.3,-17.99,-1.16,-0.06,0.02,1.02,1000
20:27:34.385,-0.77,3.15,-34.42,-0.85,-12.44,-3.35,-0.01,-0.03,1.02,1000
20:27:34.551,-1.27,3.06,0.51,-4.57,0.79,12.44,-0.03,0.24,1.0,1100
20:27:34.551,-1.28,3.02,0.64,-1.77,-1.59,12.62,-0.19,-0.03,1.11,1100
20:27:34.551,-1.28,3.0,0.76,-0.55,-6.04,10.24,-0.01,-0.03,1.07,1100
20:27:35.495,-0.48,4.37,1.13,21.77,4.39,11.04,-0.09,0.78,1.07,1140
20:27:35.504,-0.52,4.34,1.23,-20.0,0.37,9.76,-0.1,0.65,0.99,1140
20:27:35.515,-0.59,4.31,1.33,-32.68,-9.39,9.76,0.06,0.04,1.03,1140
20:27:36.506,-0.77,4.32,2.0,-43.54,-16.77,-2.26,-0.22,0.14,1.16,1160
20:27:36.516,-0.81,4.27,2.0,11.95,-11.1,-2.32,-0.06,-1.24,1.0,1160
20:27:36.527,-0.79,4.25,1.99,65.12,23.23,1.52,-0.13,0.3,1.02,1160
20:27:37.530,-0.75,3.34,2.76,4.76,7.32,3.6,-0.08,0.7,1.22,1180
20:27:37.546,-0.74,3.3,2.76,-31.22,-27.2,-3.84,0.14,-0.23,1.09,1180
20:27:38.687,-0.65,0.58,1.24,1.59,6.71,-2.68,-0.05,0.41,1.32,1250
20:27:38.696,-0.67,0.62,1.25,6.4,4.45,-1.89,0.13,-0.11,1.21,1250
20:27:39.852,-0.37,-1.3,-14.5,-29.76,-0.91,21.46,-0.06,-0.55,1.09,1270
20:27:41.230,-0.79,-1.57,-14.71,-17.5,-2.87,4.02,-0.31,-0.24,1.17,1270
20:27:41.230,-0.78,-1.55,-14.68,1.89,-10.91,-0.55,0.69,0.18,0.97,1270
20:27:42.205,-0.25,-1.96,-9.96,-12.2,10.55,5.98,-0.43,-0.17,0.84,1270
20:27:42.214,-0.27,-1.93,-9.92,-1.1,-2.07,2.5,0.33,0.27,1.34,1270
20:27:44.469,-0.28,-1.22,-11.33,-10.43,-16.4,4.45,-0.04,-0.86,1.01,1270
20:27:44.480,-0.21,-1.26,-11.31,2.44,-2.56,-6.34,0.26,0.81,0.78,1270
20:27:45.481,0.46,-1.04,-12.98,-24.63,12.56,4.39,0.02,0.34,1.0,1270
20:27:45.492,0.44,-1.04,-13.0,15.79,-13.35,-5.06,0.41,0.09,1.26,1270
20:27:46.488,-0.59,-1.4,-12.4,-9.39,3.9,-1.22,-0.84,-0.87,1.06,1270
20:27:46.493,-0.59,-1.41,-12.37,31.34,3.9,7.01,0.45,0.99,0.99,1270
20:27:47.512,-0.53,-1.36,-11.6,-3.9,2.56,-6.83,-0.49,-0.66,1.06,1270
20:27:48.539,-0.53,-1.65,-16.09,-15.67,7.2,-4.94,0.75,1.29,0.74,1270
20:27:48.551,-0.58,-1.64,-16.08,-21.65,-0.43,-2.99,-1.06,-1.59,1.22,1270
20:27:48.561,-0.63,-1.64,-16.07,0.24,17.5,-1.46,0.62,1.66,1.06,1270
20:27:49.541,0.14,-1.86,-15.14,7.26,-7.13,11.22,0.63,1.16,0.97,1270
20:27:49.748,0.21,-1.84,-15.08,38.05,-5.37,9.02,-0.69,-0.75,1.18,1270
20:27:49.748,0.28,-1.83,-15.03,-31.34,2.56,8.29,1.09,1.23,0.94,1270
20:27:49.748,0.21,-1.79,-14.99,47.01,-12.56,-0.73,-0.28,-0.54,1.08,1270
20:27:50.563,0.11,-2.97,-11.61,1.28,-13.78,17.38,-0.45,-1.16,1.1,1270
20:27:50.747,0.16,-3.02,-11.38,-33.05,-10.55,18.54,0.99,1.23,0.79,1270
20:27:51.752,-0.97,-3.63,-16.77,-4.94,18.66,0.37,0.26,1.03,0.71,1270
20:27:51.935,-0.97,-3.63,-16.74,23.78,-13.66,-1.65,0.56,0.06,0.76,1270
20:27:51.935,-0.93,-3.67,-16.73,10.0,25.49,3.05,0.03,0.66,0.99,1270
20:27:51.935,-0.89,-3.72,-16.72,32.44,-6.77,-0.43,0.17,-0.46,1.08,1270
20:27:52.941,-0.73,0.51,-16.44,-7.8,24.15,11.46,-0.52,-0.37,1.22,1270
20:27:54.149,-2.32,-1.94,-10.26,-33.84,8.96,1.28,-0.55,-1.0,1.19,1270
20:27:56.333,-1.3,0.44,-15.74,54.21,-22.8,10.12,-0.01,-0.04,0.69,1270
